__time,/hamster2/imu/angular_velocity/x,/hamster2/imu/angular_velocity/y,/hamster2/imu/angular_velocity/z,/hamster2/imu/angular_velocity_covariance[0;0],/hamster2/imu/angular_velocity_covariance[0;1],/hamster2/imu/angular_velocity_covariance[0;2],/hamster2/imu/angular_velocity_covariance[1;1],/hamster2/imu/angular_velocity_covariance[1;2],/hamster2/imu/angular_velocity_covariance[2;2],/hamster2/imu/header/stamp,/hamster2/imu/linear_acceleration/x,/hamster2/imu/linear_acceleration/y,/hamster2/imu/linear_acceleration/z,/hamster2/imu/linear_acceleration_covariance[0;0],/hamster2/imu/linear_acceleration_covariance[0;1],/hamster2/imu/linear_acceleration_covariance[0;2],/hamster2/imu/linear_acceleration_covariance[1;1],/hamster2/imu/linear_acceleration_covariance[1;2],/hamster2/imu/linear_acceleration_covariance[2;2],/hamster2/imu/orientation/w,/hamster2/imu/orientation/x,/hamster2/imu/orientation/y,/hamster2/imu/orientation/z,/hamster2/imu/orientation_covariance[0;0],/hamster2/imu/orientation_covariance[0;1],/hamster2/imu/orientation_covariance[0;2],/hamster2/imu/orientation_covariance[1;1],/hamster2/imu/orientation_covariance[1;2],/hamster2/imu/orientation_covariance[2;2],/hamster2/velocity/data,/hamster2/voltage/data,/tf/world/hamster2/base_link/header/stamp,/tf/world/hamster2/base_link/rotation/w,/tf/world/hamster2/base_link/rotation/x,/tf/world/hamster2/base_link/rotation/y,/tf/world/hamster2/base_link/rotation/z,/tf/world/hamster2/base_link/translation/x,/tf/world/hamster2/base_link/translation/y,/tf/world/hamster2/base_link/translation/z,/tf_static/hamster2/base_link/hamster2/camera_link/header/stamp,/tf_static/hamster2/base_link/hamster2/camera_link/rotation/w,/tf_static/hamster2/base_link/hamster2/camera_link/rotation/x,/tf_static/hamster2/base_link/hamster2/camera_link/rotation/y,/tf_static/hamster2/base_link/hamster2/camera_link/rotation/z,/tf_static/hamster2/base_link/hamster2/camera_link/translation/x,/tf_static/hamster2/base_link/hamster2/camera_link/translation/y,/tf_static/hamster2/base_link/hamster2/camera_link/translation/z,/tf_static/hamster2/camera_accel_frame/hamster2/camera_accel_optical_frame/header/stamp,/tf_static/hamster2/camera_accel_frame/hamster2/camera_accel_optical_frame/rotation/w,/tf_static/hamster2/camera_accel_frame/hamster2/camera_accel_optical_frame/rotation/x,/tf_static/hamster2/camera_accel_frame/hamster2/camera_accel_optical_frame/rotation/y,/tf_static/hamster2/camera_accel_frame/hamster2/camera_accel_optical_frame/rotation/z,/tf_static/hamster2/camera_accel_frame/hamster2/camera_accel_optical_frame/translation/x,/tf_static/hamster2/camera_accel_frame/hamster2/camera_accel_optical_frame/translation/y,/tf_static/hamster2/camera_accel_frame/hamster2/camera_accel_optical_frame/translation/z,/tf_static/hamster2/camera_gyro_frame/hamster2/camera_gyro_optical_frame/header/stamp,/tf_static/hamster2/camera_gyro_frame/hamster2/camera_gyro_optical_frame/rotation/w,/tf_static/hamster2/camera_gyro_frame/hamster2/camera_gyro_optical_frame/rotation/x,/tf_static/hamster2/camera_gyro_frame/hamster2/camera_gyro_optical_frame/rotation/y,/tf_static/hamster2/camera_gyro_frame/hamster2/camera_gyro_optical_frame/rotation/z,/tf_static/hamster2/camera_gyro_frame/hamster2/camera_gyro_optical_frame/translation/x,/tf_static/hamster2/camera_gyro_frame/hamster2/camera_gyro_optical_frame/translation/y,/tf_static/hamster2/camera_gyro_frame/hamster2/camera_gyro_optical_frame/translation/z,/tf_static/hamster2/camera_link/hamster2/camera_accel_frame/header/stamp,/tf_static/hamster2/camera_link/hamster2/camera_accel_frame/rotation/w,/tf_static/hamster2/camera_link/hamster2/camera_accel_frame/rotation/x,/tf_static/hamster2/camera_link/hamster2/camera_accel_frame/rotation/y,/tf_static/hamster2/camera_link/hamster2/camera_accel_frame/rotation/z,/tf_static/hamster2/camera_link/hamster2/camera_accel_frame/translation/x,/tf_static/hamster2/camera_link/hamster2/camera_accel_frame/translation/y,/tf_static/hamster2/camera_link/hamster2/camera_accel_frame/translation/z,/tf_static/hamster2/camera_link/hamster2/camera_gyro_frame/header/stamp,/tf_static/hamster2/camera_link/hamster2/camera_gyro_frame/rotation/w,/tf_static/hamster2/camera_link/hamster2/camera_gyro_frame/rotation/x,/tf_static/hamster2/camera_link/hamster2/camera_gyro_frame/rotation/y,/tf_static/hamster2/camera_link/hamster2/camera_gyro_frame/rotation/z,/tf_static/hamster2/camera_link/hamster2/camera_gyro_frame/translation/x,/tf_static/hamster2/camera_link/hamster2/camera_gyro_frame/translation/y,/tf_static/hamster2/camera_link/hamster2/camera_gyro_frame/translation/z,/tf_static/hamster2/map/hamster2/odom/header/stamp,/tf_static/hamster2/map/hamster2/odom/rotation/w,/tf_static/hamster2/map/hamster2/odom/rotation/x,/tf_static/hamster2/map/hamster2/odom/rotation/y,/tf_static/hamster2/map/hamster2/odom/rotation/z,/tf_static/hamster2/map/hamster2/odom/translation/x,/tf_static/hamster2/map/hamster2/odom/translation/y,/tf_static/hamster2/map/hamster2/odom/translation/z,/tf_static/world/hamster2/map/header/stamp,/tf_static/world/hamster2/map/rotation/w,/tf_static/world/hamster2/map/rotation/x,/tf_static/world/hamster2/map/rotation/y,/tf_static/world/hamster2/map/rotation/z,/tf_static/world/hamster2/map/translation/x,/tf_static/world/hamster2/map/translation/y,/tf_static/world/hamster2/map/translation/z
1682357881.7155089,,,,,,,,,,,,,,,,,,,,,,,,,,,,,,,,1682356749.584424,-0.99925600000000003,0.0050429999999999997,0.00097599999999999998,0.038217000000000001,2.6689120000000002,-3.3467669999999998,0.13752200000000001,,,,,,,,,,,,,,,,,,,,,,,,,,,,,,,,,,,,,,,,,,,,,,,,,,,,,,,,
1682357881.7159059,0,0,0.001745,0.01,0,0,0.01,0,0.01,1677685709.437541,0.058840000000000003,-9.6987760000000005,0.51975199999999999,0.01,0,0,0.01,0,0.01,0,0,0,0,-1,0,0,0,0,0,,,,,,,,,,,,,,,,,,,,,,,,,,,,,,,,,,,,,,,,,,,,,,,,,,,,,,,,,,,,,,,,,,
1682357881.716655,,,,,,,,,,,,,,,,,,,,,,,,,,,,,,,,1682356749.5975239,-0.99925600000000003,0.0050229999999999997,0.00095699999999999995,0.038227999999999998,2.668927,-3.346781,0.137543,,,,,,,,,,,,,,,,,,,,,,,,,,,,,,,,,,,,,,,,,,,,,,,,,,,,,,,,
1682357881.7170341,-0.001745,0,0,0.01,0,0,0.01,0,0.01,1677685709.442539,0.058840000000000003,-9.6987760000000005,0.51975199999999999,0.01,0,0,0.01,0,0.01,0,0,0,0,-1,0,0,0,0,0,,,,,,,,,,,,,,,,,,,,,,,,,,,,,,,,,,,,,,,,,,,,,,,,,,,,,,,,,,,,,,,,,,
1682357881.717737,,,,,,,,,,,,,,,,,,,,,,,,,,,,,,,,1682356749.5993979,-0.99925699999999995,0.0049249999999999997,0.00097799999999999992,0.038207999999999999,2.6689310000000002,-3.3467910000000001,0.13755700000000001,,,,,,,,,,,,,,,,,,,,,,,,,,,,,,,,,,,,,,,,,,,,,,,,,,,,,,,,
1682357881.717941,-0.0034910000000000002,0.001745,0,0.01,0,0,0.01,0,0.01,1677685709.447536,0.058840000000000003,-9.7085830000000009,0.51975199999999999,0.01,0,0,0.01,0,0.01,0,0,0,0,-1,0,0,0,0,0,,,,,,,,,,,,,,,,,,,,,,,,,,,,,,,,,,,,,,,,,,,,,,,,,,,,,,,,,,,,,,,,,,
1682357881.718358,,,,,,,,,,,,,,,,,,,,,,,,,,,,,,,,1682356749.604315,-0.999255,0.0050289999999999996,0.00092699999999999998,0.038247999999999997,2.6689440000000002,-3.3467889999999998,0.137548,,,,,,,,,,,,,,,,,,,,,,,,,,,,,,,,,,,,,,,,,,,,,,,,,,,,,,,,
1682357881.718857,-0.0034910000000000002,0.0034910000000000002,-0.001745,0.01,0,0,0.01,0,0.01,1677685709.4525349,0.058840000000000003,-9.7085830000000009,0.51975199999999999,0.01,0,0,0.01,0,0.01,0,0,0,0,-1,0,0,0,0,0,,,,,,,,,,,,,,,,,,,,,,,,,,,,,,,,,,,,,,,,,,,,,,,,,,,,,,,,,,,,,,,,,,
1682357881.7206061,,,,,,,,,,,,,,,,,,,,,,,,,,,,,,0,,,,,,,,,,,,,,,,,,,,,,,,,,,,,,,,,,,,,,,,,,,,,,,,,,,,,,,,,,,,,,,,,
1682357881.720809,-0.001745,0.001745,0,0.01,0,0,0.01,0,0.01,1677685709.4575319,0.068647,-9.7183899999999994,0.51975199999999999,0.01,0,0,0.01,0,0.01,0,0,0,0,-1,0,0,0,0,0,,,,,,,,,,,,,,,,,,,,,,,,,,,,,,,,,,,,,,,,,,,,,,,,,,,,,,,,,,,,,,,,,,
1682357881.7210071,,,,,,,,,,,,,,,,,,,,,,,,,,,,,,,,1682356749.6122329,-0.99925699999999995,0.0049829999999999996,0.00095600000000000004,0.038213999999999998,2.6689379999999998,-3.3467799999999999,0.13752700000000001,,,,,,,,,,,,,,,,,,,,,,,,,,,,,,,,,,,,,,,,,,,,,,,,,,,,,,,,
1682357881.721209,-0.001745,0,0,0.01,0,0,0.01,0,0.01,1677685709.4625299,0.068647,-9.7183899999999994,0.51975199999999999,0.01,0,0,0.01,0,0.01,0,0,0,0,-1,0,0,0,0,0,,,,,,,,,,,,,,,,,,,,,,,,,,,,,,,,,,,,,,,,,,,,,,,,,,,,,,,,,,,,,,,,,,
1682357881.7214429,0,0,0,0.01,0,0,0.01,0,0.01,1677685709.4675281,0.068647,-9.7183899999999994,0.51975199999999999,0.01,0,0,0.01,0,0.01,0,0,0,0,-1,0,0,0,0,0,,,,,,,,,,,,,,,,,,,,,,,,,,,,,,,,,,,,,,,,,,,,,,,,,,,,,,,,,,,,,,,,,,
1682357881.7217021,0,0.0034910000000000002,0,0.01,0,0,0.01,0,0.01,1677685709.4725261,0.068647,-9.7183899999999994,0.51975199999999999,0.01,0,0,0.01,0,0.01,0,0,0,0,-1,0,0,0,0,0,,,,,,,,,,,,,,,,,,,,,,,,,,,,,,,,,,,,,,,,,,,,,,,,,,,,,,,,,,,,,,,,,,
1682357881.722013,,,,,,,,,,,,,,,,,,,,,,,,,,,,,,,,1682356749.620625,-0.99925600000000003,0.0050800000000000003,0.00097900000000000005,0.038216,2.6689340000000001,-3.346768,0.13749700000000001,,,,,,,,,,,,,,,,,,,,,,,,,,,,,,,,,,,,,,,,,,,,,,,,,,,,,,,,
1682357881.7225709,-0.0034910000000000002,0.0052360000000000002,-0.001745,0.01,0,0,0.01,0,0.01,1677685709.4775231,0.068647,-9.7085830000000009,0.529559,0.01,0,0,0.01,0,0.01,0,0,0,0,-1,0,0,0,0,0,,,,,,,,,,,,,,,,,,,,,,,,,,,,,,,,,,,,,,,,,,,,,,,,,,,,,,,,,,,,,,,,,,
1682357881.7227831,,,,,,,,,,,,,,,,,,,,,,,,,,,,,,0,,,,,,,,,,,,,,,,,,,,,,,,,,,,,,,,,,,,,,,,,,,,,,,,,,,,,,,,,,,,,,,,,
1682357881.723099,0,0.0034910000000000002,0,0.01,0,0,0.01,0,0.01,1677685709.482522,0.068647,-9.7085830000000009,0.529559,0.01,0,0,0.01,0,0.01,0,0,0,0,-1,0,0,0,0,0,,,,,,,,,,,,,,,,,,,,,,,,,,,,,,,,,,,,,,,,,,,,,,,,,,,,,,,,,,,,,,,,,,
1682357881.7235119,,,,,,,,,,,,,,,,,,,,,,,,,,,,,,,,1682356749.6293089,-0.99925399999999998,0.005045,0.00095299999999999996,0.038268000000000003,2.6689250000000002,-3.3467570000000002,0.13747500000000001,,,,,,,,,,,,,,,,,,,,,,,,,,,,,,,,,,,,,,,,,,,,,,,,,,,,,,,,
1682357881.723917,0,0,0,0.01,0,0,0.01,0,0.01,1677685709.48752,0.068647,-9.6987760000000005,0.51975199999999999,0.01,0,0,0.01,0,0.01,0,0,0,0,-1,0,0,0,0,0,,,,,,,,,,,,,,,,,,,,,,,,,,,,,,,,,,,,,,,,,,,,,,,,,,,,,,,,,,,,,,,,,,
1682357881.7241111,-0.001745,0.001745,0,0.01,0,0,0.01,0,0.01,1677685709.492517,0.068647,-9.6987760000000005,0.51975199999999999,0.01,0,0,0.01,0,0.01,0,0,0,0,-1,0,0,0,0,0,,,,,,,,,,,,,,,,,,,,,,,,,,,,,,,,,,,,,,,,,,,,,,,,,,,,,,,,,,,,,,,,,,
1682357881.7246799,,,,,,,,,,,,,,,,,,,,,,,,,,,,,,,,1682356749.639771,-0.999255,0.0051240000000000001,0.0009990000000000001,0.038237,2.6689129999999999,-3.3467509999999998,0.13746,,,,,,,,,,,,,,,,,,,,,,,,,,,,,,,,,,,,,,,,,,,,,,,,,,,,,,,,
1682357881.725039,-0.0034910000000000002,0,0,0.01,0,0,0.01,0,0.01,1677685709.497515,0.078452999999999995,-9.6987760000000005,0.51975199999999999,0.01,0,0,0.01,0,0.01,0,0,0,0,-1,0,0,0,0,0,,,,,,,,,,,,,,,,,,,,,,,,,,,,,,,,,,,,,,,,,,,,,,,,,,,,,,,,,,,,,,,,,,
1682357881.7253389,,,,,,,,,,,,,,,,,,,,,,,,,,,,,,0,,,,,,,,,,,,,,,,,,,,,,,,,,,,,,,,,,,,,,,,,,,,,,,,,,,,,,,,,,,,,,,,,
1682357881.7255299,-0.001745,0,0,0.01,0,0,0.01,0,0.01,1677685709.5025129,0.078452999999999995,-9.6987760000000005,0.51975199999999999,0.01,0,0,0.01,0,0.01,0,0,0,0,-1,0,0,0,0,0,,,,,,,,,,,,,,,,,,,,,,,,,,,,,,,,,,,,,,,,,,,,,,,,,,,,,,,,,,,,,,,,,,
1682357881.731303,-0.001745,0.001745,0,0.01,0,0,0.01,0,0.01,1677685709.5075109,0.078452999999999995,-9.7183899999999994,0.50994600000000001,0.01,0,0,0.01,0,0.01,0,0,0,0,-1,0,0,0,0,0,,,,,,,,,,,,,,,,,,,,,,,,,,,,,,,,,,,,,,,,,,,,,,,,,,,,,,,,,,,,,,,,,,
1682357881.7313459,-0.0052360000000000002,0.001745,0,0.01,0,0,0.01,0,0.01,1677685709.5125091,0.078452999999999995,-9.7183899999999994,0.50994600000000001,0.01,0,0,0.01,0,0.01,0,0,0,0,-1,0,0,0,0,0,,,,,,,,,,,,,,,,,,,,,,,,,,,,,,,,,,,,,,,,,,,,,,,,,,,,,,,,,,,,,,,,,,
1682357881.7313609,,,,,,,,,,,,,,,,,,,,,,,,,,,,,,0,,,,,,,,,,,,,,,,,,,,,,,,,,,,,,,,,,,,,,,,,,,,,,,,,,,,,,,,,,,,,,,,,
1682357881.73137,,,,,,,,,,,,,,,,,,,,,,,,,,,,,,0,,,,,,,,,,,,,,,,,,,,,,,,,,,,,,,,,,,,,,,,,,,,,,,,,,,,,,,,,,,,,,,,,
1682357881.7313769,,,,,,,,,,,,,,,,,,,,,,,,,,,,,,,,1682356749.648097,-0.999255,0.0051000000000000004,0.001029,0.038231000000000001,2.6689069999999999,-3.3467470000000001,0.137465,,,,,,,,,,,,,,,,,,,,,,,,,,,,,,,,,,,,,,,,,,,,,,,,,,,,,,,,
1682357881.731396,,,,,,,,,,,,,,,,,,,,,,,,,,,,,,,,1682356749.654932,-0.99925600000000003,0.0050990000000000002,0.00097999999999999997,0.038221999999999999,2.6689020000000001,-3.346746,0.13747999999999999,,,,,,,,,,,,,,,,,,,,,,,,,,,,,,,,,,,,,,,,,,,,,,,,,,,,,,,,
1682357881.731436,0,0.0034910000000000002,-0.001745,0.01,0,0,0.01,0,0.01,1677685709.5175071,0.058840000000000003,-9.7183899999999994,0.51975199999999999,0.01,0,0,0.01,0,0.01,0,0,0,0,-1,0,0,0,0,0,,,,,,,,,,,,,,,,,,,,,,,,,,,,,,,,,,,,,,,,,,,,,,,,,,,,,,,,,,,,,,,,,,
1682357881.7314539,-0.001745,0.0052360000000000002,0,0.01,0,0,0.01,0,0.01,1677685709.5225041,0.058840000000000003,-9.7183899999999994,0.51975199999999999,0.01,0,0,0.01,0,0.01,0,0,0,0,-1,0,0,0,0,0,,,,,,,,,,,,,,,,,,,,,,,,,,,,,,,,,,,,,,,,,,,,,,,,,,,,,,,,,,,,,,,,,,
1682357881.731467,,,,,,,,,,,,,,,,,,,,,,,,,,,,,,,,1682356749.6629031,-0.99925600000000003,0.0050769999999999999,0.00095100000000000002,0.038231000000000001,2.668914,-3.3467639999999999,0.13750100000000001,,,,,,,,,,,,,,,,,,,,,,,,,,,,,,,,,,,,,,,,,,,,,,,,,,,,,,,,
1682357881.7314811,,,,,,,,,,,,,,,,,,,,,,,,,,,,,,,,1682356749.6717451,-0.99925699999999995,0.0050039999999999998,0.0010059999999999999,0.038209,2.6689240000000001,-3.3467690000000001,0.13753299999999999,,,,,,,,,,,,,,,,,,,,,,,,,,,,,,,,,,,,,,,,,,,,,,,,,,,,,,,,
1682357881.731513,0,0,-0.001745,0.01,0,0,0.01,0,0.01,1677685709.5275021,0.068647,-9.7183899999999994,0.51975199999999999,0.01,0,0,0.01,0,0.01,0,0,0,0,-1,0,0,0,0,0,,,,,,,,,,,,,,,,,,,,,,,,,,,,,,,,,,,,,,,,,,,,,,,,,,,,,,,,,,,,,,,,,,
1682357881.73153,-0.001745,-0.001745,0.001745,0.01,0,0,0.01,0,0.01,1677685709.532501,0.068647,-9.7183899999999994,0.51975199999999999,0.01,0,0,0.01,0,0.01,0,0,0,0,-1,0,0,0,0,0,,,,,,,,,,,,,,,,,,,,,,,,,,,,,,,,,,,,,,,,,,,,,,,,,,,,,,,,,,,,,,,,,,
1682357881.7315431,,,,,,,,,,,,,,,,,,,,,,,,,,,,,,,,1682356749.678925,-0.999255,0.0049829999999999996,0.00097199999999999999,0.038259000000000001,2.6689319999999999,-3.3467820000000001,0.137547,,,,,,,,,,,,,,,,,,,,,,,,,,,,,,,,,,,,,,,,,,,,,,,,,,,,,,,,
1682357881.7315769,-0.0069810000000000002,-0.0052360000000000002,0,0.01,0,0,0.01,0,0.01,1677685709.537498,0.078452999999999995,-9.7085830000000009,0.529559,0.01,0,0,0.01,0,0.01,0,0,0,0,-1,0,0,0,0,0,,,,,,,,,,,,,,,,,,,,,,,,,,,,,,,,,,,,,,,,,,,,,,,,,,,,,,,,,,,,,,,,,,
1682357881.7315941,-0.0034910000000000002,0,-0.001745,0.01,0,0,0.01,0,0.01,1677685709.542496,0.078452999999999995,-9.7085830000000009,0.529559,0.01,0,0,0.01,0,0.01,0,0,0,0,-1,0,0,0,0,0,,,,,,,,,,,,,,,,,,,,,,,,,,,,,,,,,,,,,,,,,,,,,,,,,,,,,,,,,,,,,,,,,,
1682357881.7316251,,,,,,,,,,,,,,,,,,,,,,,,,,,,,,,,1682356749.6882031,-0.99925600000000003,0.0049740000000000001,0.00095799999999999998,0.038226999999999997,2.6689319999999999,-3.3467950000000002,0.13755400000000001,,,,,,,,,,,,,,,,,,,,,,,,,,,,,,,,,,,,,,,,,,,,,,,,,,,,,,,,
1682357881.7320919,-0.001745,0,0.001745,0.01,0,0,0.01,0,0.01,1677685709.5474939,0.078452999999999995,-9.6987760000000005,0.51975199999999999,0.01,0,0,0.01,0,0.01,0,0,0,0,-1,0,0,0,0,0,,,,,,,,,,,,,,,,,,,,,,,,,,,,,,,,,,,,,,,,,,,,,,,,,,,,,,,,,,,,,,,,,,
1682357881.732116,0,0,0,0.01,0,0,0.01,0,0.01,1677685709.5524919,0.078452999999999995,-9.6987760000000005,0.51975199999999999,0.01,0,0,0.01,0,0.01,0,0,0,0,-1,0,0,0,0,0,,,,,,,,,,,,,,,,,,,,,,,,,,,,,,,,,,,,,,,,,,,,,,,,,,,,,,,,,,,,,,,,,,
1682357881.7321301,,,,,,,,,,,,,,,,,,,,,,,,,,,,,,,,1682356749.6991,-0.99925699999999995,0.0049649999999999998,0.00094499999999999998,0.038203000000000001,2.6689370000000001,-3.3467820000000001,0.13755800000000001,,,,,,,,,,,,,,,,,,,,,,,,,,,,,,,,,,,,,,,,,,,,,,,,,,,,,,,,
1682357881.7322011,0,0,0,0.01,0,0,0.01,0,0.01,1677685709.5574889,0.058840000000000003,-9.7085830000000009,0.529559,0.01,0,0,0.01,0,0.01,0,0,0,0,-1,0,0,0,0,0,,,,,,,,,,,,,,,,,,,,,,,,,,,,,,,,,,,,,,,,,,,,,,,,,,,,,,,,,,,,,,,,,,
1682357881.7322209,0,-0.001745,0,0.01,0,0,0.01,0,0.01,1677685709.5624869,0.058840000000000003,-9.7085830000000009,0.529559,0.01,0,0,0.01,0,0.01,0,0,0,0,-1,0,0,0,0,0,,,,,,,,,,,,,,,,,,,,,,,,,,,,,,,,,,,,,,,,,,,,,,,,,,,,,,,,,,,,,,,,,,
1682357881.732491,,,,,,,,,,,,,,,,,,,,,,,,,,,,,,,,1682356749.706615,-0.99925699999999995,0.0050029999999999996,0.00096699999999999998,0.038206999999999998,2.6689289999999999,-3.3467820000000001,0.13752600000000001,,,,,,,,,,,,,,,,,,,,,,,,,,,,,,,,,,,,,,,,,,,,,,,,,,,,,,,,
1682357881.7326469,,,,,,,,,,,,,,,,,,,,,,,,,,,,,,0,,,,,,,,,,,,,,,,,,,,,,,,,,,,,,,,,,,,,,,,,,,,,,,,,,,,,,,,,,,,,,,,,
1682357881.7328291,-0.0034910000000000002,-0.001745,-0.001745,0.01,0,0,0.01,0,0.01,1677685709.5674851,0.068647,-9.7085830000000009,0.51975199999999999,0.01,0,0,0.01,0,0.01,0,0,0,0,-1,0,0,0,0,0,,,,,,,,,,,,,,,,,,,,,,,,,,,,,,,,,,,,,,,,,,,,,,,,,,,,,,,,,,,,,,,,,,
1682357881.7328489,,,,,,,,,,,,,,,,,,,,,,,,,,,,,,,,1682356749.7126751,-0.99925600000000003,0.0050260000000000001,0.00095600000000000004,0.038223,2.668927,-3.3467639999999999,0.13750100000000001,,,,,,,,,,,,,,,,,,,,,,,,,,,,,,,,,,,,,,,,,,,,,,,,,,,,,,,,
1682357881.7330749,0,0,0.001745,0.01,0,0,0.01,0,0.01,1677685709.5724831,0.068647,-9.7085830000000009,0.51975199999999999,0.01,0,0,0.01,0,0.01,0,0,0,0,-1,0,0,0,0,0,,,,,,,,,,,,,,,,,,,,,,,,,,,,,,,,,,,,,,,,,,,,,,,,,,,,,,,,,,,,,,,,,,
1682357881.733278,-0.001745,0.001745,0,0.01,0,0,0.01,0,0.01,1677685709.577481,0.058840000000000003,-9.7085830000000009,0.50994600000000001,0.01,0,0,0.01,0,0.01,0,0,0,0,-1,0,0,0,0,0,,,,,,,,,,,,,,,,,,,,,,,,,,,,,,,,,,,,,,,,,,,,,,,,,,,,,,,,,,,,,,,,,,
1682357881.736609,0,0.001745,0,0.01,0,0,0.01,0,0.01,1677685709.582479,0.058840000000000003,-9.7085830000000009,0.50994600000000001,0.01,0,0,0.01,0,0.01,0,0,0,0,-1,0,0,0,0,0,,,,,,,,,,,,,,,,,,,,,,,,,,,,,,,,,,,,,,,,,,,,,,,,,,,,,,,,,,,,,,,,,,
1682357881.74244,-0.0034910000000000002,0,0,0.01,0,0,0.01,0,0.01,1677685709.587477,0.068647,-9.7183899999999994,0.50994600000000001,0.01,0,0,0.01,0,0.01,0,0,0,0,-1,0,0,0,0,0,,,,,,,,,,,,,,,,,,,,,,,,,,,,,,,,,,,,,,,,,,,,,,,,,,,,,,,,,,,,,,,,,,
1682357881.7427001,,,,,,,,,,,,,,,,,,,,,,,,,,,,,,0,,,,,,,,,,,,,,,,,,,,,,,,,,,,,,,,,,,,,,,,,,,,,,,,,,,,,,,,,,,,,,,,,
1682357881.7427161,,,,,,,,,,,,,,,,,,,,,,,,,,,,,,,,1682356749.7234061,-0.999255,0.005084,0.0009990000000000001,0.038242999999999999,2.66892,-3.3467519999999999,0.13747400000000001,,,,,,,,,,,,,,,,,,,,,,,,,,,,,,,,,,,,,,,,,,,,,,,,,,,,,,,,
1682357881.745188,,,,,,,,,,,,,,,,,,,,,,,,,,,,,,,,1682356749.7297699,-0.999255,0.0051539999999999997,0.0010460000000000001,0.038240999999999997,2.6689059999999998,-3.3467449999999999,0.13745299999999999,,,,,,,,,,,,,,,,,,,,,,,,,,,,,,,,,,,,,,,,,,,,,,,,,,,,,,,,
1682357881.751071,-0.001745,0,0,0.01,0,0,0.01,0,0.01,1677685709.592474,0.068647,-9.7183899999999994,0.50994600000000001,0.01,0,0,0.01,0,0.01,0,0,0,0,-1,0,0,0,0,0,,,,,,,,,,,,,,,,,,,,,,,,,,,,,,,,,,,,,,,,,,,,,,,,,,,,,,,,,,,,,,,,,,
1682357881.751122,,,,,,,,,,,,,,,,,,,,,,,,,,,,,,,,1682356749.7371011,-0.99925600000000003,0.0050410000000000003,0.00098900000000000008,0.038223,2.6689050000000001,-3.3467479999999998,0.137461,,,,,,,,,,,,,,,,,,,,,,,,,,,,,,,,,,,,,,,,,,,,,,,,,,,,,,,,
1682357881.754282,-0.0034910000000000002,0,0,0.01,0,0,0.01,0,0.01,1677685709.597472,0.068647,-9.7085830000000009,0.529559,0.01,0,0,0.01,0,0.01,0,0,0,0,-1,0,0,0,0,0,,,,,,,,,,,,,,,,,,,,,,,,,,,,,,,,,,,,,,,,,,,,,,,,,,,,,,,,,,,,,,,,,,
1682357881.7569549,0,0.001745,0,0.01,0,0,0.01,0,0.01,1677685709.6024711,0.068647,-9.7085830000000009,0.529559,0.01,0,0,0.01,0,0.01,0,0,0,0,-1,0,0,0,0,0,,,,,,,,,,,,,,,,,,,,,,,,,,,,,,,,,,,,,,,,,,,,,,,,,,,,,,,,,,,,,,,,,,
1682357881.758106,,,,,,,,,,,,,,,,,,,,,,,,,,,,,,,,1682356749.7458551,-0.99925600000000003,0.0050850000000000001,0.0009990000000000001,0.038224000000000001,2.6689099999999999,-3.3467539999999998,0.13747699999999999,,,,,,,,,,,,,,,,,,,,,,,,,,,,,,,,,,,,,,,,,,,,,,,,,,,,,,,,
1682357881.763593,-0.0034910000000000002,0.001745,0,0.01,0,0,0.01,0,0.01,1677685709.6074679,0.049033,-9.7085830000000009,0.51975199999999999,0.01,0,0,0.01,0,0.01,0,0,0,0,-1,0,0,0,0,0,,,,,,,,,,,,,,,,,,,,,,,,,,,,,,,,,,,,,,,,,,,,,,,,,,,,,,,,,,,,,,,,,,
1682357881.763767,,,,,,,,,,,,,,,,,,,,,,,,,,,,,,0,,,,,,,,,,,,,,,,,,,,,,,,,,,,,,,,,,,,,,,,,,,,,,,,,,,,,,,,,,,,,,,,,
1682357881.7648921,,,,,,,,,,,,,,,,,,,,,,,,,,,,,,,,1682356749.753958,-0.99925699999999995,0.0050489999999999997,0.00097400000000000004,0.038205000000000003,2.6689180000000001,-3.3467669999999998,0.13750399999999999,,,,,,,,,,,,,,,,,,,,,,,,,,,,,,,,,,,,,,,,,,,,,,,,,,,,,,,,
1682357881.7665491,0,0.001745,0,0.01,0,0,0.01,0,0.01,1677685709.6124661,0.049033,-9.7085830000000009,0.51975199999999999,0.01,0,0,0.01,0,0.01,0,0,0,0,-1,0,0,0,0,0,,,,,,,,,,,,,,,,,,,,,,,,,,,,,,,,,,,,,,,,,,,,,,,,,,,,,,,,,,,,,,,,,,
1682357881.7721331,-0.0034910000000000002,0,0,0.01,0,0,0.01,0,0.01,1677685709.6174641,0.068647,-9.7281960000000005,0.50994600000000001,0.01,0,0,0.01,0,0.01,0,0,0,0,-1,0,0,0,0,0,,,,,,,,,,,,,,,,,,,,,,,,,,,,,,,,,,,,,,,,,,,,,,,,,,,,,,,,,,,,,,,,,,
1682357881.7747359,,,,,,,,,,,,,,,,,,,,,,,,,,,,,,,,1682356749.7626879,-0.99925600000000003,0.0049839999999999997,0.00093300000000000002,0.038221999999999999,2.6689259999999999,-3.346784,0.13753299999999999,,,,,,,,,,,,,,,,,,,,,,,,,,,,,,,,,,,,,,,,,,,,,,,,,,,,,,,,
1682357881.776118,-0.001745,0.0034910000000000002,0,0.01,0,0,0.01,0,0.01,1677685709.622462,0.068647,-9.7281960000000005,0.50994600000000001,0.01,0,0,0.01,0,0.01,0,0,0,0,-1,0,0,0,0,0,,,,,,,,,,,,,,,,,,,,,,,,,,,,,,,,,,,,,,,,,,,,,,,,,,,,,,,,,,,,,,,,,,
1682357881.781235,0,0,0,0.01,0,0,0.01,0,0.01,1677685709.627459,0.068647,-9.7085830000000009,0.50994600000000001,0.01,0,0,0.01,0,0.01,0,0,0,0,-1,0,0,0,0,0,,,,,,,,,,,,,,,,,,,,,,,,,,,,,,,,,,,,,,,,,,,,,,,,,,,,,,,,,,,,,,,,,,
1682357881.7833281,,,,,,,,,,,,,,,,,,,,,,,,,,,,,,,,1682356749.770793,-0.99925600000000003,0.0050179999999999999,0.00093199999999999999,0.038233000000000003,2.668933,-3.3467920000000002,0.137547,,,,,,,,,,,,,,,,,,,,,,,,,,,,,,,,,,,,,,,,,,,,,,,,,,,,,,,,
1682357881.7844639,,,,,,,,,,,,,,,,,,,,,,,,,,,,,,0,,,,,,,,,,,,,,,,,,,,,,,,,,,,,,,,,,,,,,,,,,,,,,,,,,,,,,,,,,,,,,,,,
1682357881.7864759,0,0.001745,0.001745,0.01,0,0,0.01,0,0.01,1677685709.632457,0.068647,-9.7085830000000009,0.50994600000000001,0.01,0,0,0.01,0,0.01,0,0,0,0,-1,0,0,0,0,0,,,,,,,,,,,,,,,,,,,,,,,,,,,,,,,,,,,,,,,,,,,,,,,,,,,,,,,,,,,,,,,,,,
1682357881.7914779,,,,,,,,,,,,,,,,,,,,,,,,,,,,,,,,1682356749.77933,-0.999255,0.0049880000000000002,0.00093800000000000003,0.038254999999999997,2.6689370000000001,-3.3467899999999999,0.13755000000000001,,,,,,,,,,,,,,,,,,,,,,,,,,,,,,,,,,,,,,,,,,,,,,,,,,,,,,,,
1682357881.79177,0,0,0,0.01,0,0,0.01,0,0.01,1677685709.637455,0.078452999999999995,-9.7183899999999994,0.529559,0.01,0,0,0.01,0,0.01,0,0,0,0,-1,0,0,0,0,0,,,,,,,,,,,,,,,,,,,,,,,,,,,,,,,,,,,,,,,,,,,,,,,,,,,,,,,,,,,,,,,,,,
1682357881.79702,0,0,0,0.01,0,0,0.01,0,0.01,1677685709.642453,0.078452999999999995,-9.7183899999999994,0.529559,0.01,0,0,0.01,0,0.01,0,0,0,0,-1,0,0,0,0,0,,,,,,,,,,,,,,,,,,,,,,,,,,,,,,,,,,,,,,,,,,,,,,,,,,,,,,,,,,,,,,,,,,
1682357881.8004711,,,,,,,,,,,,,,,,,,,,,,,,,,,,,,,,1682356749.789897,-0.99925600000000003,0.0050229999999999997,0.00092199999999999997,0.038220999999999998,2.6689440000000002,-3.3467859999999998,0.13754,,,,,,,,,,,,,,,,,,,,,,,,,,,,,,,,,,,,,,,,,,,,,,,,,,,,,,,,
1682357881.801511,0.001745,0,0,0.01,0,0,0.01,0,0.01,1677685709.6474509,0.078452999999999995,-9.7085830000000009,0.529559,0.01,0,0,0.01,0,0.01,0,0,0,0,-1,0,0,0,0,0,,,,,,,,,,,,,,,,,,,,,,,,,,,,,,,,,,,,,,,,,,,,,,,,,,,,,,,,,,,,,,,,,,
1682357881.813143,0,0.001745,0,0.01,0,0,0.01,0,0.01,1677685709.6524489,0.078452999999999995,-9.7085830000000009,0.529559,0.01,0,0,0.01,0,0.01,0,0,0,0,-1,0,0,0,0,0,,,,,,,,,,,,,,,,,,,,,,,,,,,,,,,,,,,,,,,,,,,,,,,,,,,,,,,,,,,,,,,,,,
1682357881.81318,-0.001745,0.0087270000000000004,0,0.01,0,0,0.01,0,0.01,1677685709.6574471,0.058840000000000003,-9.6987760000000005,0.51975199999999999,0.01,0,0,0.01,0,0.01,0,0,0,0,-1,0,0,0,0,0,,,,,,,,,,,,,,,,,,,,,,,,,,,,,,,,,,,,,,,,,,,,,,,,,,,,,,,,,,,,,,,,,,
1682357881.813195,,,,,,,,,,,,,,,,,,,,,,,,,,,,,,0,,,,,,,,,,,,,,,,,,,,,,,,,,,,,,,,,,,,,,,,,,,,,,,,,,,,,,,,,,,,,,,,,
1682357881.8132069,,,,,,,,,,,,,,,,,,,,,,,,,,,,,,,,1682356749.7960379,-0.999255,0.0050619999999999997,0.00097799999999999992,0.038240000000000003,2.66893,-3.346778,0.13750899999999999,,,,,,,,,,,,,,,,,,,,,,,,,,,,,,,,,,,,,,,,,,,,,,,,,,,,,,,,
1682357881.8170969,0,0.0034910000000000002,0,0.01,0,0,0.01,0,0.01,1677685709.6624441,0.058840000000000003,-9.6987760000000005,0.51975199999999999,0.01,0,0,0.01,0,0.01,0,0,0,0,-1,0,0,0,0,0,,,,,,,,,,,,,,,,,,,,,,,,,,,,,,,,,,,,,,,,,,,,,,,,,,,,,,,,,,,,,,,,,,
1682357881.8171439,,,,,,,,,,,,,,,,,,,,,,,,,,,,,,,,1682356749.805228,-0.99925600000000003,0.0050410000000000003,0.00094499999999999998,0.038239000000000002,2.6689229999999999,-3.3467609999999999,0.13748099999999999,,,,,,,,,,,,,,,,,,,,,,,,,,,,,,,,,,,,,,,,,,,,,,,,,,,,,,,,
1682357881.8232491,-0.001745,-0.0052360000000000002,0.001745,0.01,0,0,0.01,0,0.01,1677685709.6674421,0.058840000000000003,-9.6987760000000005,0.50994600000000001,0.01,0,0,0.01,0,0.01,0,0,0,0,-1,0,0,0,0,0,,,,,,,,,,,,,,,,,,,,,,,,,,,,,,,,,,,,,,,,,,,,,,,,,,,,,,,,,,,,,,,,,,
1682357881.824883,,,,,,,,,,,,,,,,,,,,,,,,,,,,,,,,1682356749.8128901,-0.99925600000000003,0.0051079999999999997,0.001013,0.038227999999999998,2.6689090000000002,-3.3467500000000001,0.137462,,,,,,,,,,,,,,,,,,,,,,,,,,,,,,,,,,,,,,,,,,,,,,,,,,,,,,,,
1682357881.8265121,0,0,0,0.01,0,0,0.01,0,0.01,1677685709.6724401,0.058840000000000003,-9.6987760000000005,0.50994600000000001,0.01,0,0,0.01,0,0.01,0,0,0,0,-1,0,0,0,0,0,,,,,,,,,,,,,,,,,,,,,,,,,,,,,,,,,,,,,,,,,,,,,,,,,,,,,,,,,,,,,,,,,,
1682357881.8285069,,,,,,,,,,,,,,,,,,,,,,,,,,,,,,0,,,,,,,,,,,,,,,,,,,,,,,,,,,,,,,,,,,,,,,,,,,,,,,,,,,,,,,,,,,,,,,,,
1682357881.831846,-0.001745,0,0,0.01,0,0,0.01,0,0.01,1677685709.677438,0.078452999999999995,-9.7183899999999994,0.51975199999999999,0.01,0,0,0.01,0,0.01,0,0,0,0,-1,0,0,0,0,0,,,,,,,,,,,,,,,,,,,,,,,,,,,,,,,,,,,,,,,,,,,,,,,,,,,,,,,,,,,,,,,,,,
1682357881.8418591,-0.001745,0.001745,0.001745,0.01,0,0,0.01,0,0.01,1677685709.682435,0.078452999999999995,-9.7183899999999994,0.51975199999999999,0.01,0,0,0.01,0,0.01,0,0,0,0,-1,0,0,0,0,0,,,,,,,,,,,,,,,,,,,,,,,,,,,,,,,,,,,,,,,,,,,,,,,,,,,,,,,,,,,,,,,,,,
1682357881.841898,-0.001745,-0.001745,0,0.01,0,0,0.01,0,0.01,1677685709.687433,0.068647,-9.7085830000000009,0.50994600000000001,0.01,0,0,0.01,0,0.01,0,0,0,0,-1,0,0,0,0,0,,,,,,,,,,,,,,,,,,,,,,,,,,,,,,,,,,,,,,,,,,,,,,,,,,,,,,,,,,,,,,,,,,
1682357881.841913,,,,,,,,,,,,,,,,,,,,,,,,,,,,,,,,1682356749.8211579,-0.999255,0.0050509999999999999,0.001034,0.038246000000000002,2.6689020000000001,-3.3467470000000001,0.137461,,,,,,,,,,,,,,,,,,,,,,,,,,,,,,,,,,,,,,,,,,,,,,,,,,,,,,,,
1682357881.8419321,,,,,,,,,,,,,,,,,,,,,,,,,,,,,,,,1682356749.8288021,-0.999255,0.0050070000000000002,0.0010009999999999999,0.038248999999999998,2.6689039999999999,-3.3467509999999998,0.13747100000000001,,,,,,,,,,,,,,,,,,,,,,,,,,,,,,,,,,,,,,,,,,,,,,,,,,,,,,,,
1682357881.8483231,-0.001745,-0.0034910000000000002,0,0.01,0,0,0.01,0,0.01,1677685709.692431,0.068647,-9.7085830000000009,0.50994600000000001,0.01,0,0,0.01,0,0.01,0,0,0,0,-1,0,0,0,0,0,,,,,,,,,,,,,,,,,,,,,,,,,,,,,,,,,,,,,,,,,,,,,,,,,,,,,,,,,,,,,,,,,,
1682357881.848362,,,,,,,,,,,,,,,,,,,,,,,,,,,,,,0,,,,,,,,,,,,,,,,,,,,,,,,,,,,,,,,,,,,,,,,,,,,,,,,,,,,,,,,,,,,,,,,,
1682357881.8497159,,,,,,,,,,,,,,,,,,,,,,,,,,,,,,,,1682356749.8371849,-0.99925699999999995,0.0050949999999999997,0.00097999999999999997,0.038198999999999997,2.6689069999999999,-3.3467609999999999,0.13749900000000001,,,,,,,,,,,,,,,,,,,,,,,,,,,,,,,,,,,,,,,,,,,,,,,,,,,,,,,,
1682357881.851414,0,-0.001745,-0.001745,0.01,0,0,0.01,0,0.01,1677685709.6974289,0.068647,-9.6987760000000005,0.50994600000000001,0.01,0,0,0.01,0,0.01,0,0,0,0,-1,0,0,0,0,0,,,,,,,,,,,,,,,,,,,,,,,,,,,,,,,,,,,,,,,,,,,,,,,,,,,,,,,,,,,,,,,,,,
1682357881.8561859,-0.0034910000000000002,0.0052360000000000002,0,0.01,0,0,0.01,0,0.01,1677685709.7024269,0.068647,-9.6987760000000005,0.50994600000000001,0.01,0,0,0.01,0,0.01,0,0,0,0,-1,0,0,0,0,0,,,,,,,,,,,,,,,,,,,,,,,,,,,,,,,,,,,,,,,,,,,,,,,,,,,,,,,,,,,,,,,,,,
1682357881.8619399,,,,,,,,,,,,,,,,,,,,,,,,,,,,,,,,1682356749.8497429,-0.99925600000000003,0.005032,0.00097199999999999999,0.038221999999999999,2.6689129999999999,-3.3467750000000001,0.137519,,,,,,,,,,,,,,,,,,,,,,,,,,,,,,,,,,,,,,,,,,,,,,,,,,,,,,,,
1682357881.862282,-0.0034910000000000002,0.001745,0,0.01,0,0,0.01,0,0.01,1677685709.7074251,0.068647,-9.6987760000000005,0.51975199999999999,0.01,0,0,0.01,0,0.01,0,0,0,0,-1,0,0,0,0,0,,,,,,,,,,,,,,,,,,,,,,,,,,,,,,,,,,,,,,,,,,,,,,,,,,,,,,,,,,,,,,,,,,
1682357881.866904,0,0,0,0.01,0,0,0.01,0,0.01,1677685709.7124231,0.068647,-9.6987760000000005,0.51975199999999999,0.01,0,0,0.01,0,0.01,0,0,0,0,-1,0,0,0,0,0,,,,,,,,,,,,,,,,,,,,,,,,,,,,,,,,,,,,,,,,,,,,,,,,,,,,,,,,,,,,,,,,,,
1682357881.8732519,,,,,,,,,,,,,,,,,,,,,,,,,,,,,,0,,,,,,,,,,,,,,,,,,,,,,,,,,,,,,,,,,,,,,,,,,,,,,,,,,,,,,,,,,,,,,,,,
1682357881.8732791,,,,,,,,,,,,,,,,,,,,,,,,,,,,,,,,1682356749.8562701,-0.99925699999999995,0.0049589999999999999,0.00094300000000000004,0.038212999999999997,2.6689240000000001,-3.346781,0.13753699999999999,,,,,,,,,,,,,,,,,,,,,,,,,,,,,,,,,,,,,,,,,,,,,,,,,,,,,,,,
1682357881.873338,-0.001745,0.001745,0,0.01,0,0,0.01,0,0.01,1677685709.7174201,0.058840000000000003,-9.7085830000000009,0.50994600000000001,0.01,0,0,0.01,0,0.01,0,0,0,0,-1,0,0,0,0,0,,,,,,,,,,,,,,,,,,,,,,,,,,,,,,,,,,,,,,,,,,,,,,,,,,,,,,,,,,,,,,,,,,
1682357881.8790431,-0.0034910000000000002,0.001745,0,0.01,0,0,0.01,0,0.01,1677685709.722419,0.058840000000000003,-9.7085830000000009,0.50994600000000001,0.01,0,0,0.01,0,0.01,0,0,0,0,-1,0,0,0,0,0,,,,,,,,,,,,,,,,,,,,,,,,,,,,,,,,,,,,,,,,,,,,,,,,,,,,,,,,,,,,,,,,,,
1682357881.8790979,,,,,,,,,,,,,,,,,,,,,,,,,,,,,,,,1682356749.8625879,-0.99925600000000003,0.0049300000000000004,0.00099700000000000006,0.038226999999999997,2.668936,-3.3467850000000001,0.13755600000000001,,,,,,,,,,,,,,,,,,,,,,,,,,,,,,,,,,,,,,,,,,,,,,,,,,,,,,,,
1682357881.881824,-0.0034910000000000002,0,0,0.01,0,0,0.01,0,0.01,1677685709.727416,0.078452999999999995,-9.7085830000000009,0.51975199999999999,0.01,0,0,0.01,0,0.01,0,0,0,0,-1,0,0,0,0,0,,,,,,,,,,,,,,,,,,,,,,,,,,,,,,,,,,,,,,,,,,,,,,,,,,,,,,,,,,,,,,,,,,
1682357881.8906629,-0.001745,0,0,0.01,0,0,0.01,0,0.01,1677685709.732414,0.078452999999999995,-9.7085830000000009,0.51975199999999999,0.01,0,0,0.01,0,0.01,0,0,0,0,-1,0,0,0,0,0,,,,,,,,,,,,,,,,,,,,,,,,,,,,,,,,,,,,,,,,,,,,,,,,,,,,,,,,,,,,,,,,,,
1682357881.890717,,,,,,,,,,,,,,,,,,,,,,,,,,,,,,,,1682356749.87325,-0.99925600000000003,0.0050260000000000001,0.00094799999999999995,0.038231000000000001,2.6689379999999998,-3.3467899999999999,0.13753599999999999,,,,,,,,,,,,,,,,,,,,,,,,,,,,,,,,,,,,,,,,,,,,,,,,,,,,,,,,
1682357881.89149,0,0,0.001745,0.01,0,0,0.01,0,0.01,1677685709.737411,0.058840000000000003,-9.7085830000000009,0.51975199999999999,0.01,0,0,0.01,0,0.01,0,0,0,0,-1,0,0,0,0,0,,,,,,,,,,,,,,,,,,,,,,,,,,,,,,,,,,,,,,,,,,,,,,,,,,,,,,,,,,,,,,,,,,
1682357881.8930171,,,,,,,,,,,,,,,,,,,,,,,,,,,,,,0,,,,,,,,,,,,,,,,,,,,,,,,,,,,,,,,,,,,,,,,,,,,,,,,,,,,,,,,,,,,,,,,,
1682357881.8930349,,,,,,,,,,,,,,,,,,,,,,,,,,,,,,,,1682356749.879909,-0.99925600000000003,0.0049979999999999998,0.00096199999999999996,0.038231000000000001,2.6689349999999998,-3.3467790000000002,0.137517,,,,,,,,,,,,,,,,,,,,,,,,,,,,,,,,,,,,,,,,,,,,,,,,,,,,,,,,
1682357881.896121,0,0.0034910000000000002,0,0.01,0,0,0.01,0,0.01,1677685709.7424099,0.058840000000000003,-9.7085830000000009,0.51975199999999999,0.01,0,0,0.01,0,0.01,0,0,0,0,-1,0,0,0,0,0,,,,,,,,,,,,,,,,,,,,,,,,,,,,,,,,,,,,,,,,,,,,,,,,,,,,,,,,,,,,,,,,,,
1682357881.903013,0,0.001745,-0.001745,0.01,0,0,0.01,0,0.01,1677685709.747407,0.058840000000000003,-9.7085830000000009,0.50994600000000001,0.01,0,0,0.01,0,0.01,0,0,0,0,-1,0,0,0,0,0,,,,,,,,,,,,,,,,,,,,,,,,,,,,,,,,,,,,,,,,,,,,,,,,,,,,,,,,,,,,,,,,,,
1682357881.90306,,,,,,,,,,,,,,,,,,,,,,,,,,,,,,,,1682356749.889982,-0.999255,0.0050369999999999998,0.00101,0.038240999999999997,2.66893,-3.3467660000000001,0.137489,,,,,,,,,,,,,,,,,,,,,,,,,,,,,,,,,,,,,,,,,,,,,,,,,,,,,,,,
1682357881.9063189,-0.0034910000000000002,0,0,0.01,0,0,0.01,0,0.01,1677685709.7524049,0.058840000000000003,-9.7085830000000009,0.50994600000000001,0.01,0,0,0.01,0,0.01,0,0,0,0,-1,0,0,0,0,0,,,,,,,,,,,,,,,,,,,,,,,,,,,,,,,,,,,,,,,,,,,,,,,,,,,,,,,,,,,,,,,,,,
1682357881.912138,-0.001745,-0.001745,0,0.01,0,0,0.01,0,0.01,1677685709.7574041,0.068647,-9.6987760000000005,0.51975199999999999,0.01,0,0,0.01,0,0.01,0,0,0,0,-1,0,0,0,0,0,,,,,,,,,,,,,,,,,,,,,,,,,,,,,,,,,,,,,,,,,,,,,,,,,,,,,,,,,,,,,,,,,,
1682357881.9123321,,,,,,,,,,,,,,,,,,,,,,,,,,,,,,0,,,,,,,,,,,,,,,,,,,,,,,,,,,,,,,,,,,,,,,,,,,,,,,,,,,,,,,,,,,,,,,,,
1682357881.9161911,-0.0052360000000000002,-0.001745,0,0.01,0,0,0.01,0,0.01,1677685709.7624011,0.068647,-9.6987760000000005,0.51975199999999999,0.01,0,0,0.01,0,0.01,0,0,0,0,-1,0,0,0,0,0,,,,,,,,,,,,,,,,,,,,,,,,,,,,,,,,,,,,,,,,,,,,,,,,,,,,,,,,,,,,,,,,,,
1682357881.921412,-0.0052360000000000002,0.0034910000000000002,0,0.01,0,0,0.01,0,0.01,1677685709.7673991,0.068647,-9.7085830000000009,0.529559,0.01,0,0,0.01,0,0.01,0,0,0,0,-1,0,0,0,0,0,,,,,,,,,,,,,,,,,,,,,,,,,,,,,,,,,,,,,,,,,,,,,,,,,,,,,,,,,,,,,,,,,,
1682357881.9263351,0,0,0,0.01,0,0,0.01,0,0.01,1677685709.772398,0.068647,-9.7085830000000009,0.529559,0.01,0,0,0.01,0,0.01,0,0,0,0,-1,0,0,0,0,0,,,,,,,,,,,,,,,,,,,,,,,,,,,,,,,,,,,,,,,,,,,,,,,,,,,,,,,,,,,,,,,,,,
1682357881.9316859,-0.0052360000000000002,0,0,0.01,0,0,0.01,0,0.01,1677685709.777395,0.078452999999999995,-9.7085830000000009,0.51975199999999999,0.01,0,0,0.01,0,0.01,0,0,0,0,-1,0,0,0,0,0,,,,,,,,,,,,,,,,,,,,,,,,,,,,,,,,,,,,,,,,,,,,,,,,,,,,,,,,,,,,,,,,,,
1682357881.936326,,,,,,,,,,,,,,,,,,,,,,,,,,,,,,0,,,,,,,,,,,,,,,,,,,,,,,,,,,,,,,,,,,,,,,,,,,,,,,,,,,,,,,,,,,,,,,,,
1682357881.9369259,-0.001745,0,0,0.01,0,0,0.01,0,0.01,1677685709.782393,0.078452999999999995,-9.7085830000000009,0.51975199999999999,0.01,0,0,0.01,0,0.01,0,0,0,0,-1,0,0,0,0,0,,,,,,,,,,,,,,,,,,,,,,,,,,,,,,,,,,,,,,,,,,,,,,,,,,,,,,,,,,,,,,,,,,
1682357881.9415121,-0.001745,-0.0034910000000000002,0.0034910000000000002,0.01,0,0,0.01,0,0.01,1677685709.78739,0.068647,-9.7183899999999994,0.51975199999999999,0.01,0,0,0.01,0,0.01,0,0,0,0,-1,0,0,0,0,0,,,,,,,,,,,,,,,,,,,,,,,,,,,,,,,,,,,,,,,,,,,,,,,,,,,,,,,,,,,,,,,,,,
1682357881.9465179,-0.0034910000000000002,0,0,0.01,0,0,0.01,0,0.01,1677685709.7923889,0.068647,-9.7183899999999994,0.51975199999999999,0.01,0,0,0.01,0,0.01,0,0,0,0,-1,0,0,0,0,0,,,,,,,,,,,,,,,,,,,,,,,,,,,,,,,,,,,,,,,,,,,,,,,,,,,,,,,,,,,,,,,,,,
1682357881.9530261,0,0,0,0.01,0,0,0.01,0,0.01,1677685709.7973859,0.078452999999999995,-9.7085830000000009,0.50994600000000001,0.01,0,0,0.01,0,0.01,0,0,0,0,-1,0,0,0,0,0,,,,,,,,,,,,,,,,,,,,,,,,,,,,,,,,,,,,,,,,,,,,,,,,,,,,,,,,,,,,,,,,,,
1682357881.954175,,,,,,,,,,,,,,,,,,,,,,,,,,,,,,0,,,,,,,,,,,,,,,,,,,,,,,,,,,,,,,,,,,,,,,,,,,,,,,,,,,,,,,,,,,,,,,,,
1682357881.9566829,0,0.0034910000000000002,0,0.01,0,0,0.01,0,0.01,1677685709.8023839,0.078452999999999995,-9.7085830000000009,0.50994600000000001,0.01,0,0,0.01,0,0.01,0,0,0,0,-1,0,0,0,0,0,,,,,,,,,,,,,,,,,,,,,,,,,,,,,,,,,,,,,,,,,,,,,,,,,,,,,,,,,,,,,,,,,,
1682357881.9614611,0,0.0052360000000000002,0,0.01,0,0,0.01,0,0.01,1677685709.8073809,0.078452999999999995,-9.6987760000000005,0.51975199999999999,0.01,0,0,0.01,0,0.01,0,0,0,0,-1,0,0,0,0,0,,,,,,,,,,,,,,,,,,,,,,,,,,,,,,,,,,,,,,,,,,,,,,,,,,,,,,,,,,,,,,,,,,
1682357881.966073,0,0,0,0.01,0,0,0.01,0,0.01,1677685709.8123801,0.078452999999999995,-9.6987760000000005,0.51975199999999999,0.01,0,0,0.01,0,0.01,0,0,0,0,-1,0,0,0,0,0,,,,,,,,,,,,,,,,,,,,,,,,,,,,,,,,,,,,,,,,,,,,,,,,,,,,,,,,,,,,,,,,,,
1682357881.971776,0,0.0034910000000000002,0,0.01,0,0,0.01,0,0.01,1677685709.8173771,0.068647,-9.7085830000000009,0.51975199999999999,0.01,0,0,0.01,0,0.01,0,0,0,0,-1,0,0,0,0,0,,,,,,,,,,,,,,,,,,,,,,,,,,,,,,,,,,,,,,,,,,,,,,,,,,,,,,,,,,,,,,,,,,
1682357881.9765091,-0.0052360000000000002,0,0,0.01,0,0,0.01,0,0.01,1677685709.822376,0.068647,-9.7085830000000009,0.51975199999999999,0.01,0,0,0.01,0,0.01,0,0,0,0,-1,0,0,0,0,0,,,,,,,,,,,,,,,,,,,,,,,,,,,,,,,,,,,,,,,,,,,,,,,,,,,,,,,,,,,,,,,,,,
1682357881.9766619,,,,,,,,,,,,,,,,,,,,,,,,,,,,,,0,,,,,,,,,,,,,,,,,,,,,,,,,,,,,,,,,,,,,,,,,,,,,,,,,,,,,,,,,,,,,,,,,
1682357881.9818361,0,0.001745,-0.001745,0.01,0,0,0.01,0,0.01,1677685709.827374,0.068647,-9.7085830000000009,0.51975199999999999,0.01,0,0,0.01,0,0.01,0,0,0,0,-1,0,0,0,0,0,,,,,,,,,,,,,,,,,,,,,,,,,,,,,,,,,,,,,,,,,,,,,,,,,,,,,,,,,,,,,,,,,,
1682357881.986362,-0.001745,0,0,0.01,0,0,0.01,0,0.01,1677685709.832371,0.068647,-9.7085830000000009,0.51975199999999999,0.01,0,0,0.01,0,0.01,0,0,0,0,-1,0,0,0,0,0,,,,,,,,,,,,,,,,,,,,,,,,,,,,,,,,,,,,,,,,,,,,,,,,,,,,,,,,,,,,,,,,,,
1682357881.9915271,-0.001745,0,0,0.01,0,0,0.01,0,0.01,1677685709.837369,0.058840000000000003,-9.7085830000000009,0.51975199999999999,0.01,0,0,0.01,0,0.01,0,0,0,0,-1,0,0,0,0,0,,,,,,,,,,,,,,,,,,,,,,,,,,,,,,,,,,,,,,,,,,,,,,,,,,,,,,,,,,,,,,,,,,
1682357881.99754,0,-0.001745,0,0.01,0,0,0.01,0,0.01,1677685709.842366,0.058840000000000003,-9.7085830000000009,0.51975199999999999,0.01,0,0,0.01,0,0.01,0,0,0,0,-1,0,0,0,0,0,,,,,,,,,,,,,,,,,,,,,,,,,,,,,,,,,,,,,,,,,,,,,,,,,,,,,,,,,,,,,,,,,,
1682357881.997591,,,,,,,,,,,,,,,,,,,,,,,,,,,,,,0,,,,,,,,,,,,,,,,,,,,,,,,,,,,,,,,,,,,,,,,,,,,,,,,,,,,,,,,,,,,,,,,,
1682357882.0017071,0,0.001745,0,0.01,0,0,0.01,0,0.01,1677685709.8473649,0.068647,-9.7085830000000009,0.51975199999999999,0.01,0,0,0.01,0,0.01,0,0,0,0,-1,0,0,0,0,0,,,,,,,,,,,,,,,,,,,,,,,,,,,,,,,,,,,,,,,,,,,,,,,,,,,,,,,,,,,,,,,,,,
1682357882.010334,-0.001745,0,0,0.01,0,0,0.01,0,0.01,1677685709.8523619,0.068647,-9.7085830000000009,0.51975199999999999,0.01,0,0,0.01,0,0.01,0,0,0,0,-1,0,0,0,0,0,,,,,,,,,,,,,,,,,,,,,,,,,,,,,,,,,,,,,,,,,,,,,,,,,,,,,,,,,,,,,,,,,,
1682357882.0153461,-0.0034910000000000002,0.001745,0.0034910000000000002,0.01,0,0,0.01,0,0.01,1677685709.8573599,0.068647,-9.7085830000000009,0.529559,0.01,0,0,0.01,0,0.01,0,0,0,0,-1,0,0,0,0,0,,,,,,,,,,,,,,,,,,,,,,,,,,,,,,,,,,,,,,,,,,,,,,,,,,,,,,,,,,,,,,,,,,
1682357882.0161431,0,0.0052360000000000002,-0.001745,0.01,0,0,0.01,0,0.01,1677685709.8623581,0.068647,-9.7085830000000009,0.529559,0.01,0,0,0.01,0,0.01,0,0,0,0,-1,0,0,0,0,0,,,,,,,,,,,,,,,,,,,,,,,,,,,,,,,,,,,,,,,,,,,,,,,,,,,,,,,,,,,,,,,,,,
1682357882.0204461,,,,,,,,,,,,,,,,,,,,,,,,,,,,,,0,,,,,,,,,,,,,,,,,,,,,,,,,,,,,,,,,,,,,,,,,,,,,,,,,,,,,,,,,,,,,,,,,
1682357882.021183,-0.001745,0.001745,0,0.01,0,0,0.01,0,0.01,1677685709.8673561,0.068647,-9.7085830000000009,0.51975199999999999,0.01,0,0,0.01,0,0.01,0,0,0,0,-1,0,0,0,0,0,,,,,,,,,,,,,,,,,,,,,,,,,,,,,,,,,,,,,,,,,,,,,,,,,,,,,,,,,,,,,,,,,,
1682357882.026299,0,0.0052360000000000002,-0.001745,0.01,0,0,0.01,0,0.01,1677685709.8723531,0.068647,-9.7085830000000009,0.51975199999999999,0.01,0,0,0.01,0,0.01,0,0,0,0,-1,0,0,0,0,0,,,,,,,,,,,,,,,,,,,,,,,,,,,,,,,,,,,,,,,,,,,,,,,,,,,,,,,,,,,,,,,,,,
1682357882.0385251,0,0.0034910000000000002,0,0.01,0,0,0.01,0,0.01,1677685709.877352,0.058840000000000003,-9.6987760000000005,0.51975199999999999,0.01,0,0,0.01,0,0.01,0,0,0,0,-1,0,0,0,0,0,,,,,,,,,,,,,,,,,,,,,,,,,,,,,,,,,,,,,,,,,,,,,,,,,,,,,,,,,,,,,,,,,,
1682357882.0385959,-0.001745,0,0,0.01,0,0,0.01,0,0.01,1677685709.882349,0.058840000000000003,-9.6987760000000005,0.51975199999999999,0.01,0,0,0.01,0,0.01,0,0,0,0,-1,0,0,0,0,0,,,,,,,,,,,,,,,,,,,,,,,,,,,,,,,,,,,,,,,,,,,,,,,,,,,,,,,,,,,,,,,,,,
1682357882.0455379,0,0,0,0.01,0,0,0.01,0,0.01,1677685709.887347,0.078452999999999995,-9.6889699999999994,0.53936600000000001,0.01,0,0,0.01,0,0.01,0,0,0,0,-1,0,0,0,0,0,,,,,,,,,,,,,,,,,,,,,,,,,,,,,,,,,,,,,,,,,,,,,,,,,,,,,,,,,,,,,,,,,,
1682357882.0455959,,,,,,,,,,,,,,,,,,,,,,,,,,,,,,0,,,,,,,,,,,,,,,,,,,,,,,,,,,,,,,,,,,,,,,,,,,,,,,,,,,,,,,,,,,,,,,,,
1682357882.0465469,0,0,0,0.01,0,0,0.01,0,0.01,1677685709.892345,0.078452999999999995,-9.6889699999999994,0.53936600000000001,0.01,0,0,0.01,0,0.01,0,0,0,0,-1,0,0,0,0,0,,,,,,,,,,,,,,,,,,,,,,,,,,,,,,,,,,,,,,,,,,,,,,,,,,,,,,,,,,,,,,,,,,
1682357882.051158,-0.001745,0.0034910000000000002,0,0.01,0,0,0.01,0,0.01,1677685709.897342,0.078452999999999995,-9.7085830000000009,0.51975199999999999,0.01,0,0,0.01,0,0.01,0,0,0,0,-1,0,0,0,0,0,,,,,,,,,,,,,,,,,,,,,,,,,,,,,,,,,,,,,,,,,,,,,,,,,,,,,,,,,,,,,,,,,,
1682357882.056107,-0.001745,0.001745,0,0.01,0,0,0.01,0,0.01,1677685709.9023409,0.078452999999999995,-9.7085830000000009,0.51975199999999999,0.01,0,0,0.01,0,0.01,0,0,0,0,-1,0,0,0,0,0,,,,,,,,,,,,,,,,,,,,,,,,,,,,,,,,,,,,,,,,,,,,,,,,,,,,,,,,,,,,,,,,,,
1682357882.061553,-0.001745,0,0.001745,0.01,0,0,0.01,0,0.01,1677685709.9073379,0.078452999999999995,-9.7085830000000009,0.51975199999999999,0.01,0,0,0.01,0,0.01,0,0,0,0,-1,0,0,0,0,0,,,,,,,,,,,,,,,,,,,,,,,,,,,,,,,,,,,,,,,,,,,,,,,,,,,,,,,,,,,,,,,,,,
1682357882.062156,,,,,,,,,,,,,,,,,,,,,,,,,,,,,,0,,,,,,,,,,,,,,,,,,,,,,,,,,,,,,,,,,,,,,,,,,,,,,,,,,,,,,,,,,,,,,,,,
1682357882.066421,0,-0.0052360000000000002,0,0.01,0,0,0.01,0,0.01,1677685709.9123361,0.078452999999999995,-9.7085830000000009,0.51975199999999999,0.01,0,0,0.01,0,0.01,0,0,0,0,-1,0,0,0,0,0,,,,,,,,,,,,,,,,,,,,,,,,,,,,,,,,,,,,,,,,,,,,,,,,,,,,,,,,,,,,,,,,,,
1682357882.071403,-0.0034910000000000002,0.001745,0,0.01,0,0,0.01,0,0.01,1677685709.9173341,0.078452999999999995,-9.6987760000000005,0.529559,0.01,0,0,0.01,0,0.01,0,0,0,0,-1,0,0,0,0,0,,,,,,,,,,,,,,,,,,,,,,,,,,,,,,,,,,,,,,,,,,,,,,,,,,,,,,,,,,,,,,,,,,
1682357882.080658,-0.0034910000000000002,0.0034910000000000002,0,0.01,0,0,0.01,0,0.01,1677685709.922332,0.078452999999999995,-9.6987760000000005,0.529559,0.01,0,0,0.01,0,0.01,0,0,0,0,-1,0,0,0,0,0,,,,,,,,,,,,,,,,,,,,,,,,,,,,,,,,,,,,,,,,,,,,,,,,,,,,,,,,,,,,,,,,,,
1682357882.0811679,-0.001745,0.0034910000000000002,0,0.01,0,0,0.01,0,0.01,1677685709.9273291,0.068647,-9.7085830000000009,0.51975199999999999,0.01,0,0,0.01,0,0.01,0,0,0,0,-1,0,0,0,0,0,,,,,,,,,,,,,,,,,,,,,,,,,,,,,,,,,,,,,,,,,,,,,,,,,,,,,,,,,,,,,,,,,,
1682357882.0821121,,,,,,,,,,,,,,,,,,,,,,,,,,,,,,0,,,,,,,,,,,,,,,,,,,,,,,,,,,,,,,,,,,,,,,,,,,,,,,,,,,,,,,,,,,,,,,,,
1682357882.0862229,0.001745,0,0,0.01,0,0,0.01,0,0.01,1677685709.932328,0.068647,-9.7085830000000009,0.51975199999999999,0.01,0,0,0.01,0,0.01,0,0,0,0,-1,0,0,0,0,0,,,,,,,,,,,,,,,,,,,,,,,,,,,,,,,,,,,,,,,,,,,,,,,,,,,,,,,,,,,,,,,,,,
1682357882.0953331,-0.001745,0.001745,0.001745,0.01,0,0,0.01,0,0.01,1677685709.937325,0.078452999999999995,-9.7085830000000009,0.50994600000000001,0.01,0,0,0.01,0,0.01,0,0,0,0,-1,0,0,0,0,0,,,,,,,,,,,,,,,,,,,,,,,,,,,,,,,,,,,,,,,,,,,,,,,,,,,,,,,,,,,,,,,,,,
1682357882.0962191,0,0,0,0.01,0,0,0.01,0,0.01,1677685709.942323,0.078452999999999995,-9.7085830000000009,0.50994600000000001,0.01,0,0,0.01,0,0.01,0,0,0,0,-1,0,0,0,0,0,,,,,,,,,,,,,,,,,,,,,,,,,,,,,,,,,,,,,,,,,,,,,,,,,,,,,,,,,,,,,,,,,,
1682357882.101187,-0.001745,0,0,0.01,0,0,0.01,0,0.01,1677685709.9473209,0.078452999999999995,-9.7085830000000009,0.50994600000000001,0.01,0,0,0.01,0,0.01,0,0,0,0,-1,0,0,0,0,0,,,,,,,,,,,,,,,,,,,,,,,,,,,,,,,,,,,,,,,,,,,,,,,,,,,,,,,,,,,,,,,,,,
1682357882.103651,,,,,,,,,,,,,,,,,,,,,,,,,,,,,,0,,,,,,,,,,,,,,,,,,,,,,,,,,,,,,,,,,,,,,,,,,,,,,,,,,,,,,,,,,,,,,,,,
1682357882.106406,0,0.0052360000000000002,0,0.01,0,0,0.01,0,0.01,1677685709.9523189,0.078452999999999995,-9.7085830000000009,0.50994600000000001,0.01,0,0,0.01,0,0.01,0,0,0,0,-1,0,0,0,0,0,,,,,,,,,,,,,,,,,,,,,,,,,,,,,,,,,,,,,,,,,,,,,,,,,,,,,,,,,,,,,,,,,,
1682357882.112051,-0.0034910000000000002,0,0,0.01,0,0,0.01,0,0.01,1677685709.9573171,0.058840000000000003,-9.7085830000000009,0.529559,0.01,0,0,0.01,0,0.01,0,0,0,0,-1,0,0,0,0,0,,,,,,,,,,,,,,,,,,,,,,,,,,,,,,,,,,,,,,,,,,,,,,,,,,,,,,,,,,,,,,,,,,
1682357882.1179841,-0.001745,0,0.001745,0.01,0,0,0.01,0,0.01,1677685709.9623151,0.058840000000000003,-9.7085830000000009,0.529559,0.01,0,0,0.01,0,0.01,0,0,0,0,-1,0,0,0,0,0,,,,,,,,,,,,,,,,,,,,,,,,,,,,,,,,,,,,,,,,,,,,,,,,,,,,,,,,,,,,,,,,,,
1682357882.1211219,-0.001745,-0.001745,-0.001745,0.01,0,0,0.01,0,0.01,1677685709.9673121,0.068647,-9.6987760000000005,0.51975199999999999,0.01,0,0,0.01,0,0.01,0,0,0,0,-1,0,0,0,0,0,,,,,,,,,,,,,,,,,,,,,,,,,,,,,,,,,,,,,,,,,,,,,,,,,,,,,,,,,,,,,,,,,,
1682357882.1252551,,,,,,,,,,,,,,,,,,,,,,,,,,,,,,0,,,,,,,,,,,,,,,,,,,,,,,,,,,,,,,,,,,,,,,,,,,,,,,,,,,,,,,,,,,,,,,,,
1682357882.126389,-0.0034910000000000002,0,0.001745,0.01,0,0,0.01,0,0.01,1677685709.972311,0.068647,-9.6987760000000005,0.51975199999999999,0.01,0,0,0.01,0,0.01,0,0,0,0,-1,0,0,0,0,0,,,,,,,,,,,,,,,,,,,,,,,,,,,,,,,,,,,,,,,,,,,,,,,,,,,,,,,,,,,,,,,,,,
1682357882.132478,-0.001745,0.001745,0,0.01,0,0,0.01,0,0.01,1677685709.977308,0.068647,-9.7183899999999994,0.529559,0.01,0,0,0.01,0,0.01,0,0,0,0,-1,0,0,0,0,0,,,,,,,,,,,,,,,,,,,,,,,,,,,,,,,,,,,,,,,,,,,,,,,,,,,,,,,,,,,,,,,,,,
1682357882.1417091,-0.0034910000000000002,0.001745,0,0.01,0,0,0.01,0,0.01,1677685709.982306,0.068647,-9.7183899999999994,0.529559,0.01,0,0,0.01,0,0.01,0,0,0,0,-1,0,0,0,0,0,,,,,,,,,,,,,,,,,,,,,,,,,,,,,,,,,,,,,,,,,,,,,,,,,,,,,,,,,,,,,,,,,,
1682357882.141762,0,0,0,0.01,0,0,0.01,0,0.01,1677685709.987303,0.068647,-9.7085830000000009,0.50994600000000001,0.01,0,0,0.01,0,0.01,0,0,0,0,-1,0,0,0,0,0,,,,,,,,,,,,,,,,,,,,,,,,,,,,,,,,,,,,,,,,,,,,,,,,,,,,,,,,,,,,,,,,,,
1682357882.1578801,-0.001745,0,0,0.01,0,0,0.01,0,0.01,1677685709.9923019,0.068647,-9.7085830000000009,0.50994600000000001,0.01,0,0,0.01,0,0.01,0,0,0,0,-1,0,0,0,0,0,,,,,,,,,,,,,,,,,,,,,,,,,,,,,,,,,,,,,,,,,,,,,,,,,,,,,,,,,,,,,,,,,,
1682357882.157939,0,0,0,0.01,0,0,0.01,0,0.01,1677685709.997299,0.078452999999999995,-9.7085830000000009,0.51975199999999999,0.01,0,0,0.01,0,0.01,0,0,0,0,-1,0,0,0,0,0,,,,,,,,,,,,,,,,,,,,,,,,,,,,,,,,,,,,,,,,,,,,,,,,,,,,,,,,,,,,,,,,,,
1682357882.1579571,,,,,,,,,,,,,,,,,,,,,,,,,,,,,,0,,,,,,,,,,,,,,,,,,,,,,,,,,,,,,,,,,,,,,,,,,,,,,,,,,,,,,,,,,,,,,,,,
1682357882.157999,-0.001745,0.001745,-0.001745,0.01,0,0,0.01,0,0.01,1677685710.0022969,0.078452999999999995,-9.7085830000000009,0.51975199999999999,0.01,0,0,0.01,0,0.01,0,0,0,0,-1,0,0,0,0,0,,,,,,,,,,,,,,,,,,,,,,,,,,,,,,,,,,,,,,,,,,,,,,,,,,,,,,,,,,,,,,,,,,
1682357882.162955,0,0,0,0.01,0,0,0.01,0,0.01,1677685710.0072939,0.058840000000000003,-9.7085830000000009,0.529559,0.01,0,0,0.01,0,0.01,0,0,0,0,-1,0,0,0,0,0,,,,,,,,,,,,,,,,,,,,,,,,,,,,,,,,,,,,,,,,,,,,,,,,,,,,,,,,,,,,,,,,,,
1682357882.1665139,-0.0034910000000000002,0,-0.001745,0.01,0,0,0.01,0,0.01,1677685710.0122931,0.058840000000000003,-9.7085830000000009,0.529559,0.01,0,0,0.01,0,0.01,0,0,0,0,-1,0,0,0,0,0,,,,,,,,,,,,,,,,,,,,,,,,,,,,,,,,,,,,,,,,,,,,,,,,,,,,,,,,,,,,,,,,,,
1682357882.1680269,,,,,,,,,,,,,,,,,,,,,,,,,,,,,,0,,,,,,,,,,,,,,,,,,,,,,,,,,,,,,,,,,,,,,,,,,,,,,,,,,,,,,,,,,,,,,,,,
1682357882.1745429,-0.0034910000000000002,0,0,0.01,0,0,0.01,0,0.01,1677685710.0172901,0.068647,-9.7085830000000009,0.51975199999999999,0.01,0,0,0.01,0,0.01,0,0,0,0,-1,0,0,0,0,0,,,,,,,,,,,,,,,,,,,,,,,,,,,,,,,,,,,,,,,,,,,,,,,,,,,,,,,,,,,,,,,,,,
1682357882.177516,-0.0034910000000000002,0,0,0.01,0,0,0.01,0,0.01,1677685710.0222881,0.068647,-9.7085830000000009,0.51975199999999999,0.01,0,0,0.01,0,0.01,0,0,0,0,-1,0,0,0,0,0,,,,,,,,,,,,,,,,,,,,,,,,,,,,,,,,,,,,,,,,,,,,,,,,,,,,,,,,,,,,,,,,,,
1682357882.183955,-0.001745,0.0034910000000000002,-0.001745,0.01,0,0,0.01,0,0.01,1677685710.0272861,0.078452999999999995,-9.7085830000000009,0.529559,0.01,0,0,0.01,0,0.01,0,0,0,0,-1,0,0,0,0,0,,,,,,,,,,,,,,,,,,,,,,,,,,,,,,,,,,,,,,,,,,,,,,,,,,,,,,,,,,,,,,,,,,
1682357882.187742,-0.0034910000000000002,0,0,0.01,0,0,0.01,0,0.01,1677685710.03229,0.078452999999999995,-9.7085830000000009,0.529559,0.01,0,0,0.01,0,0.01,0,0,0,0,-1,0,0,0,0,0,,,,,,,,,,,,,,,,,,,,,,,,,,,,,,,,,,,,,,,,,,,,,,,,,,,,,,,,,,,,,,,,,,
1682357882.1896379,,,,,,,,,,,,,,,,,,,,,,,,,,,,,,0,,,,,,,,,,,,,,,,,,,,,,,,,,,,,,,,,,,,,,,,,,,,,,,,,,,,,,,,,,,,,,,,,
1682357882.1912229,-0.0069810000000000002,0,0,0.01,0,0,0.01,0,0.01,1677685710.037293,0.078452999999999995,-9.7183899999999994,0.51975199999999999,0.01,0,0,0.01,0,0.01,0,0,0,0,-1,0,0,0,0,0,,,,,,,,,,,,,,,,,,,,,,,,,,,,,,,,,,,,,,,,,,,,,,,,,,,,,,,,,,,,,,,,,,
1682357882.196615,-0.001745,0,0,0.01,0,0,0.01,0,0.01,1677685710.0422959,0.078452999999999995,-9.7183899999999994,0.51975199999999999,0.01,0,0,0.01,0,0.01,0,0,0,0,-1,0,0,0,0,0,,,,,,,,,,,,,,,,,,,,,,,,,,,,,,,,,,,,,,,,,,,,,,,,,,,,,,,,,,,,,,,,,,
1682357882.204035,-0.001745,0,0.001745,0.01,0,0,0.01,0,0.01,1677685710.0473001,0.078452999999999995,-9.7085830000000009,0.529559,0.01,0,0,0.01,0,0.01,0,0,0,0,-1,0,0,0,0,0,,,,,,,,,,,,,,,,,,,,,,,,,,,,,,,,,,,,,,,,,,,,,,,,,,,,,,,,,,,,,,,,,,
1682357882.2132061,-0.001745,0,0,0.01,0,0,0.01,0,0.01,1677685710.0523031,0.078452999999999995,-9.7085830000000009,0.529559,0.01,0,0,0.01,0,0.01,0,0,0,0,-1,0,0,0,0,0,,,,,,,,,,,,,,,,,,,,,,,,,,,,,,,,,,,,,,,,,,,,,,,,,,,,,,,,,,,,,,,,,,
1682357882.2145391,-0.001745,-0.001745,0,0.01,0,0,0.01,0,0.01,1677685710.0573061,0.068647,-9.7085830000000009,0.51975199999999999,0.01,0,0,0.01,0,0.01,0,0,0,0,-1,0,0,0,0,0,,,,,,,,,,,,,,,,,,,,,,,,,,,,,,,,,,,,,,,,,,,,,,,,,,,,,,,,,,,,,,,,,,
1682357882.2242801,-0.001745,0,0,0.01,0,0,0.01,0,0.01,1677685710.062309,0.068647,-9.7085830000000009,0.51975199999999999,0.01,0,0,0.01,0,0.01,0,0,0,0,-1,0,0,0,0,0,,,,,,,,,,,,,,,,,,,,,,,,,,,,,,,,,,,,,,,,,,,,,,,,,,,,,,,,,,,,,,,,,,
1682357882.2243371,0.001745,0,0.001745,0.01,0,0,0.01,0,0.01,1677685710.067312,0.058840000000000003,-9.7085830000000009,0.50994600000000001,0.01,0,0,0.01,0,0.01,0,0,0,0,-1,0,0,0,0,0,,,,,,,,,,,,,,,,,,,,,,,,,,,,,,,,,,,,,,,,,,,,,,,,,,,,,,,,,,,,,,,,,,
1682357882.224355,,,,,,,,,,,,,,,,,,,,,,,,,,,,,,0,,,,,,,,,,,,,,,,,,,,,,,,,,,,,,,,,,,,,,,,,,,,,,,,,,,,,,,,,,,,,,,,,
1682357882.2367151,-0.0034910000000000002,0,-0.001745,0.01,0,0,0.01,0,0.01,1677685710.0723159,0.058840000000000003,-9.7085830000000009,0.51975199999999999,0.01,0,0,0.01,0,0.01,0,0,0,0,-1,0,0,0,0,0,,,,,,,,,,,,,,,,,,,,,,,,,,,,,,,,,,,,,,,,,,,,,,,,,,,,,,,,,,,,,,,,,,
1682357882.2368901,,,,,,,,,,,,,,,,,,,,,,,,,,,,,,0,,,,,,,,,,,,,,,,,,,,,,,,,,,,,,,,,,,,,,,,,,,,,,,,,,,,,,,,,,,,,,,,,
1682357882.238503,-0.001745,0.001745,0.001745,0.01,0,0,0.01,0,0.01,1677685710.0773189,0.058840000000000003,-9.7085830000000009,0.51975199999999999,0.01,0,0,0.01,0,0.01,0,0,0,0,-1,0,0,0,0,0,,,,,,,,,,,,,,,,,,,,,,,,,,,,,,,,,,,,,,,,,,,,,,,,,,,,,,,,,,,,,,,,,,
1682357882.2391729,0,0.0034910000000000002,0,0.01,0,0,0.01,0,0.01,1677685710.0823231,0.078452999999999995,-9.7085830000000009,0.51975199999999999,0.01,0,0,0.01,0,0.01,0,0,0,0,-1,0,0,0,0,0,,,,,,,,,,,,,,,,,,,,,,,,,,,,,,,,,,,,,,,,,,,,,,,,,,,,,,,,,,,,,,,,,,
1682357882.2406819,-0.0052360000000000002,-0.001745,-0.001745,0.01,0,0,0.01,0,0.01,1677685710.0873251,0.078452999999999995,-9.7085830000000009,0.51975199999999999,0.01,0,0,0.01,0,0.01,0,0,0,0,-1,0,0,0,0,0,,,,,,,,,,,,,,,,,,,,,,,,,,,,,,,,,,,,,,,,,,,,,,,,,,,,,,,,,,,,,,,,,,
1682357882.2456939,-0.0034910000000000002,-0.001745,0,0.01,0,0,0.01,0,0.01,1677685710.09233,0.078452999999999995,-9.7085830000000009,0.51975199999999999,0.01,0,0,0.01,0,0.01,0,0,0,0,-1,0,0,0,0,0,,,,,,,,,,,,,,,,,,,,,,,,,,,,,,,,,,,,,,,,,,,,,,,,,,,,,,,,,,,,,,,,,,
1682357882.253494,0,0,0,0.01,0,0,0.01,0,0.01,1677685710.097332,0.078452999999999995,-9.7085830000000009,0.529559,0.01,0,0,0.01,0,0.01,0,0,0,0,-1,0,0,0,0,0,,,,,,,,,,,,,,,,,,,,,,,,,,,,,,,,,,,,,,,,,,,,,,,,,,,,,,,,,,,,,,,,,,
1682357882.2543061,,,,,,,,,,,,,,,,,,,,,,,,,,,,,,0,,,,,,,,,,,,,,,,,,,,,,,,,,,,,,,,,,,,,,,,,,,,,,,,,,,,,,,,,,,,,,,,,
1682357882.2634151,-0.0052360000000000002,0,0,0.01,0,0,0.01,0,0.01,1677685710.1023359,0.078452999999999995,-9.7085830000000009,0.529559,0.01,0,0,0.01,0,0.01,0,0,0,0,-1,0,0,0,0,0,,,,,,,,,,,,,,,,,,,,,,,,,,,,,,,,,,,,,,,,,,,,,,,,,,,,,,,,,,,,,,,,,,
1682357882.263463,-0.001745,0,0,0.01,0,0,0.01,0,0.01,1677685710.1073401,0.068647,-9.6987760000000005,0.51975199999999999,0.01,0,0,0.01,0,0.01,0,0,0,0,-1,0,0,0,0,0,,,,,,,,,,,,,,,,,,,,,,,,,,,,,,,,,,,,,,,,,,,,,,,,,,,,,,,,,,,,,,,,,,
1682357882.2661109,0,0,0,0.01,0,0,0.01,0,0.01,1677685710.1123419,0.068647,-9.6987760000000005,0.51975199999999999,0.01,0,0,0.01,0,0.01,0,0,0,0,-1,0,0,0,0,0,,,,,,,,,,,,,,,,,,,,,,,,,,,,,,,,,,,,,,,,,,,,,,,,,,,,,,,,,,,,,,,,,,
1682357882.2710919,-0.0052360000000000002,0,0,0.01,0,0,0.01,0,0.01,1677685710.117346,0.068647,-9.7085830000000009,0.51975199999999999,0.01,0,0,0.01,0,0.01,0,0,0,0,-1,0,0,0,0,0,,,,,,,,,,,,,,,,,,,,,,,,,,,,,,,,,,,,,,,,,,,,,,,,,,,,,,,,,,,,,,,,,,
1682357882.2746179,,,,,,,,,,,,,,,,,,,,,,,,,,,,,,0,,,,,,,,,,,,,,,,,,,,,,,,,,,,,,,,,,,,,,,,,,,,,,,,,,,,,,,,,,,,,,,,,
1682357882.2760279,0,0.001745,0,0.01,0,0,0.01,0,0.01,1677685710.122349,0.068647,-9.7085830000000009,0.51975199999999999,0.01,0,0,0.01,0,0.01,0,0,0,0,-1,0,0,0,0,0,,,,,,,,,,,,,,,,,,,,,,,,,,,,,,,,,,,,,,,,,,,,,,,,,,,,,,,,,,,,,,,,,,
1682357882.286386,-0.0052360000000000002,0.0069810000000000002,0,0.01,0,0,0.01,0,0.01,1677685710.127353,0.049033,-9.7085830000000009,0.51975199999999999,0.01,0,0,0.01,0,0.01,0,0,0,0,-1,0,0,0,0,0,,,,,,,,,,,,,,,,,,,,,,,,,,,,,,,,,,,,,,,,,,,,,,,,,,,,,,,,,,,,,,,,,,
1682357882.2864499,-0.001745,0,0,0.01,0,0,0.01,0,0.01,1677685710.1323559,0.049033,-9.7085830000000009,0.51975199999999999,0.01,0,0,0.01,0,0.01,0,0,0,0,-1,0,0,0,0,0,,,,,,,,,,,,,,,,,,,,,,,,,,,,,,,,,,,,,,,,,,,,,,,,,,,,,,,,,,,,,,,,,,
1682357882.2946501,-0.0034910000000000002,0,0,0.01,0,0,0.01,0,0.01,1677685710.1373589,0.068647,-9.7085830000000009,0.51975199999999999,0.01,0,0,0.01,0,0.01,0,0,0,0,-1,0,0,0,0,0,,,,,,,,,,,,,,,,,,,,,,,,,,,,,,,,,,,,,,,,,,,,,,,,,,,,,,,,,,,,,,,,,,
1682357882.303081,,,,,,,,,,,,,,,,,,,,,,,,,,,,,,0,,,,,,,,,,,,,,,,,,,,,,,,,,,,,,,,,,,,,,,,,,,,,,,,,,,,,,,,,,,,,,,,,
1682357882.3166521,-0.001745,0,0,0.01,0,0,0.01,0,0.01,1677685710.1423621,0.068647,-9.7085830000000009,0.53936600000000001,0.01,0,0,0.01,0,0.01,0,0,0,0,-1,0,0,0,0,0,,,,,,,,,,,,,,,,,,,,,,,,,,,,,,,,,,,,,,,,,,,,,,,,,,,,,,,,,,,,,,,,,,
1682357882.316709,-0.0052360000000000002,0,-0.0034910000000000002,0.01,0,0,0.01,0,0.01,1677685710.147366,0.068647,-9.7085830000000009,0.53936600000000001,0.01,0,0,0.01,0,0.01,0,0,0,0,-1,0,0,0,0,0,,,,,,,,,,,,,,,,,,,,,,,,,,,,,,,,,,,,,,,,,,,,,,,,,,,,,,,,,,,,,,,,,,
1682357882.3167529,0,0,0,0.01,0,0,0.01,0,0.01,1677685710.15237,0.068647,-9.7085830000000009,0.53936600000000001,0.01,0,0,0.01,0,0.01,0,0,0,0,-1,0,0,0,0,0,,,,,,,,,,,,,,,,,,,,,,,,,,,,,,,,,,,,,,,,,,,,,,,,,,,,,,,,,,,,,,,,,,
1682357882.3167779,0,0,0,0.01,0,0,0.01,0,0.01,1677685710.157373,0.068647,-9.7085830000000009,0.53936600000000001,0.01,0,0,0.01,0,0.01,0,0,0,0,-1,0,0,0,0,0,,,,,,,,,,,,,,,,,,,,,,,,,,,,,,,,,,,,,,,,,,,,,,,,,,,,,,,,,,,,,,,,,,
1682357882.3177731,-0.001745,0.001745,0,0.01,0,0,0.01,0,0.01,1677685710.1623759,0.068647,-9.7085830000000009,0.53936600000000001,0.01,0,0,0.01,0,0.01,0,0,0,0,-1,0,0,0,0,0,,,,,,,,,,,,,,,,,,,,,,,,,,,,,,,,,,,,,,,,,,,,,,,,,,,,,,,,,,,,,,,,,,
1682357882.3201201,,,,,,,,,,,,,,,,,,,,,,,,,,,,,,0,,,,,,,,,,,,,,,,,,,,,,,,,,,,,,,,,,,,,,,,,,,,,,,,,,,,,,,,,,,,,,,,,
1682357882.3218839,-0.0034910000000000002,0.001745,0,0.01,0,0,0.01,0,0.01,1677685710.1673789,0.078452999999999995,-9.7085830000000009,0.51975199999999999,0.01,0,0,0.01,0,0.01,0,0,0,0,-1,0,0,0,0,0,,,,,,,,,,,,,,,,,,,,,,,,,,,,,,,,,,,,,,,,,,,,,,,,,,,,,,,,,,,,,,,,,,
1682357882.3258979,-0.0052360000000000002,0,0,0.01,0,0,0.01,0,0.01,1677685710.1723831,0.078452999999999995,-9.7085830000000009,0.51975199999999999,0.01,0,0,0.01,0,0.01,0,0,0,0,-1,0,0,0,0,0,,,,,,,,,,,,,,,,,,,,,,,,,,,,,,,,,,,,,,,,,,,,,,,,,,,,,,,,,,,,,,,,,,
1682357882.330775,-0.001745,-0.0034910000000000002,0,0.01,0,0,0.01,0,0.01,1677685710.177386,0.058840000000000003,-9.6987760000000005,0.50994600000000001,0.01,0,0,0.01,0,0.01,0,0,0,0,-1,0,0,0,0,0,,,,,,,,,,,,,,,,,,,,,,,,,,,,,,,,,,,,,,,,,,,,,,,,,,,,,,,,,,,,,,,,,,
1682357882.3381751,-0.0034910000000000002,0,0,0.01,0,0,0.01,0,0.01,1677685710.18239,0.078452999999999995,-9.7085830000000009,0.50994600000000001,0.01,0,0,0.01,0,0.01,0,0,0,0,-1,0,0,0,0,0,,,,,,,,,,,,,,,,,,,,,,,,,,,,,,,,,,,,,,,,,,,,,,,,,,,,,,,,,,,,,,,,,,
1682357882.3412039,0,0,0,0.01,0,0,0.01,0,0.01,1677685710.187392,0.078452999999999995,-9.7085830000000009,0.50994600000000001,0.01,0,0,0.01,0,0.01,0,0,0,0,-1,0,0,0,0,0,,,,,,,,,,,,,,,,,,,,,,,,,,,,,,,,,,,,,,,,,,,,,,,,,,,,,,,,,,,,,,,,,,
1682357882.34952,-0.0052360000000000002,0,0,0.01,0,0,0.01,0,0.01,1677685710.1923959,0.078452999999999995,-9.7085830000000009,0.50994600000000001,0.01,0,0,0.01,0,0.01,0,0,0,0,-1,0,0,0,0,0,,,,,,,,,,,,,,,,,,,,,,,,,,,,,,,,,,,,,,,,,,,,,,,,,,,,,,,,,,,,,,,,,,
1682357882.34958,,,,,,,,,,,,,,,,,,,,,,,,,,,,,,0,,,,,,,,,,,,,,,,,,,,,,,,,,,,,,,,,,,,,,,,,,,,,,,,,,,,,,,,,,,,,,,,,
1682357882.351295,-0.0052360000000000002,-0.0034910000000000002,0,0.01,0,0,0.01,0,0.01,1677685710.1974001,0.078452999999999995,-9.7085830000000009,0.50994600000000001,0.01,0,0,0.01,0,0.01,0,0,0,0,-1,0,0,0,0,0,,,,,,,,,,,,,,,,,,,,,,,,,,,,,,,,,,,,,,,,,,,,,,,,,,,,,,,,,,,,,,,,,,
1682357882.3728299,-0.0034910000000000002,0,0,0.01,0,0,0.01,0,0.01,1677685710.2024031,0.058840000000000003,-9.7085830000000009,0.529559,0.01,0,0,0.01,0,0.01,0,0,0,0,-1,0,0,0,0,0,,,,,,,,,,,,,,,,,,,,,,,,,,,,,,,,,,,,,,,,,,,,,,,,,,,,,,,,,,,,,,,,,,
1682357882.3732121,0,0,0.001745,0.01,0,0,0.01,0,0.01,1677685710.207407,0.058840000000000003,-9.7085830000000009,0.529559,0.01,0,0,0.01,0,0.01,0,0,0,0,-1,0,0,0,0,0,,,,,,,,,,,,,,,,,,,,,,,,,,,,,,,,,,,,,,,,,,,,,,,,,,,,,,,,,,,,,,,,,,
1682357882.3748519,-0.0034910000000000002,0,0,0.01,0,0,0.01,0,0.01,1677685710.21241,0.058840000000000003,-9.7085830000000009,0.529559,0.01,0,0,0.01,0,0.01,0,0,0,0,-1,0,0,0,0,0,,,,,,,,,,,,,,,,,,,,,,,,,,,,,,,,,,,,,,,,,,,,,,,,,,,,,,,,,,,,,,,,,,
1682357882.3752849,-0.001745,0.0034910000000000002,-0.001745,0.01,0,0,0.01,0,0.01,1677685710.2174139,0.058840000000000003,-9.7085830000000009,0.529559,0.01,0,0,0.01,0,0.01,0,0,0,0,-1,0,0,0,0,0,,,,,,,,,,,,,,,,,,,,,,,,,,,,,,,,,,,,,,,,,,,,,,,,,,,,,,,,,,,,,,,,,,
1682357882.3779049,-0.0052360000000000002,0,0,0.01,0,0,0.01,0,0.01,1677685710.2224159,0.058840000000000003,-9.7085830000000009,0.53936600000000001,0.01,0,0,0.01,0,0.01,0,0,0,0,-1,0,0,0,0,0,,,,,,,,,,,,,,,,,,,,,,,,,,,,,,,,,,,,,,,,,,,,,,,,,,,,,,,,,,,,,,,,,,
1682357882.381304,-0.001745,0,0,0.01,0,0,0.01,0,0.01,1677685710.2274201,0.058840000000000003,-9.7085830000000009,0.53936600000000001,0.01,0,0,0.01,0,0.01,0,0,0,0,-1,0,0,0,0,0,,,,,,,,,,,,,,,,,,,,,,,,,,,,,,,,,,,,,,,,,,,,,,,,,,,,,,,,,,,,,,,,,,
1682357882.387121,-0.0052360000000000002,0.001745,0,0.01,0,0,0.01,0,0.01,1677685710.2324231,0.058840000000000003,-9.7085830000000009,0.53936600000000001,0.01,0,0,0.01,0,0.01,0,0,0,0,-1,0,0,0,0,0,,,,,,,,,,,,,,,,,,,,,,,,,,,,,,,,,,,,,,,,,,,,,,,,,,,,,,,,,,,,,,,,,,
1682357882.3871651,,,,,,,,,,,,,,,,,,,,,,,,,,,,,,0,,,,,,,,,,,,,,,,,,,,,,,,,,,,,,,,,,,,,,,,,,,,,,,,,,,,,,,,,,,,,,,,,
1682357882.3947229,0,-0.0034910000000000002,0.001745,0.01,0,0,0.01,0,0.01,1677685710.237427,0.068647,-9.7085830000000009,0.529559,0.01,0,0,0.01,0,0.01,0,0,0,0,-1,0,0,0,0,0,,,,,,,,,,,,,,,,,,,,,,,,,,,,,,,,,,,,,,,,,,,,,,,,,,,,,,,,,,,,,,,,,,
1682357882.3989489,-0.001745,0,0,0.01,0,0,0.01,0,0.01,1677685710.24243,0.068647,-9.7085830000000009,0.529559,0.01,0,0,0.01,0,0.01,0,0,0,0,-1,0,0,0,0,0,,,,,,,,,,,,,,,,,,,,,,,,,,,,,,,,,,,,,,,,,,,,,,,,,,,,,,,,,,,,,,,,,,
1682357882.3990049,,,,,,,,,,,,,,,,,,,,,,,,,,,,,,0,,,,,,,,,,,,,,,,,,,,,,,,,,,,,,,,,,,,,,,,,,,,,,,,,,,,,,,,,,,,,,,,,
1682357882.4030211,-0.0034910000000000002,0.001745,0,0.01,0,0,0.01,0,0.01,1677685710.2474339,0.078452999999999995,-9.6987760000000005,0.50994600000000001,0.01,0,0,0.01,0,0.01,0,0,0,0,-1,0,0,0,0,0,,,,,,,,,,,,,,,,,,,,,,,,,,,,,,,,,,,,,,,,,,,,,,,,,,,,,,,,,,,,,,,,,,
1682357882.403446,,,,,,,,,,,,,,,,,,,,,,,,,,,,,,0,,,,,,,,,,,,,,,,,,,,,,,,,,,,,,,,,,,,,,,,,,,,,,,,,,,,,,,,,,,,,,,,,
1682357882.417238,0,0,-0.001745,0.01,0,0,0.01,0,0.01,1677685710.2524381,0.068647,-9.6987760000000005,0.51975199999999999,0.01,0,0,0.01,0,0.01,0,0,0,0,-1,0,0,0,0,0,,,,,,,,,,,,,,,,,,,,,,,,,,,,,,,,,,,,,,,,,,,,,,,,,,,,,,,,,,,,,,,,,,
1682357882.417887,0,0.0034910000000000002,0,0.01,0,0,0.01,0,0.01,1677685710.257441,0.068647,-9.6987760000000005,0.51975199999999999,0.01,0,0,0.01,0,0.01,0,0,0,0,-1,0,0,0,0,0,,,,,,,,,,,,,,,,,,,,,,,,,,,,,,,,,,,,,,,,,,,,,,,,,,,,,,,,,,,,,,,,,,
1682357882.4203861,-0.0052360000000000002,0,-0.001745,0.01,0,0,0.01,0,0.01,1677685710.262445,0.068647,-9.7085830000000009,0.529559,0.01,0,0,0.01,0,0.01,0,0,0,0,-1,0,0,0,0,0,,,,,,,,,,,,,,,,,,,,,,,,,,,,,,,,,,,,,,,,,,,,,,,,,,,,,,,,,,,,,,,,,,
1682357882.4233119,0,0.001745,0,0.01,0,0,0.01,0,0.01,1677685710.2674479,0.068647,-9.7085830000000009,0.529559,0.01,0,0,0.01,0,0.01,0,0,0,0,-1,0,0,0,0,0,,,,,,,,,,,,,,,,,,,,,,,,,,,,,,,,,,,,,,,,,,,,,,,,,,,,,,,,,,,,,,,,,,
