__time,command.header.stamp,command.steering_angle,command.speed,velocity.v,imu.header.stamp,imu.w_x,imu.w_y,imu.w_z,imu.a_x,imu.a_y,imu.a_z,tf.header.stamp,tf.x,tf.y,tf.z,tf.r_x,tf.r_y,tf.r_z,tf.r_w,tf.roll_x,tf.pitch_y,tf.yaw_z
1677685709.4603508,1677685709.3597972,9.972792625427246,1.0176804065704346,,,,,,,,,,,,,,,,,,,
1677685709.4604368,,,,,,,,,,,,1682356749.5841165,2.6689014434814453,-3.346753597259521,0.1374974697828292,0.0050261579453945,0.0010244123404845,0.0382256172597408,-0.9992559552192688,-0.009966713400075638,-0.0024315586395623518,-0.07645875326462885
1677685709.4604588,,,,,1677685709.4325433,-0.0069813169538974,0.0017453292384743,0.0,0.0588398985564708,-9.698776245117188,0.5197524428367615,,,,,,,,,,,
1677685709.4605253,,,,0.0,,,,,,,,,,,,,,,,,,
1677685709.460896,1677685709.378926,9.972881317138672,1.0176804065704346,,,,,,,,,,,,,,,,,,,
1677685709.4609754,,,,,,,,,,,,1682356749.5844245,2.668912172317505,-3.346766948699951,0.137522354722023,0.005043476819992,0.0009755259961821,0.0382171794772148,-0.9992562532424928,-0.01000508199361903,-0.0023350979434994317,-0.07644230501057418
1677685709.460994,,,,,1677685709.4375403,0.0,0.0,0.0017453292384743,0.0588398985564708,-9.698776245117188,0.5197524428367615,,,,,,,,,,,
1677685709.4612772,1677685709.398925,9.975045204162598,1.0176804065704346,,,,,,,,,,,,,,,,,,,
1677685709.4613512,,,,,,,,,,,,1682356749.5975237,2.6689274311065674,-3.3467812538146973,0.137542724609375,0.0050231148488819,0.0009574060095474,0.0382281206548213,-0.9992559552192688,-0.009965746447379551,-0.0022974378152814424,-0.07646442809084514
1677685709.4613712,,,,,1677685709.442539,-0.0017453292384743,0.0,0.0,0.0588398985564708,-9.698776245117188,0.5197524428367615,,,,,,,,,,,
1677685709.461652,1677685709.4199457,9.974722862243652,1.0176804065704346,,,,,,,,,,,,,,,,,,,
1677685709.461748,,,,,,,,,,,,1682356749.599398,2.668930530548096,-3.3467907905578613,0.1375568956136703,0.0049247797578573,0.0009778924286365,0.0382078029215335,-0.9992572069168092,-0.00976769893586295,-0.0023306642526750017,-0.07642379210580062
1677685709.461769,,,,,1677685709.4475365,-0.0034906584769487,0.0017453292384743,0.0,0.0588398985564708,-9.708582878112791,0.5197524428367615,,,,,,,,,,,
1677685709.4621024,1677685709.439159,9.974722862243652,1.0176804065704346,,,,,,,,,,,,,,,,,,,
1677685709.4621613,,,,,,,,,,,,1682356749.6043146,2.6689438819885254,-3.346789121627808,0.1375480443239212,0.0050290892831981,0.00092733342899,0.0382479503750801,-0.9992551803588868,-0.009979940488772258,-0.0022379920485515025,-0.07650439644094546
1677685709.4621828,,,,,1677685709.452535,-0.0034906584769487,0.0034906584769487,-0.0017453292384743,0.0588398985564708,-9.708582878112791,0.5197524428367615,,,,,,,,,,,
1677685709.464713,1677685709.4617815,9.973121643066406,1.0176804065704346,,,,,,,,,,,,,,,,,,,
1677685709.4648137,,,,0.0,,,,,,,,,,,,,,,,,,
1677685709.4657438,,,,,1677685709.457532,-0.0017453292384743,0.0017453292384743,0.0,0.0686465501785278,-9.718389511108398,0.5197524428367615,,,,,,,,,,,
1677685709.4676905,,,,,,,,,,,,1682356749.6122334,2.668938159942627,-3.3467800617218018,0.1375269740819931,0.0049827937036752,0.0009559832978993,0.0382142923772335,-0.9992567300796508,-0.00988530278245338,-0.0022913753645406763,-0.07643686104533501
1677685709.4699326,,,,,1677685709.4625304,-0.0017453292384743,0.0,0.0,0.0686465501785278,-9.718389511108398,0.5197524428367615,,,,,,,,,,,
1677685709.4733346,,,,,1677685709.4675276,0.0,0.0,0.0,0.0686465501785278,-9.718389511108398,0.5197524428367615,,,,,,,,,,,
1677685709.4746218,,,,,1677685709.4725258,0.0,0.0034906584769487,0.0,0.0686465501785278,-9.718389511108398,0.5197524428367615,,,,,,,,,,,
1677685709.478858,,,,,,,,,,,,1682356749.620625,2.6689343452453613,-3.3467681407928467,0.1374973207712173,0.0050797476433217,0.0009791471529752,0.0382156372070312,-0.999256193637848,-0.010077299394661095,-0.002345091449720708,-0.07643910304951698
1677685709.4801035,1677685709.4793382,9.973312377929688,1.0176804065704346,,,,,,,,,,,,,,,,,,,
1677685709.480367,,,,,1677685709.477523,-0.0034906584769487,0.0052359877154231,-0.0017453292384743,0.0686465501785278,-9.708582878112791,0.5295590758323669,,,,,,,,,,,
1677685709.482422,,,,0.0,,,,,,,,,,,,,,,,,,
1677685709.4837315,,,,,1677685709.4825215,0.0,0.0034906584769487,0.0,0.0686465501785278,-9.708582878112791,0.5295590758323669,,,,,,,,,,,
1677685709.4886034,,,,,,,,,,,,1682356749.6293094,2.6689250469207764,-3.346757411956787,0.1374749839305877,0.005044593475759,0.0009534558630548,0.0382683649659156,-0.99925434589386,-0.010008882904041913,-0.0022915885236867426,-0.07654496713064131
1677685709.489282,,,,,1677685709.4875195,0.0,0.0,0.0,0.0686465501785278,-9.698776245117188,0.5197524428367615,,,,,,,,,,,
1677685709.493597,,,,,1677685709.4925172,-0.0017453292384743,0.0017453292384743,0.0,0.0686465501785278,-9.698776245117188,0.5197524428367615,,,,,,,,,,,
1677685709.4990814,1677685709.4987097,9.978130340576172,1.0176804065704346,,,,,,,,,,,,,,,,,,,
1677685709.4991057,,,,,,,,,,,,1682356749.639771,2.6689133644104004,-3.3467507362365723,0.13745978474617,0.0051235379651188,0.000998736359179,0.0382374823093414,-0.999255120754242,-0.010163268704547642,-0.0023878094960597955,-0.0764825269341966
1677685709.4993684,,,,,1677685709.4975152,-0.0034906584769487,0.0,0.0,0.0784531980752945,-9.698776245117188,0.5197524428367615,,,,,,,,,,,
1677685709.5040936,,,,0.0,,,,,,,,,,,,,,,,,,
1677685709.5048027,,,,,1677685709.5025127,-0.0017453292384743,0.0,0.0,0.0784531980752945,-9.698776245117188,0.5197524428367615,,,,,,,,,,,
1677685709.507079,,,,,,,,,,,,1682356749.648097,2.6689069271087646,-3.3467471599578857,0.1374654620885849,0.0050995871424674,0.0010294953826814,0.0382311306893825,-0.9992554783821106,-0.010113065903869942,-0.002447386210421916,-0.07646956770418739
1677685709.5086937,,,,,1677685709.5075111,-0.0017453292384743,0.0017453292384743,0.0,0.0784531980752945,-9.718389511108398,0.509945809841156,,,,,,,,,,,
1677685709.5133018,,,,,,,,,,,,1682356749.654932,2.6689023971557617,-3.346745729446411,0.1374796330928802,0.0050987601280212,0.0009800879051908,0.0382216237485408,-0.999255895614624,-0.010115211521214022,-0.002348485176158023,-0.07645103308951451
1677685709.5144,,,,,1677685709.512509,-0.0052359877154231,0.0017453292384743,0.0,0.0784531980752945,-9.718389511108398,0.509945809841156,,,,,,,,,,,
1677685709.518748,,,,,1677685709.5175066,0.0,0.0034906584769487,-0.0017453292384743,0.0588398985564708,-9.718389511108398,0.5197524428367615,,,,,,,,,,,
1677685709.5201342,1677685709.5187275,9.972576141357422,1.0176804065704346,,,,,,,,,,,,,,,,,,,
1677685709.520163,,,,,,,,,,,,1682356749.6629026,2.6689136028289795,-3.346764087677002,0.1375005841255188,0.0050769611261785,0.0009507582872174,0.0382310487329959,-0.9992555975914,-0.010073863436120324,-0.002288298174416397,-0.07647023230633773
1677685709.5239215,,,,,1677685709.522504,-0.0017453292384743,0.0052359877154231,0.0,0.0588398985564708,-9.718389511108398,0.5197524428367615,,,,,,,,,,,
1677685709.5255003,,,,0.0,,,,,,,,,,,,,,,,,,
1677685709.528764,,,,,1677685709.527502,0.0,0.0,-0.0017453292384743,0.0686465501785278,-9.718389511108398,0.5197524428367615,,,,,,,,,,,
1677685709.5310287,,,,,,,,,,,,1682356749.6717448,2.668924331665039,-3.346768617630005,0.1375325918197631,0.0050040748901665,0.0010062681976705,0.0382089577615261,-0.9992567896842957,-0.009924006021683439,-0.0023934439149283747,-0.07642564582908103
1677685709.5339384,,,,,1677685709.5325005,-0.0017453292384743,-0.0017453292384743,0.0017453292384743,0.0686465501785278,-9.718389511108398,0.5197524428367615,,,,,,,,,,,
1677685709.5382028,,,,,,,,,,,,1682356749.6789253,2.6689319610595703,-3.3467822074890137,0.137546956539154,0.0049829171039164,0.0009721663082018,0.0382589809596538,-0.9992550611495972,-0.009884209724871158,-0.0023241689611378604,-0.07652614957224181
1677685709.540044,1677685709.5387511,9.978262901306152,1.0176804065704346,,,,,,,,,,,,,,,,,,,
1677685709.5400834,,,,,1677685709.5374978,-0.0069813169538974,-0.0052359877154231,0.0,0.0784531980752945,-9.708582878112791,0.5295590758323669,,,,,,,,,,,
1677685709.544528,,,,,1677685709.542496,-0.0034906584769487,0.0,-0.0017453292384743,0.0784531980752945,-9.708582878112791,0.5295590758323669,,,,,,,,,,,
1677685709.5461392,,,,0.0,,,,,,,,,,,,,,,,,,
1677685709.5481286,,,,,,,,,,,,1682356749.688203,2.6689319610595703,-3.346794843673706,0.1375537812709808,0.0049740737304091,0.0009581905324012,0.0382265746593475,-0.9992562532424928,-0.009867678003189944,-0.002295241379504745,-0.07646143815847743
1677685709.5488515,,,,,1677685709.5474944,-0.0017453292384743,0.0,0.0017453292384743,0.0784531980752945,-9.698776245117188,0.5197524428367615,,,,,,,,,,,
1677685709.5542953,,,,,1677685709.5524917,0.0,0.0,0.0,0.0784531980752945,-9.698776245117188,0.5197524428367615,,,,,,,,,,,
1677685709.557481,,,,,,,,,,,,1682356749.6990998,2.6689372062683105,-3.3467822074890137,0.1375577896833419,0.0049645863473415,0.0009454395622014,0.0382029749453067,-0.9992573261260986,-0.009849745965269933,-0.0022688006999860267,-0.07641435834730459
1677685709.558944,,,,,1677685709.557489,0.0,0.0,0.0,0.0588398985564708,-9.708582878112791,0.5295590758323669,,,,,,,,,,,
1677685709.5592034,1677685709.558755,9.972192764282228,1.0176804065704346,,,,,,,,,,,,,,,,,,,
1677685709.5635564,,,,,1677685709.5624874,0.0,-0.0017453292384743,0.0,0.0588398985564708,-9.708582878112791,0.5295590758323669,,,,,,,,,,,
1677685709.5658967,,,,,,,,,,,,1682356749.7066147,2.6689293384552,-3.3467819690704346,0.1375257521867752,0.0050034872256219,0.0009665911202318,0.0382070392370224,-0.9992568492889404,-0.009925866153929687,-0.0023140845255244904,-0.0764221900834984
1677685709.56802,,,,0.0,,,,,,,,,,,,,,,,,,
1677685709.5695815,,,,,1677685709.5674846,-0.0034906584769487,-0.0017453292384743,-0.0017453292384743,0.0686465501785278,-9.708582878112791,0.5197524428367615,,,,,,,,,,,
1677685709.5718508,,,,,,,,,,,,1682356749.7126746,2.668926954269409,-3.346763610839844,0.1375014185905456,0.0050263297744095,0.0009556145523674,0.0382225699722766,-0.9992561340332032,-0.009972321155065089,-0.002294047901591455,-0.0764533274618356
1677685709.5738597,,,,,1677685709.5724828,0.0,0.0,0.0017453292384743,0.0686465501785278,-9.708582878112791,0.5197524428367615,,,,,,,,,,,
1677685709.5783987,,,,,1677685709.5774813,-0.0017453292384743,0.0017453292384743,0.0,0.0588398985564708,-9.708582878112791,0.509945809841156,,,,,,,,,,,
1677685709.5794902,1677685709.5788136,9.973465919494627,1.0176804065704346,,,,,,,,,,,,,,,,,,,
1677685709.583565,,,,,1677685709.5824783,0.0,0.0017453292384743,0.0,0.0588398985564708,-9.708582878112791,0.509945809841156,,,,,,,,,,,
1677685709.5852375,,,,,,,,,,,,1682356749.7234058,2.6689200401306152,-3.346752166748047,0.1374742686748504,0.0050837113521993,0.0009992059785872,0.0382429137825965,-0.9992550611495972,-0.010083623078705266,-0.0023857573955675167,-0.07649348372451424
1677685709.588683,,,,,1677685709.5874767,-0.0034906584769487,0.0,0.0,0.0686465501785278,-9.718389511108398,0.509945809841156,,,,,,,,,,,
1677685709.5890002,,,,,,,,,,,,1682356749.7297697,2.668906211853028,-3.346745252609253,0.137453481554985,0.00515419524163,0.0010464307852089,0.0382410995662212,-0.9992547035217284,-0.010220883874596054,-0.0024855085140396698,-0.07648920903684177
1677685709.5892177,,,,0.0,,,,,,,,,,,,,,,,,,
1677685709.5934668,,,,,1677685709.5924742,-0.0017453292384743,0.0,0.0,0.0686465501785278,-9.718389511108398,0.509945809841156,,,,,,,,,,,
1677685709.5968509,,,,,,,,,,,,1682356749.737101,2.6689047813415527,-3.346748352050781,0.1374608129262924,0.0050405249930918,0.0009885261533781,0.0382228456437587,-0.9992561340332032,-0.009998176909561868,-0.002360910255624118,-0.07645353191388127
1677685709.599408,,,,,1677685709.5974724,-0.0034906584769487,0.0,0.0,0.0686465501785278,-9.708582878112791,0.5295590758323669,,,,,,,,,,,
1677685709.5997791,1677685709.598709,9.972825050354004,1.0176804065704346,,,,,,,,,,,,,,,,,,,
1677685709.6040304,,,,,1677685709.6024706,0.0,0.0017453292384743,0.0,0.0686465501785278,-9.708582878112791,0.5295590758323669,,,,,,,,,,,
1677685709.605307,,,,,,,,,,,,1682356749.7458549,2.668910264968872,-3.34675407409668,0.1374774426221847,0.0050847479142248,0.000998962088488,0.0382239706814289,-0.9992557764053344,-0.010085758533462068,-0.0023851580465730393,-0.07645556980593839
1677685709.610744,,,,,1677685709.607468,-0.0034906584769487,0.0017453292384743,0.0,0.0490332469344139,-9.708582878112791,0.5197524428367615,,,,,,,,,,,
1677685709.6108055,,,,0.0,,,,,,,,,,,,,,,,,,
1677685709.612162,,,,,,,,,,,,1682356749.7539575,2.6689178943634038,-3.3467674255371094,0.1375041306018829,0.0050486754626035,0.0009741415269672,0.0382049866020679,-0.9992567300796508,-0.010015606434594333,-0.0023326062258626394,-0.07641790591303907
1677685709.613755,,,,,1677685709.6124663,0.0,0.0017453292384743,0.0,0.0490332469344139,-9.708582878112791,0.5197524428367615,,,,,,,,,,,
1677685709.6188164,,,,,1677685709.6174636,-0.0034906584769487,0.0,0.0,0.0686465501785278,-9.728196144104004,0.509945809841156,,,,,,,,,,,
1677685709.6195438,1677685709.618706,9.971746444702148,1.0176804065704346,,,,,,,,,,,,,,,,,,,
1677685709.6218808,,,,,,,,,,,,1682356749.762688,2.668926477432251,-3.3467838764190674,0.1375327706336975,0.0049836398102343,0.0009325488936156,0.0382223390042781,-0.9992564916610718,-0.0098887665432208,-0.0022446856970944028,-0.07645319570864229
1677685709.623299,,,,,1677685709.622462,-0.0017453292384743,0.0034906584769487,0.0,0.0686465501785278,-9.728196144104004,0.509945809841156,,,,,,,,,,,
1677685709.628356,,,,,1677685709.6274593,0.0,0.0,0.0,0.0686465501785278,-9.708582878112791,0.509945809841156,,,,,,,,,,,
1677685709.630487,,,,,,,,,,,,1682356749.770793,2.668933391571045,-3.346792221069336,0.1375470757484436,0.0050179320387542,0.0009319609380327,0.0382325015962123,-0.9992558360099792,-0.009957323013568194,-0.0022462328908052142,-0.07647345714938572
1677685709.6317892,,,,0.0,,,,,,,,,,,,,,,,,,
1677685709.6333263,,,,,1677685709.6324575,0.0,0.0017453292384743,0.0017453292384743,0.0686465501785278,-9.708582878112791,0.509945809841156,,,,,,,,,,,
1677685709.6386104,,,,,,,,,,,,1682356749.7793305,2.6689367294311523,-3.346789598464966,0.1375499963760376,0.0049883644096553,0.0009379779803566,0.0382548309862613,-0.999255120754242,-0.009897719778713487,-0.0022562185890519595,-0.07651815560082852
1677685709.6386423,,,,,1677685709.6374547,0.0,0.0,0.0,0.0784531980752945,-9.718389511108398,0.5295590758323669,,,,,,,,,,,
1677685709.6397138,1677685709.638737,9.978119850158691,1.0176804065704346,,,,,,,,,,,,,,,,,,,
1677685709.644154,,,,,1677685709.6424532,0.0,0.0,0.0,0.0784531980752945,-9.718389511108398,0.5295590758323669,,,,,,,,,,,
1677685709.6477752,,,,,,,,,,,,1682356749.789897,2.6689438819885254,-3.346786499023437,0.1375402957201004,0.0050227646715939,0.000921623839531,0.0382214300334453,-0.9992562532424928,-0.009967796203412524,-0.002225833104436271,-0.07645138920853402
1677685709.6487906,,,,,1677685709.6474514,0.0017453292384743,0.0,0.0,0.0784531980752945,-9.708582878112791,0.5295590758323669,,,,,,,,,,,
1677685709.6535492,,,,,1677685709.652449,0.0,0.0017453292384743,0.0,0.0784531980752945,-9.708582878112791,0.5295590758323669,,,,,,,,,,,
1677685709.6535766,,,,0.0,,,,,,,,,,,,,,,,,,
1677685709.6542847,,,,,,,,,,,,1682356749.7960384,2.6689295768737797,-3.346778154373169,0.1375091522932052,0.0050622816197574,0.0009777295636013,0.0382402054965496,-0.9992552995681764,-0.010042442632209258,-0.0023411704134773917,-0.07648832653770934
1677685709.6586285,,,,,1677685709.6574469,-0.0017453292384743,0.0087266461923718,0.0,0.0588398985564708,-9.698776245117188,0.5197524428367615,,,,,,,,,,,
1677685709.659345,1677685709.6588178,9.976032257080078,1.0176804065704346,,,,,,,,,,,,,,,,,,,
1677685709.6635957,,,,,1677685709.662444,0.0,0.0034906584769487,0.0,0.0588398985564708,-9.698776245117188,0.5197524428367615,,,,,,,,,,,
1677685709.663908,,,,,,,,,,,,1682356749.8052278,2.6689233779907227,-3.3467605113983154,0.1374814808368683,0.0050414009019732,0.0009449528297409,0.0382392928004264,-0.9992555379867554,-0.010003219576528506,-0.002274059866931563,-0.07648687594303372
1677685709.6685486,,,,,1677685709.6674423,-0.0017453292384743,-0.0052359877154231,0.0017453292384743,0.0588398985564708,-9.698776245117188,0.509945809841156,,,,,,,,,,,
1677685709.672132,,,,,,,,,,,,1682356749.8128896,2.668909072875977,-3.346749782562256,0.1374621838331222,0.005107874982059,0.0010127638233825,0.0382282957434654,-0.9992555379867554,-0.010130915085361127,-0.0024145527754107685,-0.0764640381904486
1677685709.6737325,,,,,1677685709.6724398,0.0,0.0,0.0,0.0588398985564708,-9.698776245117188,0.509945809841156,,,,,,,,,,,
1677685709.6742845,,,,0.0,,,,,,,,,,,,,,,,,,
1677685709.6788735,,,,,1677685709.677438,-0.0017453292384743,0.0,0.0,0.0784531980752945,-9.718389511108398,0.5197524428367615,,,,,,,,,,,
1677685709.6796486,1677685709.678847,9.975292205810549,1.0176804065704346,,,,,,,,,,,,,,,,,,,
1677685709.680345,,,,,,,,,,,,1682356749.8211582,2.6689016819000244,-3.346746921539306,0.1374607384204864,0.0050508463755249,0.0010340409353375,0.038245964795351,-0.999255120754242,-0.01001526998261092,-0.0024528928444536072,-0.07649932905308603
1677685709.6833122,,,,,1677685709.6824353,-0.0017453292384743,0.0017453292384743,0.0017453292384743,0.0784531980752945,-9.718389511108398,0.5197524428367615,,,,,,,,,,,
1677685709.6883404,,,,,,,,,,,,1682356749.8288023,2.6689038276672363,-3.3467514514923096,0.1374714374542236,0.0050067156553268,0.0010009842226281,0.0382489711046218,-0.9992551803588868,-0.009929591251777956,-0.0023834830414537285,-0.07650577009593909
1677685709.6883953,,,,,1677685709.6874335,-0.0017453292384743,-0.0017453292384743,0.0,0.0686465501785278,-9.708582878112791,0.509945809841156,,,,,,,,,,,
1677685709.6935704,,,,,1677685709.6924307,-0.0017453292384743,-0.0034906584769487,0.0,0.0686465501785278,-9.708582878112791,0.509945809841156,,,,,,,,,,,
1677685709.6951275,,,,0.0,,,,,,,,,,,,,,,,,,
1677685709.6966588,,,,,,,,,,,,1682356749.837185,2.668907165527344,-3.3467605113983154,0.13749860227108,0.0050946362316608,0.000980460550636,0.0381992161273956,-0.999256670475006,-0.010106992776468624,-0.002348687871086061,-0.07640618371165049
1677685709.6983645,,,,,1677685709.6974292,0.0,-0.0017453292384743,-0.0017453292384743,0.0686465501785278,-9.698776245117188,0.509945809841156,,,,,,,,,,,
1677685709.699571,1677685709.698732,9.970816612243652,1.0176804065704346,,,,,,,,,,,,,,,,,,,
1677685709.7034082,,,,,1677685709.7024274,-0.0034906584769487,0.0052359877154231,0.0,0.0686465501785278,-9.698776245117188,0.509945809841156,,,,,,,,,,,
1677685709.7090397,,,,,,,,,,,,1682356749.849743,2.6689133644104004,-3.3467745780944824,0.1375187933444976,0.0050318059511482,0.000971840810962,0.0382218845188617,-0.999256193637848,-0.009982028140972623,-0.0023268882109265753,-0.07645178963509848
1677685709.7090707,,,,,1677685709.7074249,-0.0034906584769487,0.0017453292384743,0.0,0.0686465501785278,-9.698776245117188,0.5197524428367615,,,,,,,,,,,
1677685709.7137296,,,,,1677685709.712423,0.0,0.0,0.0,0.0686465501785278,-9.698776245117188,0.5197524428367615,,,,,,,,,,,
1677685709.7164314,,,,,,,,,,,,1682356749.85627,2.668924331665039,-3.346780776977539,0.1375369280576706,0.0049591255374252,0.0009432309889234,0.0382134839892387,-0.9992569088935852,-0.009838976586722153,-0.002264073027661144,-0.07643542190809334
1677685709.7168863,,,,0.0,,,,,,,,,,,,,,,,,,
1677685709.718528,,,,,1677685709.7174203,-0.0017453292384743,0.0017453292384743,0.0,0.0588398985564708,-9.708582878112791,0.509945809841156,,,,,,,,,,,
1677685709.721982,1677685709.7187498,9.973258018493652,1.0176804065704346,,,,,,,,,,,,,,,,,,,
1677685709.722339,,,,,,,,,,,,1682356749.8625882,2.668936252593994,-3.346785068511963,0.1375557631254196,0.0049299015663564,0.0009965092176571,0.0382269993424415,-0.999256432056427,-0.009776467742384897,-0.0023684493928884903,-0.0764620221417986
1677685709.7236147,,,,,1677685709.7224188,-0.0034906584769487,0.0017453292384743,0.0,0.0588398985564708,-9.708582878112791,0.509945809841156,,,,,,,,,,,
1677685709.7287903,,,,,1677685709.727416,-0.0034906584769487,0.0,0.0,0.0784531980752945,-9.708582878112791,0.5197524428367615,,,,,,,,,,,
1677685709.7325115,,,,,,,,,,,,1682356749.8732495,2.6689376831054688,-3.346789836883545,0.1375358253717422,0.0050259125418961,0.0009480766602791,0.0382313914597034,-0.999255895614624,-0.009972044065743743,-0.0022790396171162644,-0.07647106485957858
1677685709.733484,,,,,1677685709.7324142,-0.0017453292384743,0.0,0.0,0.0784531980752945,-9.708582878112791,0.5197524428367615,,,,,,,,,,,
1677685709.738703,,,,,1677685709.7374115,0.0,0.0,0.0017453292384743,0.0588398985564708,-9.708582878112791,0.5197524428367615,,,,,,,,,,,
1677685709.7387283,,,,0.0,,,,,,,,,,,,,,,,,,
1677685709.739263,,,,,,,,,,,,1682356749.8799086,2.6689345836639404,-3.3467788696289062,0.1375168412923813,0.0049983654171228,0.000962077290751,0.0382306054234504,-0.9992560148239136,-0.009915920656406802,-0.002304906151902611,-0.07646941506413166
1677685709.7399633,1677685709.738709,9.97502326965332,1.0176804065704346,,,,,,,,,,,,,,,,,,,
1677685709.7433026,,,,,1677685709.74241,0.0,0.0034906584769487,0.0,0.0588398985564708,-9.708582878112791,0.5197524428367615,,,,,,,,,,,
1677685709.7484026,,,,,1677685709.7474072,0.0,0.0017453292384743,-0.0017453292384743,0.0588398985564708,-9.708582878112791,0.509945809841156,,,,,,,,,,,
1677685709.7499506,,,,,,,,,,,,1682356749.8899822,2.668930053710937,-3.3467659950256348,0.1374889761209488,0.0050370101816952,0.0010104376124218,0.0382411703467369,-0.9992554187774658,-0.0099894338210945,-0.0024046151652075878,-0.07649000020922436
1677685709.7533514,,,,,1677685709.7524054,-0.0034906584769487,0.0,0.0,0.0588398985564708,-9.708582878112791,0.509945809841156,,,,,,,,,,,
1677685709.7588646,,,,,1677685709.757404,-0.0017453292384743,-0.0017453292384743,0.0,0.0686465501785278,-9.698776245117188,0.5197524428367615,,,,,,,,,,,
1677685709.759329,1677685709.7587285,9.975611686706545,1.0176804065704346,,,,,,,,,,,,,,,,,,,
1677685709.7595768,,,,0.0,,,,,,,,,,,,,,,,,,
1677685709.7634149,,,,,1677685709.7624009,-0.0052359877154231,-0.0017453292384743,0.0,0.0686465501785278,-9.698776245117188,0.5197524428367615,,,,,,,,,,,
1677685709.7685866,,,,,1677685709.767399,-0.0052359877154231,0.0034906584769487,0.0,0.0686465501785278,-9.708582878112791,0.5295590758323669,,,,,,,,,,,
1677685709.7736187,,,,,1677685709.7723975,0.0,0.0,0.0,0.0686465501785278,-9.708582878112791,0.5295590758323669,,,,,,,,,,,
1677685709.7787957,,,,,1677685709.7773948,-0.0052359877154231,0.0,0.0,0.0784531980752945,-9.708582878112791,0.5197524428367615,,,,,,,,,,,
1677685709.7794158,1677685709.7788134,9.975611686706545,1.0176804065704346,,,,,,,,,,,,,,,,,,,
1677685709.7812622,,,,0.0,,,,,,,,,,,,,,,,,,
1677685709.7834487,,,,,1677685709.782393,-0.0017453292384743,0.0,0.0,0.0784531980752945,-9.708582878112791,0.5197524428367615,,,,,,,,,,,
1677685709.788555,,,,,1677685709.7873905,-0.0017453292384743,-0.0034906584769487,0.0034906584769487,0.0686465501785278,-9.718389511108398,0.5197524428367615,,,,,,,,,,,
1677685709.7936268,,,,,1677685709.792389,-0.0034906584769487,0.0,0.0,0.0686465501785278,-9.718389511108398,0.5197524428367615,,,,,,,,,,,
1677685709.7988153,,,,,1677685709.797386,0.0,0.0,0.0,0.0784531980752945,-9.708582878112791,0.509945809841156,,,,,,,,,,,
1677685709.7999055,1677685709.798761,9.975611686706545,1.0176804065704346,,,,,,,,,,,,,,,,,,,
1677685709.801616,,,,0.0,,,,,,,,,,,,,,,,,,
1677685709.8035443,,,,,1677685709.8023844,0.0,0.0034906584769487,0.0,0.0784531980752945,-9.708582878112791,0.509945809841156,,,,,,,,,,,
1677685709.808532,,,,,1677685709.8073814,0.0,0.0052359877154231,0.0,0.0784531980752945,-9.698776245117188,0.5197524428367615,,,,,,,,,,,
1677685709.813302,,,,,1677685709.8123798,0.0,0.0,0.0,0.0784531980752945,-9.698776245117188,0.5197524428367615,,,,,,,,,,,
1677685709.8187628,,,,,1677685709.817377,0.0,0.0034906584769487,0.0,0.0686465501785278,-9.708582878112791,0.5197524428367615,,,,,,,,,,,
1677685709.8194516,1677685709.8187718,9.975611686706545,1.0176804065704346,,,,,,,,,,,,,,,,,,,
1677685709.823824,,,,,1677685709.8223755,-0.0052359877154231,0.0,0.0,0.0686465501785278,-9.708582878112791,0.5197524428367615,,,,,,,,,,,
1677685709.823861,,,,0.0,,,,,,,,,,,,,,,,,,
1677685709.8290095,,,,,1677685709.8273735,0.0,0.0017453292384743,-0.0017453292384743,0.0686465501785278,-9.708582878112791,0.5197524428367615,,,,,,,,,,,
1677685709.8334703,,,,,1677685709.832371,-0.0017453292384743,0.0,0.0,0.0686465501785278,-9.708582878112791,0.5197524428367615,,,,,,,,,,,
1677685709.8386998,,,,,1677685709.8373692,-0.0017453292384743,0.0,0.0,0.0588398985564708,-9.708582878112791,0.5197524428367615,,,,,,,,,,,
1677685709.8393316,1677685709.8387868,9.975611686706545,1.0176804065704346,,,,,,,,,,,,,,,,,,,
1677685709.843995,,,,,1677685709.8423665,0.0,-0.0017453292384743,0.0,0.0588398985564708,-9.708582878112791,0.5197524428367615,,,,,,,,,,,
1677685709.844838,,,,0.0,,,,,,,,,,,,,,,,,,
1677685709.8489,,,,,1677685709.847365,0.0,0.0017453292384743,0.0,0.0686465501785278,-9.708582878112791,0.5197524428367615,,,,,,,,,,,
1677685709.853647,,,,,1677685709.852362,-0.0017453292384743,0.0,0.0,0.0686465501785278,-9.708582878112791,0.5197524428367615,,,,,,,,,,,
1677685709.8584712,,,,,1677685709.8573604,-0.0034906584769487,0.0017453292384743,0.0034906584769487,0.0686465501785278,-9.708582878112791,0.5295590758323669,,,,,,,,,,,
1677685709.8593743,1677685709.8587034,9.975611686706545,1.0176804065704346,,,,,,,,,,,,,,,,,,,
1677685709.8634963,,,,,1677685709.862358,0.0,0.0052359877154231,-0.0017453292384743,0.0686465501785278,-9.708582878112791,0.5295590758323669,,,,,,,,,,,
1677685709.8662603,,,,0.0,,,,,,,,,,,,,,,,,,
1677685709.868384,,,,,1677685709.8673558,-0.0017453292384743,0.0017453292384743,0.0,0.0686465501785278,-9.708582878112791,0.5197524428367615,,,,,,,,,,,
1677685709.8732889,,,,,1677685709.8723533,0.0,0.0052359877154231,-0.0017453292384743,0.0686465501785278,-9.708582878112791,0.5197524428367615,,,,,,,,,,,
1677685709.8786578,,,,,1677685709.8773515,0.0,0.0034906584769487,0.0,0.0588398985564708,-9.698776245117188,0.5197524428367615,,,,,,,,,,,
1677685709.8795414,1677685709.8787344,9.975611686706545,1.0176804065704346,,,,,,,,,,,,,,,,,,,
1677685709.8839326,,,,,1677685709.8823483,-0.0017453292384743,0.0,0.0,0.0588398985564708,-9.698776245117188,0.5197524428367615,,,,,,,,,,,
1677685709.8876648,,,,0.0,,,,,,,,,,,,,,,,,,
1677685709.8886695,,,,,1677685709.887347,0.0,0.0,0.0,0.0784531980752945,-9.688969612121582,0.5393657088279724,,,,,,,,,,,
1677685709.8938203,,,,,1677685709.8923452,0.0,0.0,0.0,0.0784531980752945,-9.688969612121582,0.5393657088279724,,,,,,,,,,,
1677685709.8984332,,,,,1677685709.8973424,-0.0017453292384743,0.0034906584769487,0.0,0.0784531980752945,-9.708582878112791,0.5197524428367615,,,,,,,,,,,
1677685709.899763,1677685709.898744,9.975611686706545,1.0176804065704346,,,,,,,,,,,,,,,,,,,
1677685709.9034016,,,,,1677685709.902341,-0.0017453292384743,0.0017453292384743,0.0,0.0784531980752945,-9.708582878112791,0.5197524428367615,,,,,,,,,,,
1677685709.9086769,,,,,1677685709.907338,-0.0017453292384743,0.0,0.0017453292384743,0.0784531980752945,-9.708582878112791,0.5197524428367615,,,,,,,,,,,
1677685709.909541,,,,0.0,,,,,,,,,,,,,,,,,,
1677685709.9135582,,,,,1677685709.9123363,0.0,-0.0052359877154231,0.0,0.0784531980752945,-9.708582878112791,0.5197524428367615,,,,,,,,,,,
1677685709.9186926,,,,,1677685709.9173338,-0.0034906584769487,0.0017453292384743,0.0,0.0784531980752945,-9.698776245117188,0.5295590758323669,,,,,,,,,,,
1677685709.919625,1677685709.9187436,9.975611686706545,1.0176804065704346,,,,,,,,,,,,,,,,,,,
1677685709.9237473,,,,,1677685709.9223318,-0.0034906584769487,0.0034906584769487,0.0,0.0784531980752945,-9.698776245117188,0.5295590758323669,,,,,,,,,,,
1677685709.928513,,,,,1677685709.927329,-0.0017453292384743,0.0034906584769487,0.0,0.0686465501785278,-9.708582878112791,0.5197524428367615,,,,,,,,,,,
1677685709.929579,,,,0.0,,,,,,,,,,,,,,,,,,
1677685709.9336145,,,,,1677685709.9323275,0.0017453292384743,0.0,0.0,0.0686465501785278,-9.708582878112791,0.5197524428367615,,,,,,,,,,,
1677685709.9387226,,,,,1677685709.9373257,-0.0017453292384743,0.0017453292384743,0.0017453292384743,0.0784531980752945,-9.708582878112791,0.509945809841156,,,,,,,,,,,
1677685709.94006,1677685709.9387293,9.975611686706545,1.0176804065704346,,,,,,,,,,,,,,,,,,,
1677685709.9436114,,,,,1677685709.942323,0.0,0.0,0.0,0.0784531980752945,-9.708582878112791,0.509945809841156,,,,,,,,,,,
1677685709.9485157,,,,,1677685709.9473214,-0.0017453292384743,0.0,0.0,0.0784531980752945,-9.708582878112791,0.509945809841156,,,,,,,,,,,
1677685709.9509811,,,,0.0,,,,,,,,,,,,,,,,,,
1677685709.9538035,,,,,1677685709.952319,0.0,0.0052359877154231,0.0,0.0784531980752945,-9.708582878112791,0.509945809841156,,,,,,,,,,,
1677685709.958393,,,,,1677685709.9573169,-0.0034906584769487,0.0,0.0,0.0588398985564708,-9.708582878112791,0.5295590758323669,,,,,,,,,,,
1677685709.9594202,1677685709.9587407,9.975611686706545,1.0176804065704346,,,,,,,,,,,,,,,,,,,
1677685709.963733,,,,,1677685709.962315,-0.0017453292384743,0.0,0.0017453292384743,0.0588398985564708,-9.708582878112791,0.5295590758323669,,,,,,,,,,,
1677685709.9685147,,,,,1677685709.967312,-0.0017453292384743,-0.0017453292384743,-0.0017453292384743,0.0686465501785278,-9.698776245117188,0.5197524428367615,,,,,,,,,,,
1677685709.9726312,,,,0.0,,,,,,,,,,,,,,,,,,
1677685709.9737213,,,,,1677685709.9723103,-0.0034906584769487,0.0,0.0017453292384743,0.0686465501785278,-9.698776245117188,0.5197524428367615,,,,,,,,,,,
1677685709.9785397,,,,,1677685709.9773078,-0.0017453292384743,0.0017453292384743,0.0,0.0686465501785278,-9.718389511108398,0.5295590758323669,,,,,,,,,,,
1677685709.979417,1677685709.9787333,9.975611686706545,1.0176804065704346,,,,,,,,,,,,,,,,,,,
1677685709.9836347,,,,,1677685709.982306,-0.0034906584769487,0.0017453292384743,0.0,0.0686465501785278,-9.718389511108398,0.5295590758323669,,,,,,,,,,,
1677685709.9885304,,,,,1677685709.9873035,0.0,0.0,0.0,0.0686465501785278,-9.708582878112791,0.509945809841156,,,,,,,,,,,
1677685709.9940772,,,,,1677685709.992302,-0.0017453292384743,0.0,0.0,0.0686465501785278,-9.708582878112791,0.509945809841156,,,,,,,,,,,
1677685709.994431,,,,0.0,,,,,,,,,,,,,,,,,,
1677685709.9984848,,,,,1677685709.9972992,0.0,0.0,0.0,0.0784531980752945,-9.708582878112791,0.5197524428367615,,,,,,,,,,,
1677685709.999377,1677685709.9987106,9.975611686706545,1.0176804065704346,,,,,,,,,,,,,,,,,,,
1677685710.0032651,,,,,1677685710.0022972,-0.0017453292384743,0.0017453292384743,-0.0017453292384743,0.0784531980752945,-9.708582878112791,0.5197524428367615,,,,,,,,,,,
1677685710.0085237,,,,,1677685710.0072944,0.0,0.0,0.0,0.0588398985564708,-9.708582878112791,0.5295590758323669,,,,,,,,,,,
1677685710.0138147,,,,,1677685710.0122926,-0.0034906584769487,0.0,-0.0017453292384743,0.0588398985564708,-9.708582878112791,0.5295590758323669,,,,,,,,,,,
1677685710.015538,,,,0.0,,,,,,,,,,,,,,,,,,
1677685710.0185652,,,,,1677685710.01729,-0.0034906584769487,0.0,0.0,0.0686465501785278,-9.708582878112791,0.5197524428367615,,,,,,,,,,,
1677685710.019694,1677685710.01876,9.975611686706545,1.0176804065704346,,,,,,,,,,,,,,,,,,,
1677685710.0235074,,,,,1677685710.0222883,-0.0034906584769487,0.0,0.0,0.0686465501785278,-9.708582878112791,0.5197524428367615,,,,,,,,,,,
1677685710.0312903,,,,,1677685710.027286,-0.0017453292384743,0.0034906584769487,-0.0017453292384743,0.0784531980752945,-9.708582878112791,0.5295590758323669,,,,,,,,,,,
1677685710.034958,,,,,1677685710.0322895,-0.0034906584769487,0.0,0.0,0.0784531980752945,-9.708582878112791,0.5295590758323669,,,,,,,,,,,
1677685710.0370622,,,,0.0,,,,,,,,,,,,,,,,,,
1677685710.038523,,,,,1677685710.0372932,-0.0069813169538974,0.0,0.0,0.0784531980752945,-9.718389511108398,0.5197524428367615,,,,,,,,,,,
1677685710.039441,1677685710.03871,9.975611686706545,1.0176804065704346,,,,,,,,,,,,,,,,,,,
1677685710.0438943,,,,,1677685710.0422957,-0.0017453292384743,0.0,0.0,0.0784531980752945,-9.718389511108398,0.5197524428367615,,,,,,,,,,,
1677685710.0514534,,,,,1677685710.0472996,-0.0017453292384743,0.0,0.0017453292384743,0.0784531980752945,-9.708582878112791,0.5295590758323669,,,,,,,,,,,
1677685710.0605578,,,,,1677685710.0523026,-0.0017453292384743,0.0,0.0,0.0784531980752945,-9.708582878112791,0.5295590758323669,,,,,,,,,,,
1677685710.0619273,1677685710.0589938,9.975611686706545,1.0176804065704346,,,,,,,,,,,,,,,,,,,
1677685710.061958,,,,,1677685710.057306,-0.0017453292384743,-0.0017453292384743,0.0,0.0686465501785278,-9.708582878112791,0.5197524428367615,,,,,,,,,,,
1677685710.065264,,,,,1677685710.0623088,-0.0017453292384743,0.0,0.0,0.0686465501785278,-9.708582878112791,0.5197524428367615,,,,,,,,,,,
1677685710.066255,,,,0.0,,,,,,,,,,,,,,,,,,
1677685710.070665,,,,,1677685710.0673125,0.0017453292384743,0.0,0.0017453292384743,0.0588398985564708,-9.708582878112791,0.509945809841156,,,,,,,,,,,
1677685710.0819,1677685710.0792823,9.975611686706545,1.0176804065704346,,,,,,,,,,,,,,,,,,,
1677685710.0836253,,,,,1677685710.0723164,-0.0034906584769487,0.0,-0.0017453292384743,0.0588398985564708,-9.708582878112791,0.5197524428367615,,,,,,,,,,,
1677685710.083686,,,,0.0,,,,,,,,,,,,,,,,,,
1677685710.085838,,,,,1677685710.0773191,-0.0017453292384743,0.0017453292384743,0.0017453292384743,0.0588398985564708,-9.708582878112791,0.5197524428367615,,,,,,,,,,,
1677685710.086556,,,,,1677685710.0823226,0.0,0.0034906584769487,0.0,0.0784531980752945,-9.708582878112791,0.5197524428367615,,,,,,,,,,,
1677685710.0880806,,,,,1677685710.087325,-0.0052359877154231,-0.0017453292384743,-0.0017453292384743,0.0784531980752945,-9.708582878112791,0.5197524428367615,,,,,,,,,,,
1677685710.0930605,,,,,1677685710.0923295,-0.0034906584769487,-0.0017453292384743,0.0,0.0784531980752945,-9.708582878112791,0.5197524428367615,,,,,,,,,,,
1677685710.0983512,,,,,1677685710.097332,0.0,0.0,0.0,0.0784531980752945,-9.708582878112791,0.5295590758323669,,,,,,,,,,,
1677685710.099936,1677685710.0987809,9.975611686706545,1.0176804065704346,,,,,,,,,,,,,,,,,,,
1677685710.101746,,,,0.0,,,,,,,,,,,,,,,,,,
1677685710.1047163,,,,,1677685710.1023357,-0.0052359877154231,0.0,0.0,0.0784531980752945,-9.708582878112791,0.5295590758323669,,,,,,,,,,,
1677685710.1097488,,,,,1677685710.1073396,-0.0017453292384743,0.0,0.0,0.0686465501785278,-9.698776245117188,0.5197524428367615,,,,,,,,,,,
1677685710.1134498,,,,,1677685710.1123424,0.0,0.0,0.0,0.0686465501785278,-9.698776245117188,0.5197524428367615,,,,,,,,,,,
1677685710.118488,,,,,1677685710.1173463,-0.0052359877154231,0.0,0.0,0.0686465501785278,-9.708582878112791,0.5197524428367615,,,,,,,,,,,
1677685710.1202345,1677685710.1187065,9.975611686706545,1.0176804065704346,,,,,,,,,,,,,,,,,,,
1677685710.1220503,,,,0.0,,,,,,,,,,,,,,,,,,
1677685710.1233983,,,,,1677685710.1223488,0.0,0.0017453292384743,0.0,0.0686465501785278,-9.708582878112791,0.5197524428367615,,,,,,,,,,,
1677685710.1286955,,,,,1677685710.1273527,-0.0052359877154231,0.0069813169538974,0.0,0.0490332469344139,-9.708582878112791,0.5197524428367615,,,,,,,,,,,
1677685710.1338215,,,,,1677685710.1323557,-0.0017453292384743,0.0,0.0,0.0490332469344139,-9.708582878112791,0.5197524428367615,,,,,,,,,,,
1677685710.139861,1677685710.1386938,9.975611686706545,1.0176804065704346,,,,,,,,,,,,,,,,,,,
1677685710.1409135,,,,,1677685710.1373594,-0.0034906584769487,0.0,0.0,0.0686465501785278,-9.708582878112791,0.5197524428367615,,,,,,,,,,,
1677685710.150241,,,,0.0,,,,,,,,,,,,,,,,,,
1677685710.1604617,1677685710.1587565,9.975611686706545,1.0176804065704346,,,,,,,,,,,,,,,,,,,
1677685710.1611078,,,,,1677685710.142362,-0.0017453292384743,0.0,0.0,0.0686465501785278,-9.708582878112791,0.5393657088279724,,,,,,,,,,,
1677685710.1619112,,,,,1677685710.1473658,-0.0052359877154231,0.0,-0.0034906584769487,0.0686465501785278,-9.708582878112791,0.5393657088279724,,,,,,,,,,,
1677685710.1622005,,,,,1677685710.1523695,0.0,0.0,0.0,0.0686465501785278,-9.708582878112791,0.5393657088279724,,,,,,,,,,,
1677685710.1629329,,,,,1677685710.1573727,0.0,0.0,0.0,0.0686465501785278,-9.708582878112791,0.5393657088279724,,,,,,,,,,,
1677685710.165166,,,,,1677685710.1623762,-0.0017453292384743,0.0017453292384743,0.0,0.0686465501785278,-9.708582878112791,0.5393657088279724,,,,,,,,,,,
1677685710.1652153,,,,0.0,,,,,,,,,,,,,,,,,,
1677685710.1689792,,,,,1677685710.1673791,-0.0034906584769487,0.0017453292384743,0.0,0.0784531980752945,-9.708582878112791,0.5197524428367615,,,,,,,,,,,
1677685710.1733372,,,,,1677685710.172383,-0.0052359877154231,0.0,0.0,0.0784531980752945,-9.708582878112791,0.5197524428367615,,,,,,,,,,,
1677685710.1782238,,,,,1677685710.1773858,-0.0017453292384743,-0.0034906584769487,0.0,0.0588398985564708,-9.698776245117188,0.509945809841156,,,,,,,,,,,
1677685710.182044,1677685710.178721,9.975611686706545,1.0176804065704346,,,,,,,,,,,,,,,,,,,
1677685710.185449,,,,,1677685710.1823895,-0.0034906584769487,0.0,0.0,0.0784531980752945,-9.708582878112791,0.509945809841156,,,,,,,,,,,
1677685710.1886911,,,,,1677685710.1873925,0.0,0.0,0.0,0.0784531980752945,-9.708582878112791,0.509945809841156,,,,,,,,,,,
1677685710.1907196,,,,0.0,,,,,,,,,,,,,,,,,,
1677685710.1932988,,,,,1677685710.1923964,-0.0052359877154231,0.0,0.0,0.0784531980752945,-9.708582878112791,0.509945809841156,,,,,,,,,,,
1677685710.1983538,,,,,1677685710.1974,-0.0052359877154231,-0.0034906584769487,0.0,0.0784531980752945,-9.708582878112791,0.509945809841156,,,,,,,,,,,
1677685710.1994448,1677685710.1987095,9.975611686706545,1.0176804065704346,,,,,,,,,,,,,,,,,,,
1677685710.2199652,1677685710.2187636,9.975611686706545,1.0176804065704346,,,,,,,,,,,,,,,,,,,
1677685710.2200377,,,,,1677685710.202403,-0.0034906584769487,0.0,0.0,0.0588398985564708,-9.708582878112791,0.5295590758323669,,,,,,,,,,,
1677685710.2204163,,,,,1677685710.207407,0.0,0.0,0.0017453292384743,0.0588398985564708,-9.708582878112791,0.5295590758323669,,,,,,,,,,,
1677685710.2224033,,,,,1677685710.21241,-0.0034906584769487,0.0,0.0,0.0588398985564708,-9.708582878112791,0.5295590758323669,,,,,,,,,,,
1677685710.222726,,,,,1677685710.2174137,-0.0017453292384743,0.0034906584769487,-0.0017453292384743,0.0588398985564708,-9.708582878112791,0.5295590758323669,,,,,,,,,,,
1677685710.224745,,,,,1677685710.2224164,-0.0052359877154231,0.0,0.0,0.0588398985564708,-9.708582878112791,0.5393657088279724,,,,,,,,,,,
1677685710.2287047,,,,,1677685710.2274203,-0.0017453292384743,0.0,0.0,0.0588398985564708,-9.708582878112791,0.5393657088279724,,,,,,,,,,,
1677685710.2340653,,,,,1677685710.2324233,-0.0052359877154231,0.0017453292384743,0.0,0.0588398985564708,-9.708582878112791,0.5393657088279724,,,,,,,,,,,
1677685710.2341156,,,,0.0,,,,,,,,,,,,,,,,,,
1677685710.2404535,1677685710.238689,9.97555923461914,1.0176804065704346,,,,,,,,,,,,,,,,,,,
1677685710.240477,,,,,1677685710.2374272,0.0,-0.0034906584769487,0.0017453292384743,0.0686465501785278,-9.708582878112791,0.5295590758323669,,,,,,,,,,,
1677685710.2458675,,,,,1677685710.2424302,-0.0017453292384743,0.0,0.0,0.0686465501785278,-9.708582878112791,0.5295590758323669,,,,,,,,,,,
1677685710.2459085,,,,0.0,,,,,,,,,,,,,,,,,,
1677685710.2505302,,,,,1677685710.247434,-0.0034906584769487,0.0017453292384743,0.0,0.0784531980752945,-9.698776245117188,0.509945809841156,,,,,,,,,,,
1677685710.2505758,,,,0.0,,,,,,,,,,,,,,,,,,
1677685710.2645023,1677685710.2586925,9.975666046142578,1.0176804065704346,,,,,,,,,,,,,,,,,,,
1677685710.2645738,,,,,1677685710.252438,0.0,0.0,-0.0017453292384743,0.0686465501785278,-9.698776245117188,0.5197524428367615,,,,,,,,,,,
1677685710.2654006,,,,,1677685710.257441,0.0,0.0034906584769487,0.0,0.0686465501785278,-9.698776245117188,0.5197524428367615,,,,,,,,,,,
1677685710.2660608,,,,,1677685710.2624447,-0.0052359877154231,0.0,-0.0017453292384743,0.0686465501785278,-9.708582878112791,0.5295590758323669,,,,,,,,,,,
1677685710.2699556,,,,,1677685710.2674477,0.0,0.0017453292384743,0.0,0.0686465501785278,-9.708582878112791,0.5295590758323669,,,,,,,,,,,
1677685710.279452,1677685710.2786963,9.975507736206056,1.0176804065704346,,,,,,,,,,,,,,,,,,,
1677685710.2795136,,,,,1677685710.2724516,-0.0034906584769487,0.0017453292384743,0.0,0.0686465501785278,-9.708582878112791,0.5295590758323669,,,,,,,,,,,
1677685710.279553,,,,0.0,,,,,,,,,,,,,,,,,,
1677685710.281163,,,,,1677685710.2774546,-0.0034906584769487,0.0017453292384743,0.0,0.0686465501785278,-9.708582878112791,0.5197524428367615,,,,,,,,,,,
1677685710.284808,,,,,1677685710.2824583,0.0017453292384743,0.0,0.0,0.0686465501785278,-9.728196144104004,0.5295590758323669,,,,,,,,,,,
1677685710.2895656,,,,,1677685710.2874625,-0.0017453292384743,0.0,0.0,0.0686465501785278,-9.728196144104004,0.5295590758323669,,,,,,,,,,,
1677685710.294535,,,,,1677685710.2924654,0.0017453292384743,0.0034906584769487,0.0,0.0686465501785278,-9.728196144104004,0.5295590758323669,,,,,,,,,,,
1677685710.294561,,,,0.0,,,,,,,,,,,,,,,,,,
1677685710.2987175,,,,,1677685710.2974694,0.0,0.0034906584769487,0.0,0.0882598459720611,-9.718389511108398,0.5197524428367615,,,,,,,,,,,
1677685710.2999246,1677685710.298718,9.972633361816406,1.0176804065704346,,,,,,,,,,,,,,,,,,,
1677685710.3035417,,,,,1677685710.3024724,-0.0017453292384743,0.0017453292384743,0.0,0.0882598459720611,-9.718389511108398,0.5197524428367615,,,,,,,,,,,
1677685710.3088868,,,,,1677685710.3074763,0.0,0.0,0.0,0.0686465501785278,-9.708582878112791,0.5197524428367615,,,,,,,,,,,
1677685710.313382,,,,0.0,,,,,,,,,,,,,,,,,,
1677685710.3140726,,,,,1677685710.3124793,-0.0017453292384743,-0.0017453292384743,0.0,0.0686465501785278,-9.708582878112791,0.5197524428367615,,,,,,,,,,,
1677685710.319837,1677685710.3187275,9.97543716430664,1.0176804065704346,,,,,,,,,,,,,,,,,,,
1677685710.3201556,,,,,1677685710.3174832,0.0,0.0017453292384743,0.0,0.0686465501785278,-9.708582878112791,0.5197524428367615,,,,,,,,,,,
1677685710.326126,,,,,1677685710.3224862,-0.0017453292384743,0.0,0.0,0.0686465501785278,-9.708582878112791,0.5197524428367615,,,,,,,,,,,
1677685710.3302853,,,,,1677685710.3274903,-0.0052359877154231,0.0,0.0,0.0686465501785278,-9.708582878112791,0.5197524428367615,,,,,,,,,,,
1677685710.3362074,,,,,1677685710.332494,-0.0017453292384743,-0.0017453292384743,0.0017453292384743,0.0686465501785278,-9.708582878112791,0.5197524428367615,,,,,,,,,,,
1677685710.336487,,,,0.0,,,,,,,,,,,,,,,,,,
1677685710.3384588,,,,,1677685710.337497,-0.0017453292384743,0.0017453292384743,-0.0017453292384743,0.0588398985564708,-9.718389511108398,0.5197524428367615,,,,,,,,,,,
1677685710.3400314,1677685710.3388553,9.975845336914062,1.0176804065704346,,,,,,,,,,,,,,,,,,,
1677685710.343945,,,,,1677685710.3425012,-0.0034906584769487,0.0,0.0,0.0588398985564708,-9.718389511108398,0.5197524428367615,,,,,,,,,,,
1677685710.3483768,,,,,1677685710.347504,-0.0017453292384743,0.0,0.0,0.0686465501785278,-9.708582878112791,0.5197524428367615,,,,,,,,,,,
1677685710.353765,,,,,1677685710.3525083,-0.0034906584769487,0.0,0.0,0.0686465501785278,-9.708582878112791,0.5197524428367615,,,,,,,,,,,
1677685710.3565445,,,,0.0,,,,,,,,,,,,,,,,,,
1677685710.3584232,,,,,1677685710.3575113,-0.0017453292384743,-0.0034906584769487,0.0017453292384743,0.0784531980752945,-9.698776245117188,0.509945809841156,,,,,,,,,,,
1677685710.359346,1677685710.3587208,9.977065086364746,1.0176804065704346,,,,,,,,,,,,,,,,,,,
1677685710.365442,,,,,1677685710.3625152,-0.0069813169538974,0.0,0.0,0.0784531980752945,-9.698776245117188,0.509945809841156,,,,,,,,,,,
1677685710.3683913,,,,,1677685710.3675182,-0.0017453292384743,-0.0034906584769487,0.0,0.0686465501785278,-9.698776245117188,0.509945809841156,,,,,,,,,,,
1677685710.3737075,,,,,1677685710.3725224,-0.0034906584769487,0.0052359877154231,0.0,0.0686465501785278,-9.698776245117188,0.509945809841156,,,,,,,,,,,
1677685710.3778417,,,,0.0,,,,,,,,,,,,,,,,,,
1677685710.3784373,,,,,1677685710.3775263,-0.0017453292384743,0.0,0.0,0.0784531980752945,-9.698776245117188,0.509945809841156,,,,,,,,,,,
1677685710.3795123,1677685710.3787358,9.974699020385742,1.0176804065704346,,,,,,,,,,,,,,,,,,,
1677685710.3834832,,,,,1677685710.3825293,0.0,0.0,-0.0052359877154231,0.0784531980752945,-9.698776245117188,0.509945809841156,,,,,,,,,,,
1677685710.388442,,,,,1677685710.3875337,-0.0034906584769487,0.0,0.0,0.0784531980752945,-9.708582878112791,0.5295590758323669,,,,,,,,,,,
1677685710.3952246,,,,,1677685710.3925364,-0.0017453292384743,0.0,0.0,0.0588398985564708,-9.708582878112791,0.5197524428367615,,,,,,,,,,,
1677685710.4005315,,,,,1677685710.3975406,0.0,0.0,0.0,0.0588398985564708,-9.708582878112791,0.5197524428367615,,,,,,,,,,,
1677685710.4007995,1677685710.3987567,9.974760055541992,1.0176804065704346,,,,,,,,,,,,,,,,,,,
1677685710.4021194,,,,0.0,,,,,,,,,,,,,,,,,,
1677685710.4061086,,,,,1677685710.4025435,-0.0034906584769487,-0.0069813169538974,0.0,0.0588398985564708,-9.708582878112791,0.5295590758323669,,,,,,,,,,,
1677685710.4082348,,,,,1677685710.4075477,-0.0017453292384743,0.0,0.0,0.0588398985564708,-9.708582878112791,0.5295590758323669,,,,,,,,,,,
1677685710.413375,,,,,1677685710.4125507,-0.0034906584769487,0.0,0.0,0.0588398985564708,-9.708582878112791,0.5295590758323669,,,,,,,,,,,
1677685710.4197867,1677685710.4187353,9.975399017333984,1.0176804065704346,,,,,,,,,,,,,,,,,,,
1677685710.4198732,,,,,1677685710.4175546,-0.0052359877154231,0.0,0.0,0.0686465501785278,-9.708582878112791,0.509945809841156,,,,,,,,,,,
1677685710.4207108,,,,0.0,,,,,,,,,,,,,,,,,,
1677685710.4236052,,,,,1677685710.4225588,-0.0034906584769487,0.0,0.0,0.0686465501785278,-9.708582878112791,0.509945809841156,,,,,,,,,,,
1677685710.4286478,,,,,1677685710.427562,0.0,-0.0034906584769487,0.0017453292384743,0.0784531980752945,-9.708582878112791,0.5197524428367615,,,,,,,,,,,
1677685710.4340782,,,,,1677685710.4325662,0.0,0.0017453292384743,-0.0017453292384743,0.0784531980752945,-9.708582878112791,0.5197524428367615,,,,,,,,,,,
1677685710.4383185,,,,,1677685710.4375691,-0.0017453292384743,0.0017453292384743,0.0,0.0686465501785278,-9.708582878112791,0.5197524428367615,,,,,,,,,,,
1677685710.439674,1677685710.4387257,9.974811553955078,1.0176804065704346,,,,,,,,,,,,,,,,,,,
1677685710.4411645,,,,0.0,,,,,,,,,,,,,,,,,,
1677685710.4439435,,,,,1677685710.4425733,-0.0017453292384743,0.0,0.0,0.0686465501785278,-9.708582878112791,0.5197524428367615,,,,,,,,,,,
1677685710.4486494,,,,,1677685710.4475763,-0.0017453292384743,0.0,0.0,0.0784531980752945,-9.708582878112791,0.5197524428367615,,,,,,,,,,,
1677685710.4535146,,,,,1677685710.4525807,-0.0017453292384743,0.0,0.0,0.0784531980752945,-9.708582878112791,0.5197524428367615,,,,,,,,,,,
1677685710.458264,,,,,1677685710.4575837,-0.0052359877154231,0.0,0.0,0.0686465501785278,-9.698776245117188,0.509945809841156,,,,,,,,,,,
1677685710.4594312,1677685710.4587293,9.972841262817385,1.0176804065704346,,,,,,,,,,,,,,,,,,,
1677685710.4637098,,,,,1677685710.4625876,-0.0017453292384743,0.0,0.0,0.0686465501785278,-9.698776245117188,0.509945809841156,,,,,,,,,,,
1677685710.4637368,,,,0.0,,,,,,,,,,,,,,,,,,
1677685710.468619,,,,,1677685710.4675918,-0.0017453292384743,0.0,0.0,0.0686465501785278,-9.698776245117188,0.5197524428367615,,,,,,,,,,,
1677685710.4734728,,,,,1677685710.472595,0.0,0.0,0.0,0.0686465501785278,-9.698776245117188,0.5197524428367615,,,,,,,,,,,
1677685710.4785352,,,,,1677685710.4775991,0.0,0.0,0.0,0.0686465501785278,-9.708582878112791,0.5295590758323669,,,,,,,,,,,
1677685710.4795763,1677685710.4787345,9.973617553710938,1.0176804065704346,,,,,,,,,,,,,,,,,,,
1677685710.485798,,,,,1677685710.4826024,0.0,0.0017453292384743,0.0017453292384743,0.0686465501785278,-9.698776245117188,0.5197524428367615,,,,,,,,,,,
1677685710.485834,,,,0.0,,,,,,,,,,,,,,,,,,
1677685710.4890783,,,,,1677685710.4876063,0.0,0.0017453292384743,-0.0017453292384743,0.0686465501785278,-9.698776245117188,0.5197524428367615,,,,,,,,,,,
1677685710.4944973,,,,,1677685710.4926095,0.0,0.0052359877154231,0.0,0.0784531980752945,-9.708582878112791,0.5295590758323669,,,,,,,,,,,
1677685710.500569,,,,,1677685710.497614,-0.0017453292384743,0.0,0.0017453292384743,0.0784531980752945,-9.708582878112791,0.5295590758323669,,,,,,,,,,,
1677685710.5020278,1677685710.4998398,9.974187850952148,1.0176804065704346,,,,,,,,,,,,,,,,,,,
1677685710.5039968,,,,,1677685710.5026166,0.0,0.0,0.0,0.0588398985564708,-9.718389511108398,0.509945809841156,,,,,,,,,,,
1677685710.505551,,,,0.0,,,,,,,,,,,,,,,,,,
1677685710.5083933,,,,,1677685710.507621,0.0,0.0,0.0,0.0588398985564708,-9.718389511108398,0.509945809841156,,,,,,,,,,,
1677685710.5133262,,,,,1677685710.5126252,0.0,0.0052359877154231,0.0,0.0490332469344139,-9.708582878112791,0.5197524428367615,,,,,,,,,,,
1677685710.5206273,1677685710.518752,9.97562313079834,1.0176804065704346,,,,,,,,,,,,,,,,,,,
1677685710.5215487,,,,,1677685710.5176284,0.0,0.0017453292384743,0.0,0.0490332469344139,-9.708582878112791,0.5197524428367615,,,,,,,,,,,
1677685710.5253737,,,,,1677685710.5226324,-0.0034906584769487,0.0,0.0,0.0686465501785278,-9.708582878112791,0.5295590758323669,,,,,,,,,,,
1677685710.527094,,,,0.0,,,,,,,,,,,,,,,,,,
1677685710.528438,,,,,1677685710.5276358,0.0,-0.0034906584769487,-0.0017453292384743,0.0686465501785278,-9.708582878112791,0.5295590758323669,,,,,,,,,,,
1677685710.53452,,,,,1677685710.53264,-0.0017453292384743,0.0,0.0,0.0686465501785278,-9.698776245117188,0.5197524428367615,,,,,,,,,,,
1677685710.5384526,,,,,1677685710.537643,0.0,0.0,0.0,0.0686465501785278,-9.698776245117188,0.5197524428367615,,,,,,,,,,,
1677685710.5399215,1677685710.5387168,9.976801872253418,1.0176804065704346,,,,,,,,,,,,,,,,,,,
1677685710.5435438,,,,,1677685710.5426474,0.0,0.0,-0.0017453292384743,0.0686465501785278,-9.718389511108398,0.5295590758323669,,,,,,,,,,,
1677685710.5487423,,,,,1677685710.5476503,-0.0017453292384743,0.0017453292384743,0.0,0.0686465501785278,-9.718389511108398,0.5295590758323669,,,,,,,,,,,
1677685710.5488212,,,,0.0,,,,,,,,,,,,,,,,,,
1677685710.5530815,,,,,1677685710.5526547,-0.0052359877154231,0.0017453292384743,0.0017453292384743,0.0686465501785278,-9.708582878112791,0.5197524428367615,,,,,,,,,,,
1677685710.559204,,,,,1677685710.557659,0.0,0.0,0.0,0.0686465501785278,-9.708582878112791,0.5197524428367615,,,,,,,,,,,
1677685710.5615084,1677685710.5592775,9.973087310791016,1.0176804065704346,,,,,,,,,,,,,,,,,,,
1677685710.5639,,,,,1677685710.562662,0.0,0.0017453292384743,0.0,0.0686465501785278,-9.698776245117188,0.509945809841156,,,,,,,,,,,
1677685710.5687776,,,,,1677685710.5676663,-0.0017453292384743,0.0034906584769487,0.0,0.0686465501785278,-9.698776245117188,0.509945809841156,,,,,,,,,,,
1677685710.569699,,,,0.0,,,,,,,,,,,,,,,,,,
1677685710.5742147,,,,,1677685710.5726695,0.0017453292384743,0.0,0.0,0.0686465501785278,-9.698776245117188,0.5295590758323669,,,,,,,,,,,
1677685710.5792353,,,,,1677685710.5776737,-0.0017453292384743,0.0017453292384743,0.0,0.0686465501785278,-9.698776245117188,0.5295590758323669,,,,,,,,,,,
1677685710.5813892,1677685710.5787122,9.975995063781738,1.0176804065704346,,,,,,,,,,,,,,,,,,,
1677685710.5836878,,,,,1677685710.582677,-0.0017453292384743,0.0,0.0,0.0784531980752945,-9.688969612121582,0.5295590758323669,,,,,,,,,,,
1677685710.5880015,,,,,1677685710.5876813,-0.0017453292384743,0.0,-0.0017453292384743,0.0784531980752945,-9.688969612121582,0.5295590758323669,,,,,,,,,,,
1677685710.5903676,,,,0.0,,,,,,,,,,,,,,,,,,
1677685710.5935862,,,,,1677685710.5926845,0.0,0.0017453292384743,-0.0017453292384743,0.0784531980752945,-9.688969612121582,0.5295590758323669,,,,,,,,,,,
1677685710.5986016,,,,,1677685710.597689,-0.0034906584769487,0.0,0.0,0.0784531980752945,-9.708582878112791,0.5197524428367615,,,,,,,,,,,
1677685710.5996192,1677685710.5987136,9.975387573242188,1.0176804065704346,,,,,,,,,,,,,,,,,,,
1677685710.60425,,,,,1677685710.602693,0.0,0.0,0.0017453292384743,0.0784531980752945,-9.708582878112791,0.5197524428367615,,,,,,,,,,,
1677685710.6080956,,,,,1677685710.6076963,-0.0017453292384743,-0.0034906584769487,0.0,0.0784531980752945,-9.708582878112791,0.5197524428367615,,,,,,,,,,,
1677685710.6119635,,,,0.0,,,,,,,,,,,,,,,,,,
1677685710.6141708,,,,,1677685710.6127007,0.0,0.0052359877154231,0.0,0.0784531980752945,-9.698776245117188,0.5197524428367615,,,,,,,,,,,
1677685710.618249,,,,,1677685710.617704,0.0,0.0,0.0,0.0784531980752945,-9.698776245117188,0.5197524428367615,,,,,,,,,,,
1677685710.62,1677685710.618749,9.977910041809082,1.0176804065704346,,,,,,,,,,,,,,,,,,,
1677685710.6242027,,,,,1677685710.6227083,0.0,0.0,0.0,0.0686465501785278,-9.708582878112791,0.5295590758323669,,,,,,,,,,,
1677685710.6286645,,,,,1677685710.6277115,0.0,0.0052359877154231,-0.0017453292384743,0.0686465501785278,-9.708582878112791,0.5295590758323669,,,,,,,,,,,
1677685710.6347196,,,,,1677685710.6327157,-0.0017453292384743,0.0,0.0,0.0784531980752945,-9.718389511108398,0.5197524428367615,,,,,,,,,,,
1677685710.6348124,,,,0.0,,,,,,,,,,,,,,,,,,
1677685710.638528,,,,,1677685710.6377192,-0.0052359877154231,0.0017453292384743,0.0,0.0784531980752945,-9.718389511108398,0.5197524428367615,,,,,,,,,,,
1677685710.6391962,1677685710.6386907,9.973644256591797,1.0176804065704346,,,,,,,,,,,,,,,,,,,
1677685710.643314,,,,,1677685710.642723,-0.0034906584769487,-0.0034906584769487,0.0,0.0686465501785278,-9.698776245117188,0.5295590758323669,,,,,,,,,,,
1677685710.6487956,,,,,1677685710.6477275,0.0,0.0017453292384743,0.0,0.0686465501785278,-9.698776245117188,0.5295590758323669,,,,,,,,,,,
1677685710.652997,,,,,1677685710.652731,-0.0017453292384743,0.0,0.0,0.0588398985564708,-9.698776245117188,0.5295590758323669,,,,,,,,,,,
1677685710.655271,,,,0.0,,,,,,,,,,,,,,,,,,
1677685710.6599634,1677685710.6587338,9.976410865783691,1.0176804065704346,,,,,,,,,,,,,,,,,,,
1677685710.6599934,,,,,1677685710.657735,-0.0052359877154231,0.0,0.0,0.0588398985564708,-9.698776245117188,0.5295590758323669,,,,,,,,,,,
1677685710.6643698,,,,,1677685710.6627383,-0.0017453292384743,0.0034906584769487,0.0,0.0686465501785278,-9.708582878112791,0.5197524428367615,,,,,,,,,,,
1677685710.667472,,,,,,,,,,,,1682356750.3254185,2.6689271926879883,-3.346773862838745,0.1375014036893844,0.0050619910471141,0.0009766024304553,0.0382128655910491,-0.9992563724517822,-0.010042012302789621,-0.002338620902691593,-0.07643362097194493
1677685710.6678112,,,,,,,,,,,,1682356750.3331406,2.6689257621765137,-3.3467609882354736,0.1374844759702682,0.0050692986696958,0.0010032820282503,0.0382769145071506,-0.9992538094520568,-0.010054425125971688,-0.0023931432852584843,-0.07656152687168147
1677685710.6680038,,,,,,,,,,,,1682356750.3373327,2.668914318084717,-3.3467507362365723,0.1374624520540237,0.0050949361175298,0.0009554326534271,0.0382372662425041,-0.9992552995681764,-0.010109416481428142,-0.0022990771676569886,-0.07648259149653337
1677685710.6681798,,,,,,,,,,,,1682356750.3491657,2.668910503387451,-3.3467438220977783,0.1374552994966507,0.0050895502790808,0.0010199208045378,0.0382353737950325,-0.9992552995681764,-0.01009372720743744,-0.00242752663707575,-0.07647817356388098
1677685710.6686962,,,,,,,,,,,,1682356750.3537388,2.668910264968872,-3.3467533588409424,0.1374689787626266,0.0050854696892201,0.0009808083996176,0.0382478013634681,-0.9992549419403076,-0.010088532876939163,-0.002349173510552587,-0.07650344861778877
1677685710.66902,,,,,,,,,,,,1682356750.3622806,2.668912887573242,-3.346762418746948,0.1374809890985489,0.0050962083041667,0.0009675892069935,0.0382362976670265,-0.9992552995681764,-0.010111031824159492,-0.002323459651687637,-0.07648052772836102
1677685710.669212,,,,,,,,,,,,1682356750.3733356,2.6689181327819824,-3.3467705249786377,0.1375140398740768,0.005022251047194,0.0009869834175333,0.0382187366485595,-0.9992563724517822,-0.00996178262576706,-0.002356389299929122,-0.07644536520003936
1677685710.6698468,,,,,,,,,,,,1682356750.3785124,2.6689260005950928,-3.346777439117432,0.137527123093605,0.0050317049026489,0.0009578673634678,0.0382225736975669,-0.999256193637848,-0.009982892457581757,-0.002298961239275839,-0.07645330728241681
1677685710.669892,,,,,1677685710.667743,-0.0017453292384743,0.0017453292384743,0.0,0.0686465501785278,-9.708582878112791,0.5197524428367615,,,,,,,,,,,
1677685710.6701405,,,,,,,,,,,,1682356750.386867,2.6689295768737797,-3.346785068511963,0.1375377625226974,0.0049878768622875,0.0010034450097009,0.0382138453423976,-0.999256670475006,-0.009891836954525066,-0.0023866124144595003,-0.07643549291352995
1677685710.6703105,,,,,,,,,,,,1682356750.3952878,2.6689352989196777,-3.3467917442321777,0.1375344842672348,0.0050365887582302,0.0009208254050463,0.0382314883172512,-0.999255895614624,-0.009995464158759777,-0.0022253948350204615,-0.0764715047356632
1677685710.6732252,,,,,1677685710.672746,-0.0017453292384743,0.0052359877154231,0.0,0.0686465501785278,-9.708582878112791,0.5197524428367615,,,,,,,,,,,
1677685710.6765528,,,,0.0,,,,,,,,,,,,,,,,,,
1677685710.6784215,,,,,,,,,,,,1682356750.4038038,2.6689372062683105,-3.346778154373169,0.137530505657196,0.0050548007711768,0.0009534113341942,0.0382487811148166,-0.9992550611495972,-0.01002933134601608,-0.0022920841456207323,-0.07650574953600298
1677685710.6784768,,,,,1677685710.6777506,-0.0052359877154231,0.0,0.0,0.0686465501785278,-9.708582878112791,0.5197524428367615,,,,,,,,,,,
1677685710.6787558,,,,,,,,,,,,1682356750.412183,2.6689257621765137,-3.346764326095581,0.1374942511320114,0.0050031431019306,0.0009785443544387,0.0382304266095161,-0.9992560148239136,-0.009924211371798995,-0.002338179384743052,-0.07646888808008695
1677685710.6789591,,,,,,,,,,,,1682356750.4205463,2.668917179107666,-3.346757411956787,0.1374750733375549,0.0051094363443553,0.0009628269472159,0.0382441021502018,-0.9992549419403076,-0.010137814948594366,-0.002315032849299647,-0.07649616504994596
1677685710.6791606,,,,,,,,,,,,1682356750.4292634,2.668914318084717,-3.346750259399414,0.1374617666006088,0.0050856499001383,0.0010253178188577,0.0382315851747989,-0.9992554783821106,-0.01008552894782643,-0.002437976224915967,-0.07647054832475232
1677685710.68066,1677685710.6787071,9.972493171691896,1.0176804065704346,,,,,,,,,,,,,,,,,,,
1677685710.681961,,,,,,,,,,,,1682356750.4385936,2.668905735015869,-3.346745014190674,0.1374565213918686,0.0051257917657494,0.0009884275496006,0.0382225215435028,-0.9992556571960448,-0.010168596181603734,-0.0023672272246181647,-0.0764526788488313
1677685710.6862426,,,,,,,,,,,,1682356750.4456391,2.66890811920166,-3.3467578887939453,0.1374726891517639,0.0051148938946425,0.0009980422910302,0.0382430367171764,-0.9992549419403076,-0.010146032617701268,-0.0023858177965847536,-0.07649367041942555
1677685710.686263,,,,,1677685710.6827548,-0.0034906584769487,0.0,0.0034906584769487,0.0686465501785278,-9.708582878112791,0.5197524428367615,,,,,,,,,,,
1677685710.6866534,,,,,,,,,,,,1682356750.453493,2.668911457061768,-3.346762418746948,0.1374952346086502,0.0049982448108494,0.0010031419806182,0.0382343828678131,-0.9992558360099792,-0.00991253213480557,-0.0023870028352587095,-0.07647657604786294
1677685710.6891024,,,,,,,,,,,,1682356750.462547,2.6689200401306152,-3.3467776775360107,0.1375228464603424,0.0049905846826732,0.0009827837347984,0.0382270291447639,-0.9992561340332032,-0.009898795796584705,-0.0023456579540898853,-0.07646207101431325
1677685710.6891224,,,,,1677685710.6877584,-0.0034906584769487,-0.0034906584769487,0.0,0.0686465501785278,-9.708582878112791,0.5197524428367615,,,,,,,,,,,
1677685710.6893263,,,,,,,,,,,,1682356750.470197,2.668928384780884,-3.346789121627808,0.1375347524881363,0.0049831918440759,0.0009410984930582,0.038234032690525,-0.9992559552192688,-0.009887190650997746,-0.0022618535156112476,-0.07647651147890264
1677685710.6894648,,,,,,,,,,,,1682356750.4790838,2.668933868408203,-3.346792697906494,0.1375438570976257,0.0049332715570926,0.0009729192825034,0.0382365584373474,-0.9992561340332032,-0.009784984073628206,-0.002321655859935097,-0.0764813775692234
1677685710.689597,,,,,,,,,,,,1682356750.4870968,2.668930530548096,-3.346785068511963,0.1375328004360199,0.0050214258953928,0.0009534011478535,0.038224458694458,-0.999256193637848,-0.009962686280698022,-0.0022892685770599624,-0.07645714854330372
