__time,__datetime,__type,/tf/transforms.0.header.stamp,/tf/transforms.0.header.frame_id,/tf/transforms.0.child_frame_id,/tf/transforms.0.transform.translation.x,/tf/transforms.0.transform.translation.y,/tf/transforms.0.transform.translation.z,/tf/transforms.0.transform.rotation.x,/tf/transforms.0.transform.rotation.y,/tf/transforms.0.transform.rotation.z,/tf/transforms.0.transform.rotation.w
1677685709.4604368,2023-03-01 16:48:29.460437,tf2_msgs/TFMessage,1682356749.5841165,world,hamster2/base_link,2.6689014434814453,-3.3467535972595215,0.13749746978282928,0.005026157945394516,0.0010244123404845595,0.03822561725974083,-0.9992559552192688
1677685709.4609754,2023-03-01 16:48:29.460975,tf2_msgs/TFMessage,1682356749.5844245,world,hamster2/base_link,2.668912172317505,-3.346766948699951,0.137522354722023,0.005043476819992065,0.0009755259961821139,0.03821717947721481,-0.9992562532424927
1677685709.4613512,2023-03-01 16:48:29.461351,tf2_msgs/TFMessage,1682356749.5975237,world,hamster2/base_link,2.6689274311065674,-3.3467812538146973,0.137542724609375,0.00502311484888196,0.0009574060095474124,0.038228120654821396,-0.9992559552192688
1677685709.4617481,2023-03-01 16:48:29.461748,tf2_msgs/TFMessage,1682356749.599398,world,hamster2/base_link,2.6689305305480957,-3.3467907905578613,0.13755689561367035,0.004924779757857323,0.000977892428636551,0.038207802921533585,-0.9992572069168091
1677685709.4621613,2023-03-01 16:48:29.462161,tf2_msgs/TFMessage,1682356749.6043146,world,hamster2/base_link,2.6689438819885254,-3.3467891216278076,0.1375480443239212,0.005029089283198118,0.0009273334289900959,0.03824795037508011,-0.9992551803588867
1677685709.4676905,2023-03-01 16:48:29.467690,tf2_msgs/TFMessage,1682356749.6122334,world,hamster2/base_link,2.668938159942627,-3.3467800617218018,0.1375269740819931,0.00498279370367527,0.0009559832978993654,0.038214292377233505,-0.9992567300796509
1677685709.478858,2023-03-01 16:48:29.478858,tf2_msgs/TFMessage,1682356749.620625,world,hamster2/base_link,2.6689343452453613,-3.3467681407928467,0.13749732077121735,0.0050797476433217525,0.0009791471529752016,0.03821563720703125,-0.9992561936378479
1677685709.4886034,2023-03-01 16:48:29.488603,tf2_msgs/TFMessage,1682356749.6293094,world,hamster2/base_link,2.6689250469207764,-3.346757411956787,0.13747498393058777,0.005044593475759029,0.0009534558630548418,0.03826836496591568,-0.9992543458938599
1677685709.4991057,2023-03-01 16:48:29.499106,tf2_msgs/TFMessage,1682356749.639771,world,hamster2/base_link,2.6689133644104004,-3.3467507362365723,0.13745978474617004,0.005123537965118885,0.00099873635917902,0.03823748230934143,-0.9992551207542419
1677685709.507079,2023-03-01 16:48:29.507079,tf2_msgs/TFMessage,1682356749.648097,world,hamster2/base_link,2.6689069271087646,-3.3467471599578857,0.1374654620885849,0.005099587142467499,0.001029495382681489,0.03823113068938255,-0.9992554783821106
1677685709.5133018,2023-03-01 16:48:29.513302,tf2_msgs/TFMessage,1682356749.654932,world,hamster2/base_link,2.6689023971557617,-3.346745729446411,0.13747963309288025,0.00509876012802124,0.000980087905190885,0.03822162374854088,-0.999255895614624
1677685709.520163,2023-03-01 16:48:29.520163,tf2_msgs/TFMessage,1682356749.6629026,world,hamster2/base_link,2.6689136028289795,-3.346764087677002,0.1375005841255188,0.005076961126178503,0.000950758287217468,0.03823104873299599,-0.9992555975914001
1677685709.5310287,2023-03-01 16:48:29.531029,tf2_msgs/TFMessage,1682356749.6717448,world,hamster2/base_link,2.668924331665039,-3.346768617630005,0.13753259181976318,0.005004074890166521,0.001006268197670579,0.03820895776152611,-0.9992567896842957
1677685709.5382028,2023-03-01 16:48:29.538203,tf2_msgs/TFMessage,1682356749.6789253,world,hamster2/base_link,2.6689319610595703,-3.3467822074890137,0.13754695653915405,0.004982917103916407,0.0009721663082018495,0.038258980959653854,-0.9992550611495972
1677685709.5481286,2023-03-01 16:48:29.548129,tf2_msgs/TFMessage,1682356749.6882033,world,hamster2/base_link,2.6689319610595703,-3.346794843673706,0.13755378127098083,0.004974073730409145,0.0009581905324012041,0.038226574659347534,-0.9992562532424927
1677685709.557481,2023-03-01 16:48:29.557481,tf2_msgs/TFMessage,1682356749.6990998,world,hamster2/base_link,2.6689372062683105,-3.3467822074890137,0.13755778968334198,0.0049645863473415375,0.0009454395622014999,0.03820297494530678,-0.9992573261260986
1677685709.5658967,2023-03-01 16:48:29.565897,tf2_msgs/TFMessage,1682356749.7066147,world,hamster2/base_link,2.6689293384552,-3.3467819690704346,0.1375257521867752,0.005003487225621939,0.0009665911202318966,0.0382070392370224,-0.9992568492889404
1677685709.5718508,2023-03-01 16:48:29.571851,tf2_msgs/TFMessage,1682356749.7126746,world,hamster2/base_link,2.668926954269409,-3.3467636108398438,0.13750141859054565,0.0050263297744095325,0.0009556145523674786,0.03822256997227669,-0.9992561340332031
1677685709.5852377,2023-03-01 16:48:29.585238,tf2_msgs/TFMessage,1682356749.7234058,world,hamster2/base_link,2.6689200401306152,-3.346752166748047,0.13747426867485046,0.005083711352199316,0.0009992059785872698,0.03824291378259659,-0.9992550611495972
1677685709.5890002,2023-03-01 16:48:29.589000,tf2_msgs/TFMessage,1682356749.7297697,world,hamster2/base_link,2.6689062118530273,-3.346745252609253,0.13745348155498505,0.005154195241630077,0.0010464307852089405,0.03824109956622124,-0.9992547035217285
1677685709.5968509,2023-03-01 16:48:29.596851,tf2_msgs/TFMessage,1682356749.737101,world,hamster2/base_link,2.6689047813415527,-3.3467483520507812,0.13746081292629242,0.005040524993091822,0.0009885261533781886,0.038222845643758774,-0.9992561340332031
1677685709.6053073,2023-03-01 16:48:29.605307,tf2_msgs/TFMessage,1682356749.7458549,world,hamster2/base_link,2.668910264968872,-3.3467540740966797,0.13747744262218475,0.005084747914224863,0.0009989620884880424,0.03822397068142891,-0.9992557764053345
1677685709.6121619,2023-03-01 16:48:29.612162,tf2_msgs/TFMessage,1682356749.7539575,world,hamster2/base_link,2.6689178943634033,-3.3467674255371094,0.13750413060188293,0.005048675462603569,0.0009741415269672871,0.03820498660206795,-0.9992567300796509
1677685709.6218808,2023-03-01 16:48:29.621881,tf2_msgs/TFMessage,1682356749.762688,world,hamster2/base_link,2.668926477432251,-3.3467838764190674,0.1375327706336975,0.004983639810234308,0.0009325488936156034,0.03822233900427818,-0.9992564916610718
1677685709.630487,2023-03-01 16:48:29.630487,tf2_msgs/TFMessage,1682356749.770793,world,hamster2/base_link,2.668933391571045,-3.346792221069336,0.1375470757484436,0.005017932038754225,0.0009319609380327165,0.03823250159621239,-0.9992558360099792
1677685709.6386104,2023-03-01 16:48:29.638610,tf2_msgs/TFMessage,1682356749.7793303,world,hamster2/base_link,2.6689367294311523,-3.346789598464966,0.1375499963760376,0.0049883644096553326,0.0009379779803566635,0.03825483098626137,-0.9992551207542419
1677685709.6477752,2023-03-01 16:48:29.647775,tf2_msgs/TFMessage,1682356749.789897,world,hamster2/base_link,2.6689438819885254,-3.3467864990234375,0.1375402957201004,0.0050227646715939045,0.0009216238395310938,0.03822143003344536,-0.9992562532424927
1677685709.6542847,2023-03-01 16:48:29.654285,tf2_msgs/TFMessage,1682356749.7960384,world,hamster2/base_link,2.6689295768737793,-3.346778154373169,0.13750915229320526,0.005062281619757414,0.000977729563601315,0.038240205496549606,-0.9992552995681763
1677685709.663908,2023-03-01 16:48:29.663908,tf2_msgs/TFMessage,1682356749.8052278,world,hamster2/base_link,2.6689233779907227,-3.3467605113983154,0.1374814808368683,0.0050414009019732475,0.0009449528297409415,0.03823929280042648,-0.9992555379867554
1677685709.672132,2023-03-01 16:48:29.672132,tf2_msgs/TFMessage,1682356749.8128896,world,hamster2/base_link,2.6689090728759766,-3.346749782562256,0.13746218383312225,0.005107874982059002,0.0010127638233825564,0.038228295743465424,-0.9992555379867554
1677685709.680345,2023-03-01 16:48:29.680345,tf2_msgs/TFMessage,1682356749.8211582,world,hamster2/base_link,2.6689016819000244,-3.3467469215393066,0.13746073842048645,0.005050846375524998,0.0010340409353375435,0.03824596479535103,-0.9992551207542419
1677685709.6883404,2023-03-01 16:48:29.688340,tf2_msgs/TFMessage,1682356749.8288023,world,hamster2/base_link,2.6689038276672363,-3.3467514514923096,0.13747143745422363,0.005006715655326843,0.0010009842226281762,0.03824897110462189,-0.9992551803588867
1677685709.6966588,2023-03-01 16:48:29.696659,tf2_msgs/TFMessage,1682356749.837185,world,hamster2/base_link,2.6689071655273438,-3.3467605113983154,0.13749860227108002,0.005094636231660843,0.000980460550636053,0.03819921612739563,-0.9992566704750061
1677685709.7090397,2023-03-01 16:48:29.709040,tf2_msgs/TFMessage,1682356749.8497427,world,hamster2/base_link,2.6689133644104004,-3.3467745780944824,0.13751879334449768,0.0050318059511482716,0.0009718408109620214,0.03822188451886177,-0.9992561936378479
1677685709.7164314,2023-03-01 16:48:29.716431,tf2_msgs/TFMessage,1682356749.85627,world,hamster2/base_link,2.668924331665039,-3.346780776977539,0.1375369280576706,0.00495912553742528,0.0009432309889234602,0.03821348398923874,-0.9992569088935852
1677685709.722339,2023-03-01 16:48:29.722339,tf2_msgs/TFMessage,1682356749.8625882,world,hamster2/base_link,2.668936252593994,-3.346785068511963,0.13755576312541962,0.0049299015663564205,0.0009965092176571488,0.03822699934244156,-0.999256432056427
1677685709.7325115,2023-03-01 16:48:29.732512,tf2_msgs/TFMessage,1682356749.8732495,world,hamster2/base_link,2.6689376831054688,-3.346789836883545,0.13753582537174225,0.005025912541896105,0.0009480766602791846,0.038231391459703445,-0.999255895614624
1677685709.739263,2023-03-01 16:48:29.739263,tf2_msgs/TFMessage,1682356749.8799086,world,hamster2/base_link,2.6689345836639404,-3.3467788696289062,0.1375168412923813,0.004998365417122841,0.00096207729075104,0.03823060542345047,-0.9992560148239136
1677685709.7499506,2023-03-01 16:48:29.749951,tf2_msgs/TFMessage,1682356749.8899822,world,hamster2/base_link,2.6689300537109375,-3.3467659950256348,0.1374889761209488,0.005037010181695223,0.0010104376124218106,0.03824117034673691,-0.9992554187774658
1677685710.6674721,2023-03-01 16:48:30.667472,tf2_msgs/TFMessage,1682356750.3254185,world,hamster2/base_link,2.6689271926879883,-3.346773862838745,0.13750140368938446,0.005061991047114134,0.0009766024304553866,0.038212865591049194,-0.9992563724517822
1677685710.6678112,2023-03-01 16:48:30.667811,tf2_msgs/TFMessage,1682356750.3331406,world,hamster2/base_link,2.6689257621765137,-3.3467609882354736,0.13748447597026825,0.005069298669695854,0.0010032820282503963,0.03827691450715065,-0.9992538094520569
1677685710.6680038,2023-03-01 16:48:30.668004,tf2_msgs/TFMessage,1682356750.3373327,world,hamster2/base_link,2.668914318084717,-3.3467507362365723,0.13746245205402374,0.005094936117529869,0.000955432653427124,0.03823726624250412,-0.9992552995681763
1677685710.6681798,2023-03-01 16:48:30.668180,tf2_msgs/TFMessage,1682356750.3491657,world,hamster2/base_link,2.668910503387451,-3.3467438220977783,0.1374552994966507,0.005089550279080868,0.0010199208045378327,0.0382353737950325,-0.9992552995681763
1677685710.6686962,2023-03-01 16:48:30.668696,tf2_msgs/TFMessage,1682356750.3537388,world,hamster2/base_link,2.668910264968872,-3.3467533588409424,0.13746897876262665,0.00508546968922019,0.000980808399617672,0.03824780136346817,-0.9992549419403076
1677685710.66902,2023-03-01 16:48:30.669020,tf2_msgs/TFMessage,1682356750.3622806,world,hamster2/base_link,2.668912887573242,-3.3467624187469482,0.1374809890985489,0.005096208304166794,0.0009675892069935799,0.03823629766702652,-0.9992552995681763
1677685710.6692119,2023-03-01 16:48:30.669212,tf2_msgs/TFMessage,1682356750.3733356,world,hamster2/base_link,2.6689181327819824,-3.3467705249786377,0.13751403987407684,0.005022251047194004,0.000986983417533338,0.03821873664855957,-0.9992563724517822
1677685710.6698468,2023-03-01 16:48:30.669847,tf2_msgs/TFMessage,1682356750.3785124,world,hamster2/base_link,2.6689260005950928,-3.3467774391174316,0.13752712309360504,0.005031704902648926,0.0009578673634678125,0.038222573697566986,-0.9992561936378479
1677685710.6701405,2023-03-01 16:48:30.670141,tf2_msgs/TFMessage,1682356750.386867,world,hamster2/base_link,2.6689295768737793,-3.346785068511963,0.13753776252269745,0.004987876862287521,0.001003445009700954,0.03821384534239769,-0.9992566704750061
1677685710.6703105,2023-03-01 16:48:30.670310,tf2_msgs/TFMessage,1682356750.3952878,world,hamster2/base_link,2.6689352989196777,-3.3467917442321777,0.1375344842672348,0.005036588758230209,0.0009208254050463438,0.038231488317251205,-0.999255895614624
1677685710.6784215,2023-03-01 16:48:30.678421,tf2_msgs/TFMessage,1682356750.4038038,world,hamster2/base_link,2.6689372062683105,-3.346778154373169,0.13753050565719604,0.005054800771176815,0.000953411334194243,0.038248781114816666,-0.9992550611495972
1677685710.6787558,2023-03-01 16:48:30.678756,tf2_msgs/TFMessage,1682356750.412183,world,hamster2/base_link,2.6689257621765137,-3.346764326095581,0.1374942511320114,0.005003143101930618,0.0009785443544387817,0.038230426609516144,-0.9992560148239136
1677685710.6789591,2023-03-01 16:48:30.678959,tf2_msgs/TFMessage,1682356750.4205463,world,hamster2/base_link,2.668917179107666,-3.346757411956787,0.13747507333755493,0.005109436344355345,0.0009628269472159445,0.0382441021502018,-0.9992549419403076
1677685710.6791606,2023-03-01 16:48:30.679161,tf2_msgs/TFMessage,1682356750.4292634,world,hamster2/base_link,2.668914318084717,-3.346750259399414,0.13746176660060883,0.005085649900138378,0.0010253178188577294,0.038231585174798965,-0.9992554783821106
1677685710.681961,2023-03-01 16:48:30.681961,tf2_msgs/TFMessage,1682356750.4385936,world,hamster2/base_link,2.668905735015869,-3.346745014190674,0.1374565213918686,0.0051257917657494545,0.0009884275496006012,0.03822252154350281,-0.9992556571960449
1677685710.6862426,2023-03-01 16:48:30.686243,tf2_msgs/TFMessage,1682356750.4456391,world,hamster2/base_link,2.66890811920166,-3.3467578887939453,0.13747268915176392,0.0051148938946425915,0.0009980422910302877,0.03824303671717644,-0.9992549419403076
1677685710.6866534,2023-03-01 16:48:30.686653,tf2_msgs/TFMessage,1682356750.453493,world,hamster2/base_link,2.6689114570617676,-3.3467624187469482,0.1374952346086502,0.004998244810849428,0.0010031419806182384,0.03823438286781311,-0.9992558360099792
1677685710.6891024,2023-03-01 16:48:30.689102,tf2_msgs/TFMessage,1682356750.462547,world,hamster2/base_link,2.6689200401306152,-3.3467776775360107,0.1375228464603424,0.004990584682673216,0.0009827837347984314,0.03822702914476395,-0.9992561340332031
1677685710.6893265,2023-03-01 16:48:30.689327,tf2_msgs/TFMessage,1682356750.470197,world,hamster2/base_link,2.668928384780884,-3.3467891216278076,0.1375347524881363,0.004983191844075918,0.0009410984930582345,0.038234032690525055,-0.9992559552192688
1677685710.6894648,2023-03-01 16:48:30.689465,tf2_msgs/TFMessage,1682356750.4790838,world,hamster2/base_link,2.668933868408203,-3.346792697906494,0.13754385709762573,0.004933271557092667,0.0009729192825034261,0.03823655843734741,-0.9992561340332031
1677685710.6895967,2023-03-01 16:48:30.689597,tf2_msgs/TFMessage,1682356750.4870968,world,hamster2/base_link,2.6689305305480957,-3.346785068511963,0.1375328004360199,0.005021425895392895,0.0009534011478535831,0.03822445869445801,-0.9992561936378479
1677685710.6898043,2023-03-01 16:48:30.689804,tf2_msgs/TFMessage,1682356750.4961262,world,hamster2/base_link,2.6689295768737793,-3.346775770187378,0.13750386238098145,0.0050416369922459126,0.0009648947161622345,0.038250815123319626,-0.9992550611495972
1677685710.6901817,2023-03-01 16:48:30.690182,tf2_msgs/TFMessage,1682356750.5036287,world,hamster2/base_link,2.6689250469207764,-3.3467636108398438,0.1374758929014206,0.005119220353662968,0.0010151193710044026,0.038236018270254135,-0.9992551803588867
1677685710.6906083,2023-03-01 16:48:30.690608,tf2_msgs/TFMessage,1682356750.5117803,world,hamster2/base_link,2.6689088344573975,-3.346745252609253,0.13745246827602386,0.005156572442501783,0.0009884164901450276,0.03824157267808914,-0.9992548227310181
1677685710.7108731,2023-03-01 16:48:30.710873,tf2_msgs/TFMessage,1682356750.5207214,world,hamster2/base_link,2.6689116954803467,-3.3467490673065186,0.1374492347240448,0.005124136805534363,0.0010270223719999194,0.03821656107902527,-0.9992558360099792
1677685710.7112992,2023-03-01 16:48:30.711299,tf2_msgs/TFMessage,1682356750.529148,world,hamster2/base_link,2.6689107418060303,-3.346749782562256,0.13746395707130432,0.005079611670225859,0.0009796477388590574,0.038272690027952194,-0.9992539286613464
1677685710.7115617,2023-03-01 16:48:30.711562,tf2_msgs/TFMessage,1682356750.53676,world,hamster2/base_link,2.6689095497131348,-3.3467648029327393,0.13748334348201752,0.005083630792796612,0.0009939211886376143,0.038233909755945206,-0.9992554783821106
1677685710.7117932,2023-03-01 16:48:30.711793,tf2_msgs/TFMessage,1682356750.5459094,world,hamster2/base_link,2.6689138412475586,-3.3467700481414795,0.13751082122325897,0.004988253582268953,0.000948854663874954,0.03822983801364899,-0.9992560744285583
1677685710.712003,2023-03-01 16:48:30.712003,tf2_msgs/TFMessage,1682356750.5535245,world,hamster2/base_link,2.6689200401306152,-3.3467812538146973,0.13754265010356903,0.004930788651108742,0.0009496961138211191,0.03823298215866089,-0.9992562532424927
1677685710.712402,2023-03-01 16:48:30.712402,tf2_msgs/TFMessage,1682356750.562043,world,hamster2/base_link,2.6689324378967285,-3.3467965126037598,0.13755515217781067,0.004961839411407709,0.0009388253092765808,0.03823474049568176,-0.9992560148239136
1677685710.7126455,2023-03-01 16:48:30.712646,tf2_msgs/TFMessage,1682356750.5705495,world,hamster2/base_link,2.668938398361206,-3.3467869758605957,0.13755418360233307,0.004937512334436178,0.0009114114218391478,0.038225024938583374,-0.9992565512657166
1677685710.7128594,2023-03-01 16:48:30.712859,tf2_msgs/TFMessage,1682356750.5789473,world,hamster2/base_link,2.6689350605010986,-3.3467774391174316,0.13752079010009766,0.005023416131734848,0.001003208220936358,0.03822898119688034,-0.999255895614624
1677685710.7132874,2023-03-01 16:48:30.713287,tf2_msgs/TFMessage,1682356750.5877066,world,hamster2/base_link,2.66892147064209,-3.346770763397217,0.13748523592948914,0.00505006592720747,0.0010196019429713488,0.03823108226060867,-0.9992556571960449
1677685710.7135837,2023-03-01 16:48:30.713584,tf2_msgs/TFMessage,1682356750.5956042,world,hamster2/base_link,2.6689178943634033,-3.346752882003784,0.13746359944343567,0.005136966705322266,0.00100011529866606,0.03822115808725357,-0.9992556571960449
1677685710.7139444,2023-03-01 16:48:30.713944,tf2_msgs/TFMessage,1682356750.6055038,world,hamster2/base_link,2.6689133644104004,-3.3467464447021484,0.13744495809078217,0.0051659937016665936,0.0009876210242509842,0.03825809434056282,-0.999254047870636
1677685711.3036366,2023-03-01 16:48:31.303637,tf2_msgs/TFMessage,1682356750.6271513,world,hamster2/base_link,2.6689109802246094,-3.346754789352417,0.13746652007102966,0.0050760903395712376,0.0009924608748406172,0.03821147233247757,-0.9992563128471375
1677685711.3038833,2023-03-01 16:48:31.303883,tf2_msgs/TFMessage,1682356750.6306133,world,hamster2/base_link,2.6689136028289795,-3.346768617630005,0.13749369978904724,0.005058641545474529,0.0009622935322113335,0.038200341165065765,-0.9992569088935852
1677685711.312082,2023-03-01 16:48:31.312082,tf2_msgs/TFMessage,1682356750.6371036,world,hamster2/base_link,2.668916702270508,-3.3467743396759033,0.1375228315591812,0.00502815330401063,0.0009700123337097466,0.03822464868426323,-0.9992560744285583
1677685711.3126352,2023-03-01 16:48:31.312635,tf2_msgs/TFMessage,1682356750.6452453,world,hamster2/base_link,2.668926239013672,-3.346785068511963,0.13754628598690033,0.004934943281114101,0.0009701396920718253,0.038221005350351334,-0.9992567300796509
1677685711.3128412,2023-03-01 16:48:31.312841,tf2_msgs/TFMessage,1682356750.6537056,world,hamster2/base_link,2.6689279079437256,-3.346787691116333,0.137547105550766,0.005003340542316437,0.000964704726357013,0.038232382386922836,-0.999255895614624
1677685711.371368,2023-03-01 16:48:31.371368,tf2_msgs/TFMessage,1682356750.6877806,world,hamster2/base_link,2.668912649154663,-3.3467483520507812,0.13744698464870453,0.00508973328396678,0.0010238627437502146,0.03822261095046997,-0.9992557764053345
1677685711.4043427,2023-03-01 16:48:31.404343,tf2_msgs/TFMessage,1682356750.720432,world,hamster2/base_link,2.6689114570617676,-3.3467698097229004,0.13750635087490082,0.00498231640085578,0.0009723064722493291,0.038219060748815536,-0.9992565512657166
1677685711.4047158,2023-03-01 16:48:31.404716,tf2_msgs/TFMessage,1682356750.7287908,world,hamster2/base_link,2.6689224243164062,-3.3467814922332764,0.13754047453403473,0.005007625091820955,0.0010078145423904061,0.0382123626768589,-0.9992566704750061
1677685711.414834,2023-03-01 16:48:31.414834,tf2_msgs/TFMessage,1682356750.736988,world,hamster2/base_link,2.668933153152466,-3.3467884063720703,0.13755127787590027,0.00494747469201684,0.0009996036533266306,0.03822964429855347,-0.9992563128471375
1677685711.415668,2023-03-01 16:48:31.415668,tf2_msgs/TFMessage,1682356750.7456336,world,hamster2/base_link,2.6689369678497314,-3.346792697906494,0.1375402957201004,0.004929117392748594,0.0009951123502105474,0.038257941603660583,-0.9992552399635315
1677685711.4159265,2023-03-01 16:48:31.415926,tf2_msgs/TFMessage,1682356750.7542195,world,hamster2/base_link,2.6689295768737793,-3.3467814922332764,0.1375192403793335,0.005001766607165337,0.0009572803974151611,0.03825623169541359,-0.9992550611495972
1677685711.4631572,2023-03-01 16:48:31.463157,tf2_msgs/TFMessage,1682356750.7784111,world,hamster2/base_link,2.6689114570617676,-3.3467471599578857,0.13744966685771942,0.005074058659374714,0.000999264302663505,0.03823092579841614,-0.9992555379867554
1677685711.4634426,2023-03-01 16:48:31.463443,tf2_msgs/TFMessage,1682356750.7869527,world,hamster2/base_link,2.6689066886901855,-3.346747636795044,0.13744916021823883,0.00502820173278451,0.0010133757023140788,0.03825617954134941,-0.9992548227310181
1677685711.4970164,2023-03-01 16:48:31.497016,tf2_msgs/TFMessage,1682356750.8179471,world,hamster2/base_link,2.668910503387451,-3.3467776775360107,0.13752588629722595,0.004996120929718018,0.0009859768906608224,0.03820747509598732,-0.9992569088935852
1677685711.4973345,2023-03-01 16:48:31.497334,tf2_msgs/TFMessage,1682356750.8258164,world,hamster2/base_link,2.668923854827881,-3.346785068511963,0.1375492513179779,0.0049344683066010475,0.001014940906316042,0.03823016583919525,-0.9992563128471375
1677685711.4975426,2023-03-01 16:48:31.497543,tf2_msgs/TFMessage,1682356750.8358414,world,hamster2/base_link,2.6689326763153076,-3.346794605255127,0.1375475376844406,0.004969213157892227,0.0009546416695229709,0.03823581710457802,-0.9992559552192688
1677685711.4978392,2023-03-01 16:48:31.497839,tf2_msgs/TFMessage,1682356750.8382175,world,hamster2/base_link,2.6689295768737793,-3.346785306930542,0.13752619922161102,0.005018740426748991,0.0009632999426685274,0.03824489936232567,-0.9992554187774658
1677685711.4981406,2023-03-01 16:48:31.498141,tf2_msgs/TFMessage,1682356750.845118,world,hamster2/base_link,2.6689295768737793,-3.346775531768799,0.13749751448631287,0.00507616251707077,0.0009577226592227817,0.0382106713950634,-0.999256432056427
1677685711.498361,2023-03-01 16:48:31.498361,tf2_msgs/TFMessage,1682356750.8539925,world,hamster2/base_link,2.6689257621765137,-3.3467631340026855,0.1374659389257431,0.005066477227956057,0.0009619981283321977,0.03825104609131813,-0.9992548823356628
1677685712.2020214,2023-03-01 16:48:32.202021,tf2_msgs/TFMessage,1682356751.5216215,world,hamster2/base_link,2.793333053588867,-3.329505681991577,0.13879527151584625,0.005580555181950331,0.003523535095155239,-0.04193907231092453,-0.9990983605384827
1677685712.2353833,2023-03-01 16:48:32.235383,tf2_msgs/TFMessage,1682356751.5532777,world,hamster2/base_link,2.820596933364868,-3.323566436767578,0.13857229053974152,0.0020961989648640156,0.005111994221806526,-0.06245208531618118,-0.9980326890945435
1677685712.2944465,2023-03-01 16:48:32.294446,tf2_msgs/TFMessage,1682356751.6113036,world,hamster2/base_link,2.8671255111694336,-3.309011697769165,0.13967680931091309,0.00411858968436718,0.007270139642059803,-0.0936790183186531,-0.9955673813819885
1677685712.2946966,2023-03-01 16:48:32.294697,tf2_msgs/TFMessage,1682356751.6196597,world,hamster2/base_link,2.8743090629577637,-3.3075220584869385,0.13874012231826782,0.00583270750939846,0.005892731249332428,-0.0986468493938446,-0.9950879812240601
1677685712.308168,2023-03-01 16:48:32.308168,tf2_msgs/TFMessage,1682356751.628156,world,hamster2/base_link,2.8808023929595947,-3.305382490158081,0.13929131627082825,0.007443847134709358,0.007102944888174534,-0.10258369147777557,-0.9946712255477905
1677685712.338674,2023-03-01 16:48:32.338674,tf2_msgs/TFMessage,1682356751.6446457,world,hamster2/base_link,2.8941237926483154,-3.3015403747558594,0.13975203037261963,0.007302495185285807,0.005001135170459747,-0.1097974181175232,-0.9939146637916565
1677685712.339358,2023-03-01 16:48:32.339358,tf2_msgs/TFMessage,1682356751.653112,world,hamster2/base_link,2.9006283283233643,-3.2995667457580566,0.14021086692810059,0.006421697326004505,0.00605814391747117,-0.11282385885715485,-0.9935758113861084
1677685712.339811,2023-03-01 16:48:32.339811,tf2_msgs/TFMessage,1682356751.6618567,world,hamster2/base_link,2.907094717025757,-3.2976019382476807,0.14006249606609344,0.005605644080787897,0.006087211426347494,-0.11704506725072861,-0.9930921196937561
1677685712.3401573,2023-03-01 16:48:32.340157,tf2_msgs/TFMessage,1682356751.673856,world,hamster2/base_link,2.9134740829467773,-3.295478343963623,0.1398904025554657,0.0051584611646831036,0.00685930997133255,-0.12062359601259232,-0.9926612973213196
1677685712.3403971,2023-03-01 16:48:32.340397,tf2_msgs/TFMessage,1682356751.6781926,world,hamster2/base_link,2.9198405742645264,-3.2932653427124023,0.13985614478588104,0.0040086121298372746,0.008881825953722,-0.12310417741537094,-0.992345929145813
1677685712.3406076,2023-03-01 16:48:32.340608,tf2_msgs/TFMessage,1682356751.6864545,world,hamster2/base_link,2.9262874126434326,-3.290940761566162,0.13942238688468933,0.0047781020402908325,0.007879049517214298,-0.12667979300022125,-0.9919009208679199
1677685712.3637302,2023-03-01 16:48:32.363730,tf2_msgs/TFMessage,1682356751.6952736,world,hamster2/base_link,2.932640790939331,-3.2884347438812256,0.13973866403102875,0.005366532132029533,0.007667020428925753,-0.12985292077064514,-0.9914891719818115
1677685712.3682306,2023-03-01 16:48:32.368231,tf2_msgs/TFMessage,1682356751.707069,world,hamster2/base_link,2.93904447555542,-3.28590989112854,0.1400616317987442,0.0068047670647501945,0.005330775398761034,-0.13297003507614136,-0.9910824298858643
1677685712.3685508,2023-03-01 16:48:32.368551,tf2_msgs/TFMessage,1682356751.7252822,world,hamster2/base_link,2.9453487396240234,-3.283205509185791,0.1405288577079773,0.008199223317205906,0.003014011774212122,-0.13682883977890015,-0.9905562400817871
1677685712.3702362,2023-03-01 16:48:32.370236,tf2_msgs/TFMessage,1682356751.7256012,world,hamster2/base_link,2.9517221450805664,-3.280860424041748,0.14086879789829254,0.008368113078176975,0.0025154692120850086,-0.13982228934764862,-0.9901381134986877
1677685712.4684548,2023-03-01 16:48:32.468455,tf2_msgs/TFMessage,1682356751.7700405,world,hamster2/base_link,2.988825559616089,-3.2680246829986572,0.1397397667169571,0.003810358699411154,0.0049366033636033535,-0.15517178177833557,-0.9878678917884827
1677685712.5954394,2023-03-01 16:48:32.595439,tf2_msgs/TFMessage,1682356751.9035037,world,hamster2/base_link,3.0840797424316406,-3.2287850379943848,0.14129571616649628,0.010127430781722069,0.005178522318601608,-0.17707280814647675,-0.9841321110725403
1677685712.6052465,2023-03-01 16:48:32.605247,tf2_msgs/TFMessage,1682356751.9199486,world,hamster2/base_link,3.0957369804382324,-3.2240707874298096,0.14115826785564423,0.011465771123766899,0.005148041993379593,-0.18081924319267273,-0.9834360480308533
1677685712.6084244,2023-03-01 16:48:32.608424,tf2_msgs/TFMessage,1682356751.9329114,world,hamster2/base_link,3.101614236831665,-3.2213997840881348,0.14124764502048492,0.00963173434138298,0.0038405952509492636,-0.18213094770908356,-0.9832196235656738
1677685712.6940982,2023-03-01 16:48:32.694098,tf2_msgs/TFMessage,1682356752.0046527,world,hamster2/base_link,3.152386426925659,-3.198347806930542,0.1418043076992035,0.012374307960271835,0.004009299445897341,-0.19472555816173553,-0.9807716012001038
1677685712.6954725,2023-03-01 16:48:32.695472,tf2_msgs/TFMessage,1682356752.0123546,world,hamster2/base_link,3.1580729484558105,-3.1956868171691895,0.14194133877754211,0.008931952528655529,0.002443482168018818,-0.19571365416049957,-0.9806174039840698
1677685712.6962066,2023-03-01 16:48:32.696207,tf2_msgs/TFMessage,1682356752.026341,world,hamster2/base_link,3.1635828018188477,-3.193382740020752,0.1419244408607483,0.008231178857386112,0.0040395488031208515,-0.19699545204639435,-0.9803615808486938
1677685712.698569,2023-03-01 16:48:32.698569,tf2_msgs/TFMessage,1682356752.028055,world,hamster2/base_link,3.1691036224365234,-3.1908910274505615,0.14185892045497894,0.006900507025420666,0.005378334783017635,-0.19891159236431122,-0.9799783825874329
1677685712.7704103,2023-03-01 16:48:32.770410,tf2_msgs/TFMessage,1682356752.0621397,world,hamster2/base_link,3.1914868354797363,-3.179840087890625,0.1417783945798874,0.0072927772998809814,0.006461101584136486,-0.20586462318897247,-0.9785320162773132
1677685712.772788,2023-03-01 16:48:32.772788,tf2_msgs/TFMessage,1682356752.0695026,world,hamster2/base_link,3.197108745574951,-3.1768314838409424,0.14166203141212463,0.008340835571289062,0.0055986731313169,-0.20692622661590576,-0.9783050417900085
1677685712.77319,2023-03-01 16:48:32.773190,tf2_msgs/TFMessage,1682356752.077785,world,hamster2/base_link,3.202605724334717,-3.173797607421875,0.1416471302509308,0.009037887677550316,0.005068162456154823,-0.2078005075454712,-0.9781163334846497
1677685712.8245418,2023-03-01 16:48:32.824542,tf2_msgs/TFMessage,1682356752.1028528,world,hamster2/base_link,3.218545436859131,-3.164064884185791,0.14206045866012573,0.01206089649349451,0.008012781850993633,-0.2135520577430725,-0.9768244028091431
1677685712.8398423,2023-03-01 16:48:32.839842,tf2_msgs/TFMessage,1682356752.1202536,world,hamster2/base_link,3.229304790496826,-3.1575798988342285,0.14224456250667572,0.013321015983819962,0.008821781724691391,-0.21954753994941711,-0.975471019744873
1677685712.8422332,2023-03-01 16:48:32.842233,tf2_msgs/TFMessage,1682356752.128039,world,hamster2/base_link,3.234872341156006,-3.1544582843780518,0.14204785227775574,0.013020877726376057,0.006892876699566841,-0.2227451205253601,-0.9747654795646667
1677685712.8425164,2023-03-01 16:48:32.842516,tf2_msgs/TFMessage,1682356752.135838,world,hamster2/base_link,3.2406163215637207,-3.1511669158935547,0.1418246328830719,0.01208595372736454,0.005163433961570263,-0.22583499550819397,-0.9740769863128662
1677685712.8516934,2023-03-01 16:48:32.851693,tf2_msgs/TFMessage,1682356752.146894,world,hamster2/base_link,3.2463557720184326,-3.1480801105499268,0.14156417548656464,0.01049270574003458,0.0041557797230780125,-0.2294856607913971,-0.973246693611145
1677685712.8943732,2023-03-01 16:48:32.894373,tf2_msgs/TFMessage,1682356752.1780481,world,hamster2/base_link,3.267592191696167,-3.1344666481018066,0.14216728508472443,0.010689420625567436,0.006420491263270378,-0.24158436059951782,-0.9702997803688049
1677685713.0911236,2023-03-01 16:48:33.091124,tf2_msgs/TFMessage,1682356752.3524723,world,hamster2/base_link,3.370338201522827,-3.0502090454101562,0.14240434765815735,0.0045494195073843,0.003458006540313363,-0.3289613723754883,-0.9443261623382568
1677685713.1261842,2023-03-01 16:48:33.126184,tf2_msgs/TFMessage,1682356752.3863022,world,hamster2/base_link,3.3866870403289795,-3.0307114124298096,0.1426907777786255,0.009436246939003468,0.008196379989385605,-0.34398043155670166,-0.938893735408783
1677685713.1689737,2023-03-01 16:48:33.168974,tf2_msgs/TFMessage,1682356752.444262,world,hamster2/base_link,3.4169814586639404,-2.996960401535034,0.14296036958694458,0.00932426005601883,0.004142975900322199,-0.37378910183906555,-0.9274576306343079
1677685713.1798978,2023-03-01 16:48:33.179898,tf2_msgs/TFMessage,1682356752.4525626,world,hamster2/base_link,3.4210636615753174,-2.9919233322143555,0.14260408282279968,0.009643428027629852,0.004593279212713242,-0.3789445757865906,-0.9253578186035156
1677685713.2161021,2023-03-01 16:48:33.216102,tf2_msgs/TFMessage,1682356752.4698339,world,hamster2/base_link,3.4290332794189453,-2.9816784858703613,0.14192301034927368,0.006121892016381025,0.004131896421313286,-0.38742777705192566,-0.9218704700469971
1677685713.218199,2023-03-01 16:48:33.218199,tf2_msgs/TFMessage,1682356752.4862552,world,hamster2/base_link,3.4361350536346436,-2.9712324142456055,0.14239220321178436,0.00711155217140913,0.006067961920052767,-0.395773321390152,-0.9183006882667542
1677685713.220321,2023-03-01 16:48:33.220321,tf2_msgs/TFMessage,1682356752.494207,world,hamster2/base_link,3.439610242843628,-2.965798854827881,0.14303109049797058,0.00742053659632802,0.007073533721268177,-0.39996469020843506,-0.9164732694625854
1677685713.2206004,2023-03-01 16:48:33.220600,tf2_msgs/TFMessage,1682356752.502963,world,hamster2/base_link,3.442988634109497,-2.9605751037597656,0.14333660900592804,0.008773812092840672,0.008308214135468006,-0.40441572666168213,-0.9144955277442932
1677685713.2236667,2023-03-01 16:48:33.223667,tf2_msgs/TFMessage,1682356752.510916,world,hamster2/base_link,3.4465904235839844,-2.955258846282959,0.14353136718273163,0.009339346550405025,0.007073407992720604,-0.4086868464946747,-0.9125994443893433
1677685713.2238648,2023-03-01 16:48:33.223865,tf2_msgs/TFMessage,1682356752.5197647,world,hamster2/base_link,3.4505538940429688,-2.9499361515045166,0.14310984313488007,0.007083988282829523,0.007993100211024284,-0.4148208796977997,-0.9098404049873352
1677685713.2932024,2023-03-01 16:48:33.293202,tf2_msgs/TFMessage,1682356752.5612335,world,hamster2/base_link,3.4686484336853027,-2.9245057106018066,0.14263533055782318,0.0014768264954909682,0.006775131914764643,-0.4335627853870392,-0.901096761226654
1677685713.2934077,2023-03-01 16:48:33.293408,tf2_msgs/TFMessage,1682356752.569683,world,hamster2/base_link,3.471928119659424,-2.919163465499878,0.14266611635684967,0.000945580133702606,0.007647331338375807,-0.43796730041503906,-0.8989579081535339
1677685713.3438725,2023-03-01 16:48:33.343873,tf2_msgs/TFMessage,1682356752.6107032,world,hamster2/base_link,3.487001419067383,-2.890599012374878,0.14357243478298187,0.007314176298677921,0.003138085827231407,-0.45917394757270813,-0.8883108496665955
1677685713.4699821,2023-03-01 16:48:33.469982,tf2_msgs/TFMessage,1682356752.7445555,world,hamster2/base_link,3.5274996757507324,-2.7974605560302734,0.14485089480876923,0.020341552793979645,0.007722361944615841,-0.5210717916488647,-0.8532354831695557
1677685713.667767,2023-03-01 16:48:33.667767,tf2_msgs/TFMessage,1682356752.9691644,world,hamster2/base_link,3.5629682540893555,-2.6302125453948975,0.1440606564283371,0.0011460627429187298,0.004594637546688318,-0.6313729286193848,-0.7754650115966797
1677685713.738203,2023-03-01 16:48:33.738203,tf2_msgs/TFMessage,1682356753.0441387,world,hamster2/base_link,3.5613720417022705,-2.5735292434692383,0.14362339675426483,-0.0019308151677250862,0.0066336835734546185,-0.6678169965744019,-0.7442934513092041
1677685713.7384963,2023-03-01 16:48:33.738496,tf2_msgs/TFMessage,1682356753.052514,world,hamster2/base_link,3.5602023601531982,-2.5646049976348877,0.14709113538265228,-0.0022111227735877037,0.01677929237484932,-0.6775081157684326,-0.7353206276893616
1677685713.7409952,2023-03-01 16:48:33.740995,tf2_msgs/TFMessage,1682356753.0606081,world,hamster2/base_link,3.5609869956970215,-2.5607142448425293,0.1437118649482727,-0.004612545017153025,0.004066132009029388,-0.6768237948417664,-0.7361193895339966
1677685713.823693,2023-03-01 16:48:33.823693,tf2_msgs/TFMessage,1682356753.1357737,world,hamster2/base_link,3.5512640476226807,-2.5012035369873047,0.149282768368721,0.0038203008007258177,0.014510943554341793,-0.7176148891448975,-0.6962785124778748
1677685713.9078708,2023-03-01 16:48:33.907871,tf2_msgs/TFMessage,1682356753.219143,world,hamster2/base_link,3.536714792251587,-2.4389660358428955,0.14959579706192017,0.006112504284828901,0.010710292495787144,-0.7568442225456238,-0.6534789800643921
1677685713.9238052,2023-03-01 16:48:33.923805,tf2_msgs/TFMessage,1682356753.2355614,world,hamster2/base_link,3.53224778175354,-2.4267098903656006,0.149680957198143,0.003972003236413002,0.009765487164258957,-0.7624866962432861,-0.646917998790741
1677685713.928671,2023-03-01 16:48:33.928671,tf2_msgs/TFMessage,1682356753.2447367,world,hamster2/base_link,3.5301992893218994,-2.4206247329711914,0.14929743111133575,-0.0025782184675335884,0.007165120914578438,-0.7666863799095154,-0.6419766545295715
1677685713.9481845,2023-03-01 16:48:33.948184,tf2_msgs/TFMessage,1682356753.2610464,world,hamster2/base_link,3.5262668132781982,-2.4083425998687744,0.14931721985340118,-0.004716652445495129,0.01021787989884615,-0.7760637402534485,-0.6305540204048157
1677685713.971651,2023-03-01 16:48:33.971651,tf2_msgs/TFMessage,1682356753.2771857,world,hamster2/base_link,3.5216805934906006,-2.3966543674468994,0.1498456746339798,0.0013644559076055884,0.009288930334150791,-0.7812595963478088,-0.6241356134414673
1677685713.972079,2023-03-01 16:48:33.972079,tf2_msgs/TFMessage,1682356753.2856534,world,hamster2/base_link,3.5194952487945557,-2.3906092643737793,0.14969217777252197,0.0005402110400609672,0.009400755167007446,-0.7852192521095276,-0.6191461682319641
1677685713.9883916,2023-03-01 16:48:33.988392,tf2_msgs/TFMessage,1682356753.3074436,world,hamster2/base_link,3.514707088470459,-2.378645181655884,0.14982135593891144,0.0012632368598133326,0.008055519312620163,-0.7918757796287537,-0.6106277704238892
1677685714.0489583,2023-03-01 16:48:34.048958,tf2_msgs/TFMessage,1682356753.3604085,world,hamster2/base_link,3.49371075630188,-2.338796615600586,0.14985977113246918,0.003608751343563199,0.011903741396963596,-0.8147050738334656,-0.5797423124313354
1677685714.1194386,2023-03-01 16:48:34.119439,tf2_msgs/TFMessage,1682356753.4421918,world,hamster2/base_link,3.462702989578247,-2.2896366119384766,0.14991828799247742,0.0032611535862088203,0.01359744556248188,-0.8456434607505798,-0.5335650444030762
1677685714.1197805,2023-03-01 16:48:34.119781,tf2_msgs/TFMessage,1682356753.4441009,world,hamster2/base_link,3.4588675498962402,-2.2841968536376953,0.15014907717704773,0.003546222113072872,0.013304412364959717,-0.8486027121543884,-0.5288514494895935
1677685714.1689198,2023-03-01 16:48:34.168920,tf2_msgs/TFMessage,1682356753.4896727,world,hamster2/base_link,3.4400486946105957,-2.2582509517669678,0.15049363672733307,0.0021308576688170433,0.010940021835267544,-0.8633335828781128,-0.5045105218887329
1677685714.3029237,2023-03-01 16:48:34.302924,tf2_msgs/TFMessage,1682356753.6201987,world,hamster2/base_link,3.370159864425659,-2.1855826377868652,0.15098439157009125,-7.361045572906733e-05,0.012676193378865719,-0.9059304594993591,-0.4232369065284729
1677685714.335634,2023-03-01 16:48:34.335634,tf2_msgs/TFMessage,1682356753.647945,world,hamster2/base_link,3.355193614959717,-2.1739535331726074,0.15080682933330536,0.0007096560439094901,0.014469285495579243,-0.9126058220863342,-0.4085840880870819
1677685714.6151757,2023-03-01 16:48:34.615176,tf2_msgs/TFMessage,1682356753.9204373,world,hamster2/base_link,3.1725966930389404,-2.0749051570892334,0.1507052779197693,-0.00018572619592305273,0.009948242455720901,-0.9727312922477722,-0.23172160983085632
1677685714.7746964,2023-03-01 16:48:34.774696,tf2_msgs/TFMessage,1682356754.0850906,world,hamster2/base_link,3.0458641052246094,-2.051145076751709,0.14952513575553894,0.0022637590300291777,0.013104722835123539,-0.9929180145263672,-0.11805553734302521
1677685714.7749634,2023-03-01 16:48:34.774963,tf2_msgs/TFMessage,1682356754.0941846,world,hamster2/base_link,3.039473295211792,-2.0509533882141113,0.14969046413898468,0.002370984060689807,0.014296106062829494,-0.993527352809906,-0.11266513913869858
1677685714.7768342,2023-03-01 16:48:34.776834,tf2_msgs/TFMessage,1682356754.1015263,world,hamster2/base_link,3.033137798309326,-2.0507328510284424,0.1499313861131668,0.0023577602114528418,0.01625172048807144,-0.9940733909606934,-0.10746440291404724
1677685714.777122,2023-03-01 16:48:34.777122,tf2_msgs/TFMessage,1682356754.1107,world,hamster2/base_link,3.026812791824341,-2.0504276752471924,0.15006540715694427,0.001946429256349802,0.01695913076400757,-0.9945359826087952,-0.10298975557088852
1677685714.7772748,2023-03-01 16:48:34.777275,tf2_msgs/TFMessage,1682356754.1190345,world,hamster2/base_link,3.020529270172119,-2.04990816116333,0.15007297694683075,0.0011785540264099836,0.016437958925962448,-0.9949743151664734,-0.09876509755849838
1677685714.7774239,2023-03-01 16:48:34.777424,tf2_msgs/TFMessage,1682356754.127087,world,hamster2/base_link,3.014233112335205,-2.0491459369659424,0.1499660462141037,0.0005224672495387495,0.015658628195524216,-0.9953547120094299,-0.0949927493929863
1677685714.7775774,2023-03-01 16:48:34.777577,tf2_msgs/TFMessage,1682356754.1355844,world,hamster2/base_link,3.007930040359497,-2.048215389251709,0.14977814257144928,0.0006107021472416818,0.014603576622903347,-0.9956499934196472,-0.092019222676754
1677685714.8638196,2023-03-01 16:48:34.863820,tf2_msgs/TFMessage,1682356754.1772008,world,hamster2/base_link,2.9762823581695557,-2.043719530105591,0.14953826367855072,-0.0011216042330488563,0.01316882111132145,-0.9961128830909729,-0.0870894193649292
1677685714.8640263,2023-03-01 16:48:34.864026,tf2_msgs/TFMessage,1682356754.1854463,world,hamster2/base_link,2.9698052406311035,-2.0426852703094482,0.14963188767433167,0.00047603706480003893,0.013413777574896812,-0.9961463212966919,-0.08667411655187607
1677685714.8642213,2023-03-01 16:48:34.864221,tf2_msgs/TFMessage,1682356754.193468,world,hamster2/base_link,2.9634594917297363,-2.0413992404937744,0.14976446330547333,0.0018035026732832193,0.01285101380199194,-0.9961345791816711,-0.08687635511159897
1677685714.8644571,2023-03-01 16:48:34.864457,tf2_msgs/TFMessage,1682356754.2016852,world,hamster2/base_link,2.9572231769561768,-2.039885997772217,0.14972467720508575,0.0024670660495758057,0.012615209445357323,-0.9960355758666992,-0.0880223736166954
1677685714.8646436,2023-03-01 16:48:34.864644,tf2_msgs/TFMessage,1682356754.2105012,world,hamster2/base_link,2.9512524604797363,-2.0381195545196533,0.14953233301639557,0.0020443934481590986,0.012056033127009869,-0.9958444833755493,-0.09024606645107269
1677685714.864814,2023-03-01 16:48:34.864814,tf2_msgs/TFMessage,1682356754.2185433,world,hamster2/base_link,2.9454002380371094,-2.0362133979797363,0.1494002491235733,0.0004477433394640684,0.011413267813622952,-0.9955826997756958,-0.09319177269935608
1677685714.9643126,2023-03-01 16:48:34.964313,tf2_msgs/TFMessage,1682356754.2685804,world,hamster2/base_link,2.9107532501220703,-2.023867130279541,0.1495145559310913,0.0006200458155944943,0.01462559774518013,-0.9918859004974365,-0.12628574669361115
1677685714.964617,2023-03-01 16:48:34.964617,tf2_msgs/TFMessage,1682356754.2766557,world,hamster2/base_link,2.905116081237793,-2.02164888381958,0.14933881163597107,0.00018916220869868994,0.015403760597109795,-0.9911064505577087,-0.1321769505739212
1677685715.004115,2023-03-01 16:48:35.004115,tf2_msgs/TFMessage,1682356754.3251443,world,hamster2/base_link,2.877565383911133,-2.0083417892456055,0.14915680885314941,0.001634956686757505,0.013673260807991028,-0.9872879385948181,-0.1583443284034729
1677685715.4525821,2023-03-01 16:48:35.452582,tf2_msgs/TFMessage,1682356754.760521,world,hamster2/base_link,2.6480162143707275,-1.7893729209899902,0.14843516051769257,0.008794542402029037,0.011205034330487251,-0.9029617309570312,-0.42948484420776367
1677685715.7020195,2023-03-01 16:48:35.702019,tf2_msgs/TFMessage,1682356755.0113103,world,hamster2/base_link,2.5847952365875244,-1.6244301795959473,0.14902009069919586,0.009784208610653877,0.013166517950594425,-0.8202110528945923,-0.5718259811401367
1677685715.7023175,2023-03-01 16:48:35.702317,tf2_msgs/TFMessage,1682356755.0180514,world,hamster2/base_link,2.5831944942474365,-1.618572473526001,0.14952914416790009,0.00956560019403696,0.014626256190240383,-0.8166634440422058,-0.5768495202064514
1677685715.7025607,2023-03-01 16:48:35.702561,tf2_msgs/TFMessage,1682356755.0279446,world,hamster2/base_link,2.5817928314208984,-1.6128987073898315,0.1495824158191681,0.010664733126759529,0.01733010821044445,-0.813158392906189,-0.5816867351531982
1677685715.7027855,2023-03-01 16:48:35.702785,tf2_msgs/TFMessage,1682356755.0353591,world,hamster2/base_link,2.58052134513855,-1.6072742938995361,0.14953681826591492,0.011298205703496933,0.018619317561388016,-0.809666633605957,-0.5864858627319336
1677685715.704277,2023-03-01 16:48:35.704277,tf2_msgs/TFMessage,1682356755.043097,world,hamster2/base_link,2.579333782196045,-1.6012659072875977,0.1497775912284851,0.009827355854213238,0.02012738399207592,-0.8062999248504639,-0.5910826921463013
1677685715.7059226,2023-03-01 16:48:35.705923,tf2_msgs/TFMessage,1682356755.051657,world,hamster2/base_link,2.578360080718994,-1.5952482223510742,0.14935585856437683,0.01193294208496809,0.019033417105674744,-0.8030360341072083,-0.5955069065093994
1677685715.7797296,2023-03-01 16:48:35.779730,tf2_msgs/TFMessage,1682356755.0763116,world,hamster2/base_link,2.576469659805298,-1.5765399932861328,0.14916563034057617,0.011905038729310036,0.014346398413181305,-0.793943464756012,-0.60770583152771
1677685715.7800648,2023-03-01 16:48:35.780065,tf2_msgs/TFMessage,1682356755.0852578,world,hamster2/base_link,2.5761513710021973,-1.5705385208129883,0.14931099116802216,0.010288764722645283,0.01382367592304945,-0.790772020816803,-0.6118682026863098
1677685715.7802794,2023-03-01 16:48:35.780279,tf2_msgs/TFMessage,1682356755.102316,world,hamster2/base_link,2.57584547996521,-1.5646644830703735,0.1496874988079071,0.008831438608467579,0.014642349444329739,-0.7874557375907898,-0.6161340475082397
1677685715.7807531,2023-03-01 16:48:35.780753,tf2_msgs/TFMessage,1682356755.1024957,world,hamster2/base_link,2.5755791664123535,-1.5589278936386108,0.1498207151889801,0.004263345617800951,0.014723358675837517,-0.7835507392883301,-0.6211386919021606
1677685715.781025,2023-03-01 16:48:35.781025,tf2_msgs/TFMessage,1682356755.1094708,world,hamster2/base_link,2.575181722640991,-1.5529557466506958,0.15034320950508118,0.006499996408820152,0.015873389318585396,-0.7797951102256775,-0.625799834728241
1677685715.78151,2023-03-01 16:48:35.781510,tf2_msgs/TFMessage,1682356755.1182628,world,hamster2/base_link,2.5748236179351807,-1.546964406967163,0.15046533942222595,0.006535697728395462,0.015232480131089687,-0.7761770486831665,-0.6302972435951233
1677685715.786388,2023-03-01 16:48:35.786388,tf2_msgs/TFMessage,1682356755.1260614,world,hamster2/base_link,2.5744566917419434,-1.540900707244873,0.1504817008972168,0.006524030119180679,0.013966627418994904,-0.7729982137680054,-0.6342209577560425
1677685715.7874315,2023-03-01 16:48:35.787431,tf2_msgs/TFMessage,1682356755.140839,world,hamster2/base_link,2.5741662979125977,-1.5347439050674438,0.1503954529762268,0.006165041588246822,0.012703332118690014,-0.7704915404319763,-0.6372939348220825
1677685715.7890296,2023-03-01 16:48:35.789030,tf2_msgs/TFMessage,1682356755.1431358,world,hamster2/base_link,2.573838710784912,-1.5286229848861694,0.15028873085975647,0.006310612894594669,0.01242123544216156,-0.7680939435958862,-0.6401856541633606
1677685715.790104,2023-03-01 16:48:35.790104,tf2_msgs/TFMessage,1682356755.1513128,world,hamster2/base_link,2.573477268218994,-1.5225847959518433,0.15015366673469543,0.005851706489920616,0.012333683669567108,-0.7657841444015503,-0.6429528594017029
1677685715.7923691,2023-03-01 16:48:35.792369,tf2_msgs/TFMessage,1682356755.1635625,world,hamster2/base_link,2.5730345249176025,-1.5165495872497559,0.1501006782054901,0.005751670803874731,0.012929938733577728,-0.7635424137115479,-0.6456025838851929
1677685715.7930055,2023-03-01 16:48:35.793005,tf2_msgs/TFMessage,1682356755.1697612,world,hamster2/base_link,2.572448253631592,-1.5102061033248901,0.15089230239391327,0.0018291376763954759,0.00790125411003828,-0.7602850198745728,-0.6495391726493835
1677685715.793343,2023-03-01 16:48:35.793343,tf2_msgs/TFMessage,1682356755.181603,world,hamster2/base_link,2.57210111618042,-1.5044537782669067,0.150475412607193,0.0053802779875695705,0.014097476378083229,-0.7586125135421753,-0.6513674855232239
1677685715.7935615,2023-03-01 16:48:35.793561,tf2_msgs/TFMessage,1682356755.184775,world,hamster2/base_link,2.5715575218200684,-1.4982370138168335,0.15094736218452454,0.005174626130610704,0.01312322448939085,-0.7565350532531738,-0.6538010239601135
1677685715.7938228,2023-03-01 16:48:35.793823,tf2_msgs/TFMessage,1682356755.2033436,world,hamster2/base_link,2.570570468902588,-1.4858506917953491,0.15155504643917084,0.005878000985831022,0.011471985839307308,-0.7537234425544739,-0.6570653915405273
1677685715.794066,2023-03-01 16:48:35.794066,tf2_msgs/TFMessage,1682356755.2106166,world,hamster2/base_link,2.570570468902588,-1.4858506917953491,0.15155504643917084,0.005878000985831022,0.011471985839307308,-0.7537234425544739,-0.6570653915405273
1677685715.944239,2023-03-01 16:48:35.944239,tf2_msgs/TFMessage,1682356755.2601693,world,hamster2/base_link,2.566584825515747,-1.4425585269927979,0.15099172294139862,0.0031551383435726166,0.011814882978796959,-0.7486333847045898,-0.6628714203834534
1677685715.9871712,2023-03-01 16:48:35.987171,tf2_msgs/TFMessage,1682356755.3046136,world,hamster2/base_link,2.562124729156494,-1.4112905263900757,0.1509333699941635,0.00436932360753417,0.012832068838179111,-0.7477850317955017,-0.6638026237487793
1677685716.0118053,2023-03-01 16:48:36.011805,tf2_msgs/TFMessage,1682356755.32723,world,hamster2/base_link,2.5586018562316895,-1.392444372177124,0.15145553648471832,0.0061989095993340015,0.012487219646573067,-0.7508121132850647,-0.660368800163269
1677685716.013451,2023-03-01 16:48:36.013451,tf2_msgs/TFMessage,1682356755.3348207,world,hamster2/base_link,2.5573196411132812,-1.3862745761871338,0.1516408622264862,0.0056770783849060535,0.013248507864773273,-0.7525764107704163,-0.6583471298217773
1677685716.0137303,2023-03-01 16:48:36.013730,tf2_msgs/TFMessage,1682356755.3463178,world,hamster2/base_link,2.5560812950134277,-1.3801389932632446,0.15181677043437958,0.004721694625914097,0.014177041128277779,-0.754582405090332,-0.6560352444648743
1677685716.0144205,2023-03-01 16:48:36.014421,tf2_msgs/TFMessage,1682356755.357412,world,hamster2/base_link,2.554807662963867,-1.3740453720092773,0.15177905559539795,0.0031541900243610144,0.014499330893158913,-0.7563953995704651,-0.6539464592933655
1677685716.0543032,2023-03-01 16:48:36.054303,tf2_msgs/TFMessage,1682356755.3677948,world,hamster2/base_link,2.5521042346954346,-1.3616451025009155,0.15169350802898407,0.001813407870940864,0.012943016365170479,-0.7605074048042297,-0.6491976976394653
1677685716.1278338,2023-03-01 16:48:36.127834,tf2_msgs/TFMessage,1682356755.4264574,world,hamster2/base_link,2.5388035774230957,-1.3198461532592773,0.15186111629009247,5.508984031621367e-05,0.010243128053843975,-0.7822000980377197,-0.6229431629180908
1677685716.1381667,2023-03-01 16:48:36.138167,tf2_msgs/TFMessage,1682356755.451485,world,hamster2/base_link,2.5312907695770264,-1.3024286031723022,0.151907280087471,0.0013851323164999485,0.010759720578789711,-0.791325569152832,-0.6112987399101257
1677685716.13961,2023-03-01 16:48:36.139610,tf2_msgs/TFMessage,1682356755.486104,world,hamster2/base_link,2.528515338897705,-1.296815037727356,0.1522880643606186,0.002052905270829797,0.011948684230446815,-0.7942878007888794,-0.607420802116394
1677685716.1799958,2023-03-01 16:48:36.179996,tf2_msgs/TFMessage,1682356755.493248,world,hamster2/base_link,2.5173306465148926,-1.2741388082504272,0.152577206492424,0.004331529606133699,0.009869934991002083,-0.808775007724762,-0.5880194902420044
1677685716.1817868,2023-03-01 16:48:36.181787,tf2_msgs/TFMessage,1682356755.5016286,world,hamster2/base_link,2.514711856842041,-1.2684681415557861,0.15245321393013,0.0038719347212463617,0.009470886550843716,-0.8122348785400391,-0.5832408666610718
1677685716.1820884,2023-03-01 16:48:36.182088,tf2_msgs/TFMessage,1682356755.5130737,world,hamster2/base_link,2.5121352672576904,-1.2628295421600342,0.1523997187614441,0.0022761982399970293,0.009010868147015572,-0.8152947425842285,-0.5789716243743896
1677685716.1867938,2023-03-01 16:48:36.186794,tf2_msgs/TFMessage,1682356755.5273912,world,hamster2/base_link,2.5095925331115723,-1.2572530508041382,0.15234623849391937,-8.671716932440177e-05,0.008241691626608372,-0.818231463432312,-0.5748298764228821
1677685716.1875207,2023-03-01 16:48:36.187521,tf2_msgs/TFMessage,1682356755.5296845,world,hamster2/base_link,2.5068774223327637,-1.2516809701919556,0.15240681171417236,-0.001947720069438219,0.007317884359508753,-0.8212313652038574,-0.5705451369285583
1677685716.1878443,2023-03-01 16:48:36.187844,tf2_msgs/TFMessage,1682356755.5353494,world,hamster2/base_link,2.504082202911377,-1.2460887432098389,0.15242525935173035,-0.002901699161157012,0.006364139728248119,-0.8241482973098755,-0.5663309097290039
1677685716.1880257,2023-03-01 16:48:36.188026,tf2_msgs/TFMessage,1682356755.5436766,world,hamster2/base_link,2.5009875297546387,-1.240512728691101,0.15245507657527924,-0.002291861455887556,0.005817829631268978,-0.827246367931366,-0.5618046522140503
1677685716.1886494,2023-03-01 16:48:36.188649,tf2_msgs/TFMessage,1682356755.551483,world,hamster2/base_link,2.4976449012756348,-1.2350300550460815,0.1524793952703476,-0.00018925094627775252,0.006430398672819138,-0.8301808834075928,-0.5574571490287781
1677685716.1890857,2023-03-01 16:48:36.189086,tf2_msgs/TFMessage,1682356755.5620973,world,hamster2/base_link,2.494100570678711,-1.2296769618988037,0.15254639089107513,0.0015894998796284199,0.006798609159886837,-0.8328370451927185,-0.5534743070602417
1677685716.1892529,2023-03-01 16:48:36.189253,tf2_msgs/TFMessage,1682356755.5685403,world,hamster2/base_link,2.490412950515747,-1.2245744466781616,0.15259382128715515,0.0032650355715304613,0.008290458470582962,-0.8355672359466553,-0.5493159890174866
1677685716.189393,2023-03-01 16:48:36.189393,tf2_msgs/TFMessage,1682356755.5814288,world,hamster2/base_link,2.4866135120391846,-1.2195452451705933,0.15260961651802063,0.003604673547670245,0.010198579169809818,-0.8383934497833252,-0.5449581742286682
1677685716.2777631,2023-03-01 16:48:36.277763,tf2_msgs/TFMessage,1682356755.592728,world,hamster2/base_link,2.478955030441284,-1.2096680402755737,0.1526455283164978,0.0019098310731351376,0.012827221304178238,-0.8444815278053284,-0.5354276299476624
1677685716.2780874,2023-03-01 16:48:36.278087,tf2_msgs/TFMessage,1682356755.6014104,world,hamster2/base_link,2.4751088619232178,-1.2046605348587036,0.15260450541973114,0.0012874335516244173,0.013731694780290127,-0.8478007316589355,-0.530135452747345
1677685716.278292,2023-03-01 16:48:36.278292,tf2_msgs/TFMessage,1682356755.609235,world,hamster2/base_link,2.4713053703308105,-1.1995325088500977,0.1525610089302063,0.0019727933686226606,0.013848253525793552,-0.8511551022529602,-0.524728000164032
1677685716.2784624,2023-03-01 16:48:36.278462,tf2_msgs/TFMessage,1682356755.6250243,world,hamster2/base_link,2.4674837589263916,-1.19428288936615,0.15256410837173462,0.003238809760659933,0.013174783438444138,-0.8545252084732056,-0.5192326903343201
1677685716.3300786,2023-03-01 16:48:36.330079,tf2_msgs/TFMessage,1682356755.6430354,world,hamster2/base_link,2.4557175636291504,-1.1787835359573364,0.15297995507717133,0.005359305534511805,0.01148654893040657,-0.8638512492179871,-0.5035874843597412
1677685716.3697758,2023-03-01 16:48:36.369776,tf2_msgs/TFMessage,1682356755.6843348,world,hamster2/base_link,2.4353442192077637,-1.1546646356582642,0.15256638824939728,0.00011895685747731477,0.012276194989681244,-0.8780059218406677,-0.47849246859550476
1677685716.3699954,2023-03-01 16:48:36.369995,tf2_msgs/TFMessage,1682356755.6935751,world,hamster2/base_link,2.4310386180877686,-1.1499031782150269,0.15259775519371033,0.000989058637060225,0.01211569830775261,-0.880571722984314,-0.4737570583820343
1677685716.3701513,2023-03-01 16:48:36.370151,tf2_msgs/TFMessage,1682356755.7034278,world,hamster2/base_link,2.426624298095703,-1.1452544927597046,0.15287472307682037,0.0019613669719547033,0.012147505767643452,-0.8829902410507202,-0.46923011541366577
1677685716.3703256,2023-03-01 16:48:36.370326,tf2_msgs/TFMessage,1682356755.7168577,world,hamster2/base_link,2.4221482276916504,-1.1407054662704468,0.1532263308763504,0.0034843699540942907,0.012867037206888199,-0.885514497756958,-0.4644206166267395
1677685716.393233,2023-03-01 16:48:36.393233,tf2_msgs/TFMessage,1682356755.7185903,world,hamster2/base_link,2.417698383331299,-1.1362299919128418,0.15355198085308075,0.0040945797227323055,0.012324630282819271,-0.8881255388259888,-0.45941752195358276
1677685716.394321,2023-03-01 16:48:36.394321,tf2_msgs/TFMessage,1682356755.7259321,world,hamster2/base_link,2.4132492542266846,-1.1317487955093384,0.15363635122776031,0.003486406756564975,0.012455856427550316,-0.8907676935195923,-0.45427483320236206
1677685716.4615018,2023-03-01 16:48:36.461502,tf2_msgs/TFMessage,1682356755.7762632,world,hamster2/base_link,2.38607120513916,-1.1051347255706787,0.15245421230793,-0.0009309614542871714,0.010227205231785774,-0.9057891964912415,-0.42360416054725647
1677685716.461806,2023-03-01 16:48:36.461806,tf2_msgs/TFMessage,1682356755.7839758,world,hamster2/base_link,2.381185531616211,-1.1007822751998901,0.15253755450248718,5.144405804458074e-05,0.009243556298315525,-0.9083571434020996,-0.41809338331222534
1677685716.4620025,2023-03-01 16:48:36.462003,tf2_msgs/TFMessage,1682356755.792989,world,hamster2/base_link,2.376188278198242,-1.0965832471847534,0.1527147740125656,0.001506964908912778,0.008127803914248943,-0.9107761383056641,-0.41281792521476746
1677685716.462177,2023-03-01 16:48:36.462177,tf2_msgs/TFMessage,1682356755.801311,world,hamster2/base_link,2.371091842651367,-1.0924614667892456,0.1530499905347824,0.0035263169556856155,0.008317515254020691,-0.9131830334663391,-0.4074494540691376
1677685716.4623299,2023-03-01 16:48:36.462330,tf2_msgs/TFMessage,1682356755.80992,world,hamster2/base_link,2.365922212600708,-1.0885621309280396,0.1534239500761032,0.003986781463027,0.00886412151157856,-0.9154675006866455,-0.4022746980190277
1677685716.463745,2023-03-01 16:48:36.463745,tf2_msgs/TFMessage,1682356755.830325,world,hamster2/base_link,2.360858917236328,-1.0848063230514526,0.15377205610275269,0.004373989067971706,0.010007459670305252,-0.9176549315452576,-0.39722830057144165
1677685716.464056,2023-03-01 16:48:36.464056,tf2_msgs/TFMessage,1682356755.830569,world,hamster2/base_link,2.3557515144348145,-1.0811787843704224,0.15398432314395905,0.002926925430074334,0.010672647505998611,-0.9199116826057434,-0.3919694125652313
1677685716.569071,2023-03-01 16:48:36.569071,tf2_msgs/TFMessage,1682356755.8716848,world,hamster2/base_link,2.3298840522766113,-1.0627686977386475,0.15323345363140106,0.0017597191035747528,0.010448825545608997,-0.930884063243866,-0.3651610314846039
1677685716.580273,2023-03-01 16:48:36.580273,tf2_msgs/TFMessage,1682356755.8923361,world,hamster2/base_link,2.313472270965576,-1.0526429414749146,0.15374192595481873,0.0027860961854457855,0.012811517342925072,-0.9366017580032349,-0.3501504063606262
1677685716.6259086,2023-03-01 16:48:36.625909,tf2_msgs/TFMessage,1682356755.9263349,world,hamster2/base_link,2.2909939289093018,-1.0400021076202393,0.15275701880455017,0.0008472817717120051,0.013800002634525299,-0.9440459609031677,-0.3295239806175232
