__time,/hamster2/imu/header.stamp,/hamster2/command/drive.steering_angle,/hamster2/command/drive.speed,/hamster2/imu/angular_velocity.x,/hamster2/imu/angular_velocity.y,/hamster2/imu/angular_velocity.z,/hamster2/imu/linear_acceleration.x,/hamster2/imu/linear_acceleration.y,/hamster2/imu/linear_acceleration.z
1677685709.4603508,1677685709.3597972,9.972792625,1.017680407,,,,,,
1677685709.460896,1677685709.378926,9.972881317,1.017680407,,,,,,
1677685709.4612772,1677685709.398925,9.975045204,1.017680407,,,,,,
1677685709.461652,1677685709.4199455,9.974722862,1.017680407,,,,,,
1677685709.4604588,1677685709.4325433,,,-0.006981317,0.001745329,0,0.058839899,-9.698776245,0.519752443
1677685709.460994,1677685709.4375405,,,0,0,0.001745329,0.058839899,-9.698776245,0.519752443
1677685709.4621024,1677685709.4391587,9.974722862,1.017680407,,,,,,
1677685709.4613712,1677685709.442539,,,-0.001745329,0,0,0.058839899,-9.698776245,0.519752443
1677685709.461769,1677685709.4475365,,,-0.003490658,0.001745329,0,0.058839899,-9.708582878,0.519752443
1677685709.4621828,1677685709.4525347,,,-0.003490658,0.003490658,-0.001745329,0.058839899,-9.708582878,0.519752443
1677685709.4657438,1677685709.457532,,,-0.001745329,0.001745329,0,0.06864655,-9.718389511,0.519752443
1677685709.4647133,1677685709.4617815,9.973121643,1.017680407,,,,,,
1677685709.4699326,1677685709.4625304,,,-0.001745329,0,0,0.06864655,-9.718389511,0.519752443
1677685709.4733346,1677685709.4675276,,,0,0,0,0.06864655,-9.718389511,0.519752443
1677685709.4746218,1677685709.4725258,,,0,0.003490658,0,0.06864655,-9.718389511,0.519752443
1677685709.480367,1677685709.477523,,,-0.003490658,0.005235988,-0.001745329,0.06864655,-9.708582878,0.529559076
1677685709.4801035,1677685709.4793382,9.973312378,1.017680407,,,,,,
1677685709.4837315,1677685709.4825215,,,0,0.003490658,0,0.06864655,-9.708582878,0.529559076
1677685709.4892821,1677685709.4875197,,,0,0,0,0.06864655,-9.698776245,0.519752443
1677685709.493597,1677685709.4925172,,,-0.001745329,0.001745329,0,0.06864655,-9.698776245,0.519752443
1677685709.4993684,1677685709.4975152,,,-0.003490658,0,0,0.078453198,-9.698776245,0.519752443
1677685709.4990814,1677685709.4987097,9.978130341,1.017680407,,,,,,
1677685709.5048027,1677685709.5025127,,,-0.001745329,0,0,0.078453198,-9.698776245,0.519752443
1677685709.5086935,1677685709.5075111,,,-0.001745329,0.001745329,0,0.078453198,-9.718389511,0.50994581
1677685709.5144,1677685709.512509,,,-0.005235988,0.001745329,0,0.078453198,-9.718389511,0.50994581
1677685709.518748,1677685709.5175066,,,0,0.003490658,-0.001745329,0.058839899,-9.718389511,0.519752443
1677685709.5201342,1677685709.5187275,9.972576141,1.017680407,,,,,,
1677685709.5239217,1677685709.5225039,,,-0.001745329,0.005235988,0,0.058839899,-9.718389511,0.519752443
1677685709.528764,1677685709.527502,,,0,0,-0.001745329,0.06864655,-9.718389511,0.519752443
1677685709.5339384,1677685709.5325005,,,-0.001745329,-0.001745329,0.001745329,0.06864655,-9.718389511,0.519752443
1677685709.5400834,1677685709.5374978,,,-0.006981317,-0.005235988,0,0.078453198,-9.708582878,0.529559076
1677685709.540044,1677685709.5387511,9.978262901,1.017680407,,,,,,
1677685709.544528,1677685709.542496,,,-0.003490658,0,-0.001745329,0.078453198,-9.708582878,0.529559076
1677685709.5488517,1677685709.5474944,,,-0.001745329,0,0.001745329,0.078453198,-9.698776245,0.519752443
1677685709.5542953,1677685709.5524917,,,0,0,0,0.078453198,-9.698776245,0.519752443
1677685709.558944,1677685709.557489,,,0,0,0,0.058839899,-9.708582878,0.529559076
1677685709.5592034,1677685709.558755,9.972192764,1.017680407,,,,,,
1677685709.5635564,1677685709.5624874,,,0,-0.001745329,0,0.058839899,-9.708582878,0.529559076
1677685709.5695815,1677685709.5674846,,,-0.003490658,-0.001745329,-0.001745329,0.06864655,-9.708582878,0.519752443
1677685709.5738597,1677685709.5724828,,,0,0,0.001745329,0.06864655,-9.708582878,0.519752443
1677685709.5783987,1677685709.5774813,,,-0.001745329,0.001745329,0,0.058839899,-9.708582878,0.50994581
1677685709.5794902,1677685709.5788136,9.973465919,1.017680407,,,,,,
1677685709.583565,1677685709.5824785,,,0,0.001745329,0,0.058839899,-9.708582878,0.50994581
1677685709.588683,1677685709.5874767,,,-0.003490658,0,0,0.06864655,-9.718389511,0.50994581
1677685709.5934668,1677685709.5924742,,,-0.001745329,0,0,0.06864655,-9.718389511,0.50994581
1677685709.599408,1677685709.5974724,,,-0.003490658,0,0,0.06864655,-9.708582878,0.529559076
1677685709.5997791,1677685709.598709,9.97282505,1.017680407,,,,,,
1677685709.6040304,1677685709.6024706,,,0,0.001745329,0,0.06864655,-9.708582878,0.529559076
1677685709.610744,1677685709.6074681,,,-0.003490658,0.001745329,0,0.049033247,-9.708582878,0.519752443
1677685709.613755,1677685709.6124663,,,0,0.001745329,0,0.049033247,-9.708582878,0.519752443
1677685709.6188164,1677685709.6174636,,,-0.003490658,0,0,0.06864655,-9.728196144,0.50994581
1677685709.6195438,1677685709.618706,9.971746445,1.017680407,,,,,,
1677685709.623299,1677685709.622462,,,-0.001745329,0.003490658,0,0.06864655,-9.728196144,0.50994581
1677685709.628356,1677685709.6274593,,,0,0,0,0.06864655,-9.708582878,0.50994581
1677685709.6333263,1677685709.6324575,,,0,0.001745329,0.001745329,0.06864655,-9.708582878,0.50994581
1677685709.6386425,1677685709.6374547,,,0,0,0,0.078453198,-9.718389511,0.529559076
1677685709.6397138,1677685709.638737,9.97811985,1.017680407,,,,,,
1677685709.644154,1677685709.6424532,,,0,0,0,0.078453198,-9.718389511,0.529559076
1677685709.6487906,1677685709.6474514,,,0.001745329,0,0,0.078453198,-9.708582878,0.529559076
1677685709.6535492,1677685709.6524487,,,0,0.001745329,0,0.078453198,-9.708582878,0.529559076
1677685709.6586285,1677685709.6574469,,,-0.001745329,0.008726646,0,0.058839899,-9.698776245,0.519752443
1677685709.6593447,1677685709.6588178,9.976032257,1.017680407,,,,,,
1677685709.6635957,1677685709.662444,,,0,0.003490658,0,0.058839899,-9.698776245,0.519752443
1677685709.6685486,1677685709.6674423,,,-0.001745329,-0.005235988,0.001745329,0.058839899,-9.698776245,0.50994581
1677685709.6737323,1677685709.6724398,,,0,0,0,0.058839899,-9.698776245,0.50994581
1677685709.6788735,1677685709.677438,,,-0.001745329,0,0,0.078453198,-9.718389511,0.519752443
1677685709.6796486,1677685709.678847,9.975292206,1.017680407,,,,,,
1677685709.6833122,1677685709.6824353,,,-0.001745329,0.001745329,0.001745329,0.078453198,-9.718389511,0.519752443
1677685709.6883953,1677685709.6874335,,,-0.001745329,-0.001745329,0,0.06864655,-9.708582878,0.50994581
1677685709.6935704,1677685709.6924307,,,-0.001745329,-0.003490658,0,0.06864655,-9.708582878,0.50994581
1677685709.6983643,1677685709.6974292,,,0,-0.001745329,-0.001745329,0.06864655,-9.698776245,0.50994581
1677685709.699571,1677685709.6987321,9.970816612,1.017680407,,,,,,
1677685709.7034082,1677685709.7024274,,,-0.003490658,0.005235988,0,0.06864655,-9.698776245,0.50994581
1677685709.7090707,1677685709.7074249,,,-0.003490658,0.001745329,0,0.06864655,-9.698776245,0.519752443
1677685709.7137296,1677685709.712423,,,0,0,0,0.06864655,-9.698776245,0.519752443
1677685709.718528,1677685709.7174203,,,-0.001745329,0.001745329,0,0.058839899,-9.708582878,0.50994581
1677685709.721982,1677685709.7187498,9.973258018,1.017680407,,,,,,
1677685709.7236147,1677685709.7224188,,,-0.003490658,0.001745329,0,0.058839899,-9.708582878,0.50994581
1677685709.7287905,1677685709.727416,,,-0.003490658,0,0,0.078453198,-9.708582878,0.519752443
1677685709.733484,1677685709.7324142,,,-0.001745329,0,0,0.078453198,-9.708582878,0.519752443
1677685709.738703,1677685709.7374115,,,0,0,0.001745329,0.058839899,-9.708582878,0.519752443
1677685709.7399633,1677685709.738709,9.97502327,1.017680407,,,,,,
1677685709.7433026,1677685709.74241,,,0,0.003490658,0,0.058839899,-9.708582878,0.519752443
1677685709.7484026,1677685709.7474072,,,0,0.001745329,-0.001745329,0.058839899,-9.708582878,0.50994581
1677685709.7533514,1677685709.7524054,,,-0.003490658,0,0,0.058839899,-9.708582878,0.50994581
1677685709.7588646,1677685709.7574039,,,-0.001745329,-0.001745329,0,0.06864655,-9.698776245,0.519752443
1677685709.759329,1677685709.7587285,9.975611687,1.017680407,,,,,,
1677685709.7634149,1677685709.7624009,,,-0.005235988,-0.001745329,0,0.06864655,-9.698776245,0.519752443
1677685709.7685866,1677685709.767399,,,-0.005235988,0.003490658,0,0.06864655,-9.708582878,0.529559076
1677685709.7736187,1677685709.7723975,,,0,0,0,0.06864655,-9.708582878,0.529559076
1677685709.7787955,1677685709.7773948,,,-0.005235988,0,0,0.078453198,-9.708582878,0.519752443
1677685709.7794158,1677685709.7788134,9.975611687,1.017680407,,,,,,
1677685709.7834487,1677685709.782393,,,-0.001745329,0,0,0.078453198,-9.708582878,0.519752443
1677685709.7885547,1677685709.7873905,,,-0.001745329,-0.003490658,0.003490658,0.06864655,-9.718389511,0.519752443
1677685709.7936268,1677685709.7923887,,,-0.003490658,0,0,0.06864655,-9.718389511,0.519752443
1677685709.7988153,1677685709.797386,,,0,0,0,0.078453198,-9.708582878,0.50994581
1677685709.7999055,1677685709.7987607,9.975611687,1.017680407,,,,,,
1677685709.8035445,1677685709.8023844,,,0,0.003490658,0,0.078453198,-9.708582878,0.50994581
1677685709.808532,1677685709.8073814,,,0,0.005235988,0,0.078453198,-9.698776245,0.519752443
1677685709.813302,1677685709.8123798,,,0,0,0,0.078453198,-9.698776245,0.519752443
1677685709.8187628,1677685709.8173773,,,0,0.003490658,0,0.06864655,-9.708582878,0.519752443
1677685709.8194516,1677685709.8187718,9.975611687,1.017680407,,,,,,
1677685709.823824,1677685709.8223755,,,-0.005235988,0,0,0.06864655,-9.708582878,0.519752443
1677685709.8290095,1677685709.8273735,,,0,0.001745329,-0.001745329,0.06864655,-9.708582878,0.519752443
1677685709.8334703,1677685709.832371,,,-0.001745329,0,0,0.06864655,-9.708582878,0.519752443
1677685709.8386998,1677685709.8373692,,,-0.001745329,0,0,0.058839899,-9.708582878,0.519752443
1677685709.8393316,1677685709.8387868,9.975611687,1.017680407,,,,,,
1677685709.8439953,1677685709.8423665,,,0,-0.001745329,0,0.058839899,-9.708582878,0.519752443
1677685709.8489,1677685709.847365,,,0,0.001745329,0,0.06864655,-9.708582878,0.519752443
1677685709.853647,1677685709.852362,,,-0.001745329,0,0,0.06864655,-9.708582878,0.519752443
1677685709.8584712,1677685709.8573604,,,-0.003490658,0.001745329,0.003490658,0.06864655,-9.708582878,0.529559076
1677685709.8593743,1677685709.8587034,9.975611687,1.017680407,,,,,,
1677685709.8634965,1677685709.8623579,,,0,0.005235988,-0.001745329,0.06864655,-9.708582878,0.529559076
1677685709.8683841,1677685709.8673558,,,-0.001745329,0.001745329,0,0.06864655,-9.708582878,0.519752443
1677685709.8732889,1677685709.8723533,,,0,0.005235988,-0.001745329,0.06864655,-9.708582878,0.519752443
1677685709.8786578,1677685709.8773515,,,0,0.003490658,0,0.058839899,-9.698776245,0.519752443
1677685709.8795414,1677685709.8787344,9.975611687,1.017680407,,,,,,
1677685709.8839326,1677685709.8823485,,,-0.001745329,0,0,0.058839899,-9.698776245,0.519752443
1677685709.8886695,1677685709.887347,,,0,0,0,0.078453198,-9.688969612,0.539365709
1677685709.8938203,1677685709.8923452,,,0,0,0,0.078453198,-9.688969612,0.539365709
1677685709.8984332,1677685709.8973424,,,-0.001745329,0.003490658,0,0.078453198,-9.708582878,0.519752443
1677685709.8997633,1677685709.8987439,9.975611687,1.017680407,,,,,,
1677685709.9034016,1677685709.902341,,,-0.001745329,0.001745329,0,0.078453198,-9.708582878,0.519752443
1677685709.9086769,1677685709.9073381,,,-0.001745329,0,0.001745329,0.078453198,-9.708582878,0.519752443
1677685709.9135582,1677685709.9123363,,,0,-0.005235988,0,0.078453198,-9.708582878,0.519752443
1677685709.9186926,1677685709.9173338,,,-0.003490658,0.001745329,0,0.078453198,-9.698776245,0.529559076
1677685709.919625,1677685709.9187436,9.975611687,1.017680407,,,,,,
1677685709.9237473,1677685709.9223318,,,-0.003490658,0.003490658,0,0.078453198,-9.698776245,0.529559076
1677685709.928513,1677685709.927329,,,-0.001745329,0.003490658,0,0.06864655,-9.708582878,0.519752443
1677685709.9336143,1677685709.9323275,,,0.001745329,0,0,0.06864655,-9.708582878,0.519752443
1677685709.9387226,1677685709.9373255,,,-0.001745329,0.001745329,0.001745329,0.078453198,-9.708582878,0.50994581
1677685709.9400601,1677685709.9387293,9.975611687,1.017680407,,,,,,
1677685709.9436114,1677685709.942323,,,0,0,0,0.078453198,-9.708582878,0.50994581
1677685709.9485157,1677685709.9473214,,,-0.001745329,0,0,0.078453198,-9.708582878,0.50994581
1677685709.9538035,1677685709.9523187,,,0,0.005235988,0,0.078453198,-9.708582878,0.50994581
1677685709.9583933,1677685709.9573169,,,-0.003490658,0,0,0.058839899,-9.708582878,0.529559076
1677685709.9594202,1677685709.9587407,9.975611687,1.017680407,,,,,,
1677685709.963733,1677685709.9623153,,,-0.001745329,0,0.001745329,0.058839899,-9.708582878,0.529559076
1677685709.9685147,1677685709.967312,,,-0.001745329,-0.001745329,-0.001745329,0.06864655,-9.698776245,0.519752443
1677685709.9737213,1677685709.9723105,,,-0.003490658,0,0.001745329,0.06864655,-9.698776245,0.519752443
1677685709.9785395,1677685709.9773078,,,-0.001745329,0.001745329,0,0.06864655,-9.718389511,0.529559076
1677685709.979417,1677685709.9787333,9.975611687,1.017680407,,,,,,
1677685709.9836347,1677685709.982306,,,-0.003490658,0.001745329,0,0.06864655,-9.718389511,0.529559076
1677685709.9885304,1677685709.9873035,,,0,0,0,0.06864655,-9.708582878,0.50994581
1677685709.9940772,1677685709.992302,,,-0.001745329,0,0,0.06864655,-9.708582878,0.50994581
1677685709.9984848,1677685709.9972992,,,0,0,0,0.078453198,-9.708582878,0.519752443
1677685709.999377,1677685709.9987106,9.975611687,1.017680407,,,,,,
1677685710.0032651,1677685710.0022972,,,-0.001745329,0.001745329,-0.001745329,0.078453198,-9.708582878,0.519752443
1677685710.0085235,1677685710.0072944,,,0,0,0,0.058839899,-9.708582878,0.529559076
1677685710.0138147,1677685710.0122926,,,-0.003490658,0,-0.001745329,0.058839899,-9.708582878,0.529559076
1677685710.0185652,1677685710.0172899,,,-0.003490658,0,0,0.06864655,-9.708582878,0.519752443
1677685710.019694,1677685710.01876,9.975611687,1.017680407,,,,,,
1677685710.0235074,1677685710.0222883,,,-0.003490658,0,0,0.06864655,-9.708582878,0.519752443
1677685710.0312905,1677685710.027286,,,-0.001745329,0.003490658,-0.001745329,0.078453198,-9.708582878,0.529559076
1677685710.034958,1677685710.0322895,,,-0.003490658,0,0,0.078453198,-9.708582878,0.529559076
1677685710.038523,1677685710.0372932,,,-0.006981317,0,0,0.078453198,-9.718389511,0.519752443
1677685710.039441,1677685710.03871,9.975611687,1.017680407,,,,,,
1677685710.0438945,1677685710.0422957,,,-0.001745329,0,0,0.078453198,-9.718389511,0.519752443
1677685710.0514534,1677685710.0472996,,,-0.001745329,0,0.001745329,0.078453198,-9.708582878,0.529559076
1677685710.0605578,1677685710.0523026,,,-0.001745329,0,0,0.078453198,-9.708582878,0.529559076
1677685710.061958,1677685710.057306,,,-0.001745329,-0.001745329,0,0.06864655,-9.708582878,0.519752443
1677685710.0619273,1677685710.0589938,9.975611687,1.017680407,,,,,,
1677685710.065264,1677685710.0623088,,,-0.001745329,0,0,0.06864655,-9.708582878,0.519752443
1677685710.070665,1677685710.0673125,,,0.001745329,0,0.001745329,0.058839899,-9.708582878,0.50994581
1677685710.0836253,1677685710.0723164,,,-0.003490658,0,-0.001745329,0.058839899,-9.708582878,0.519752443
1677685710.085838,1677685710.0773191,,,-0.001745329,0.001745329,0.001745329,0.058839899,-9.708582878,0.519752443
1677685710.0819,1677685710.0792823,9.975611687,1.017680407,,,,,,
1677685710.086556,1677685710.0823226,,,0,0.003490658,0,0.078453198,-9.708582878,0.519752443
1677685710.0880806,1677685710.0873253,,,-0.005235988,-0.001745329,-0.001745329,0.078453198,-9.708582878,0.519752443
1677685710.0930605,1677685710.0923295,,,-0.003490658,-0.001745329,0,0.078453198,-9.708582878,0.519752443
1677685710.0983512,1677685710.097332,,,0,0,0,0.078453198,-9.708582878,0.529559076
1677685710.099936,1677685710.0987809,9.975611687,1.017680407,,,,,,
1677685710.1047163,1677685710.1023357,,,-0.005235988,0,0,0.078453198,-9.708582878,0.529559076
1677685710.1097488,1677685710.1073396,,,-0.001745329,0,0,0.06864655,-9.698776245,0.519752443
1677685710.1134498,1677685710.1123424,,,0,0,0,0.06864655,-9.698776245,0.519752443
1677685710.118488,1677685710.1173463,,,-0.005235988,0,0,0.06864655,-9.708582878,0.519752443
1677685710.1202343,1677685710.1187065,9.975611687,1.017680407,,,,,,
1677685710.1233985,1677685710.1223488,,,0,0.001745329,0,0.06864655,-9.708582878,0.519752443
1677685710.1286957,1677685710.1273527,,,-0.005235988,0.006981317,0,0.049033247,-9.708582878,0.519752443
1677685710.1338217,1677685710.1323557,,,-0.001745329,0,0,0.049033247,-9.708582878,0.519752443
1677685710.1409135,1677685710.1373594,,,-0.003490658,0,0,0.06864655,-9.708582878,0.519752443
1677685710.1398613,1677685710.1386938,9.975611687,1.017680407,,,,,,
1677685710.1611078,1677685710.142362,,,-0.001745329,0,0,0.06864655,-9.708582878,0.539365709
1677685710.1619112,1677685710.1473658,,,-0.005235988,0,-0.003490658,0.06864655,-9.708582878,0.539365709
1677685710.1622005,1677685710.1523697,,,0,0,0,0.06864655,-9.708582878,0.539365709
1677685710.1629329,1677685710.1573727,,,0,0,0,0.06864655,-9.708582878,0.539365709
1677685710.1604617,1677685710.1587565,9.975611687,1.017680407,,,,,,
1677685710.165166,1677685710.1623762,,,-0.001745329,0.001745329,0,0.06864655,-9.708582878,0.539365709
1677685710.1689792,1677685710.1673791,,,-0.003490658,0.001745329,0,0.078453198,-9.708582878,0.519752443
1677685710.1733372,1677685710.172383,,,-0.005235988,0,0,0.078453198,-9.708582878,0.519752443
1677685710.1782238,1677685710.1773858,,,-0.001745329,-0.003490658,0,0.058839899,-9.698776245,0.50994581
1677685710.182044,1677685710.178721,9.975611687,1.017680407,,,,,,
1677685710.185449,1677685710.1823897,,,-0.003490658,0,0,0.078453198,-9.708582878,0.50994581
1677685710.1886911,1677685710.1873925,,,0,0,0,0.078453198,-9.708582878,0.50994581
1677685710.1932988,1677685710.1923964,,,-0.005235988,0,0,0.078453198,-9.708582878,0.50994581
1677685710.1983538,1677685710.1974,,,-0.005235988,-0.003490658,0,0.078453198,-9.708582878,0.50994581
1677685710.1994448,1677685710.1987095,9.975611687,1.017680407,,,,,,
1677685710.2200377,1677685710.202403,,,-0.003490658,0,0,0.058839899,-9.708582878,0.529559076
1677685710.2204163,1677685710.207407,,,0,0,0.001745329,0.058839899,-9.708582878,0.529559076
1677685710.2224033,1677685710.21241,,,-0.003490658,0,0,0.058839899,-9.708582878,0.529559076
1677685710.222726,1677685710.2174137,,,-0.001745329,0.003490658,-0.001745329,0.058839899,-9.708582878,0.529559076
1677685710.2199652,1677685710.2187636,9.975611687,1.017680407,,,,,,
1677685710.224745,1677685710.2224164,,,-0.005235988,0,0,0.058839899,-9.708582878,0.539365709
1677685710.2287047,1677685710.2274203,,,-0.001745329,0,0,0.058839899,-9.708582878,0.539365709
1677685710.2340653,1677685710.2324233,,,-0.005235988,0.001745329,0,0.058839899,-9.708582878,0.539365709
1677685710.2404773,1677685710.2374272,,,0,-0.003490658,0.001745329,0.06864655,-9.708582878,0.529559076
1677685710.2404535,1677685710.238689,9.975559235,1.017680407,,,,,,
1677685710.2458677,1677685710.2424302,,,-0.001745329,0,0,0.06864655,-9.708582878,0.529559076
1677685710.2505302,1677685710.247434,,,-0.003490658,0.001745329,0,0.078453198,-9.698776245,0.50994581
1677685710.2645738,1677685710.252438,,,0,0,-0.001745329,0.06864655,-9.698776245,0.519752443
1677685710.2654006,1677685710.257441,,,0,0.003490658,0,0.06864655,-9.698776245,0.519752443
1677685710.2645023,1677685710.2586925,9.975666046,1.017680407,,,,,,
1677685710.2660608,1677685710.2624447,,,-0.005235988,0,-0.001745329,0.06864655,-9.708582878,0.529559076
1677685710.2699556,1677685710.2674477,,,0,0.001745329,0,0.06864655,-9.708582878,0.529559076
1677685710.2795136,1677685710.2724516,,,-0.003490658,0.001745329,0,0.06864655,-9.708582878,0.529559076
1677685710.281163,1677685710.2774546,,,-0.003490658,0.001745329,0,0.06864655,-9.708582878,0.519752443
1677685710.279452,1677685710.2786965,9.975507736,1.017680407,,,,,,
1677685710.284808,1677685710.2824585,,,0.001745329,0,0,0.06864655,-9.728196144,0.529559076
1677685710.2895656,1677685710.2874625,,,-0.001745329,0,0,0.06864655,-9.728196144,0.529559076
1677685710.294535,1677685710.2924654,,,0.001745329,0.003490658,0,0.06864655,-9.728196144,0.529559076
1677685710.2987177,1677685710.2974694,,,0,0.003490658,0,0.088259846,-9.718389511,0.519752443
1677685710.2999246,1677685710.298718,9.972633362,1.017680407,,,,,,
1677685710.3035417,1677685710.3024724,,,-0.001745329,0.001745329,0,0.088259846,-9.718389511,0.519752443
1677685710.3088868,1677685710.3074763,,,0,0,0,0.06864655,-9.708582878,0.519752443
1677685710.3140726,1677685710.3124793,,,-0.001745329,-0.001745329,0,0.06864655,-9.708582878,0.519752443
1677685710.3201556,1677685710.3174832,,,0,0.001745329,0,0.06864655,-9.708582878,0.519752443
1677685710.3198373,1677685710.3187277,9.975437164,1.017680407,,,,,,
1677685710.3261259,1677685710.3224862,,,-0.001745329,0,0,0.06864655,-9.708582878,0.519752443
1677685710.3302853,1677685710.3274903,,,-0.005235988,0,0,0.06864655,-9.708582878,0.519752443
1677685710.3362074,1677685710.332494,,,-0.001745329,-0.001745329,0.001745329,0.06864655,-9.708582878,0.519752443
1677685710.3384588,1677685710.337497,,,-0.001745329,0.001745329,-0.001745329,0.058839899,-9.718389511,0.519752443
1677685710.3400314,1677685710.3388553,9.975845337,1.017680407,,,,,,
1677685710.343945,1677685710.3425012,,,-0.003490658,0,0,0.058839899,-9.718389511,0.519752443
1677685710.3483768,1677685710.3475041,,,-0.001745329,0,0,0.06864655,-9.708582878,0.519752443
1677685710.353765,1677685710.3525083,,,-0.003490658,0,0,0.06864655,-9.708582878,0.519752443
1677685710.3584232,1677685710.3575113,,,-0.001745329,-0.003490658,0.001745329,0.078453198,-9.698776245,0.50994581
1677685710.359346,1677685710.3587208,9.977065086,1.017680407,,,,,,
1677685710.365442,1677685710.3625152,,,-0.006981317,0,0,0.078453198,-9.698776245,0.50994581
1677685710.3683913,1677685710.3675182,,,-0.001745329,-0.003490658,0,0.06864655,-9.698776245,0.50994581
1677685710.3737075,1677685710.3725224,,,-0.003490658,0.005235988,0,0.06864655,-9.698776245,0.50994581
1677685710.3784373,1677685710.3775263,,,-0.001745329,0,0,0.078453198,-9.698776245,0.50994581
1677685710.3795123,1677685710.3787358,9.97469902,1.017680407,,,,,,
1677685710.3834832,1677685710.3825293,,,0,0,-0.005235988,0.078453198,-9.698776245,0.50994581
1677685710.388442,1677685710.3875337,,,-0.003490658,0,0,0.078453198,-9.708582878,0.529559076
1677685710.3952246,1677685710.3925364,,,-0.001745329,0,0,0.058839899,-9.708582878,0.519752443
1677685710.4005315,1677685710.3975406,,,0,0,0,0.058839899,-9.708582878,0.519752443
1677685710.4007995,1677685710.3987567,9.974760056,1.017680407,,,,,,
1677685710.4061086,1677685710.4025435,,,-0.003490658,-0.006981317,0,0.058839899,-9.708582878,0.529559076
1677685710.4082348,1677685710.4075477,,,-0.001745329,0,0,0.058839899,-9.708582878,0.529559076
1677685710.4133747,1677685710.4125507,,,-0.003490658,0,0,0.058839899,-9.708582878,0.529559076
1677685710.4198732,1677685710.4175546,,,-0.005235988,0,0,0.06864655,-9.708582878,0.50994581
1677685710.4197867,1677685710.4187353,9.975399017,1.017680407,,,,,,
1677685710.4236052,1677685710.4225588,,,-0.003490658,0,0,0.06864655,-9.708582878,0.50994581
1677685710.4286478,1677685710.427562,,,0,-0.003490658,0.001745329,0.078453198,-9.708582878,0.519752443
1677685710.4340782,1677685710.4325662,,,0,0.001745329,-0.001745329,0.078453198,-9.708582878,0.519752443
1677685710.4383185,1677685710.4375691,,,-0.001745329,0.001745329,0,0.06864655,-9.708582878,0.519752443
1677685710.4396741,1677685710.4387257,9.974811554,1.017680407,,,,,,
1677685710.4439437,1677685710.4425733,,,-0.001745329,0,0,0.06864655,-9.708582878,0.519752443
1677685710.4486494,1677685710.4475763,,,-0.001745329,0,0,0.078453198,-9.708582878,0.519752443
1677685710.4535146,1677685710.4525807,,,-0.001745329,0,0,0.078453198,-9.708582878,0.519752443
1677685710.458264,1677685710.4575837,,,-0.005235988,0,0,0.06864655,-9.698776245,0.50994581
1677685710.4594312,1677685710.4587293,9.972841263,1.017680407,,,,,,
1677685710.4637098,1677685710.4625876,,,-0.001745329,0,0,0.06864655,-9.698776245,0.50994581
1677685710.468619,1677685710.4675918,,,-0.001745329,0,0,0.06864655,-9.698776245,0.519752443
1677685710.4734728,1677685710.472595,,,0,0,0,0.06864655,-9.698776245,0.519752443
1677685710.4785352,1677685710.4775991,,,0,0,0,0.06864655,-9.708582878,0.529559076
1677685710.4795763,1677685710.4787343,9.973617554,1.017680407,,,,,,
1677685710.4857981,1677685710.4826024,,,0,0.001745329,0.001745329,0.06864655,-9.698776245,0.519752443
1677685710.4890783,1677685710.4876065,,,0,0.001745329,-0.001745329,0.06864655,-9.698776245,0.519752443
1677685710.4944973,1677685710.4926095,,,0,0.005235988,0,0.078453198,-9.708582878,0.529559076
1677685710.5005693,1677685710.497614,,,-0.001745329,0,0.001745329,0.078453198,-9.708582878,0.529559076
1677685710.5020278,1677685710.4998398,9.974187851,1.017680407,,,,,,
1677685710.5039968,1677685710.5026166,,,0,0,0,0.058839899,-9.718389511,0.50994581
1677685710.5083933,1677685710.507621,,,0,0,0,0.058839899,-9.718389511,0.50994581
1677685710.5133262,1677685710.5126252,,,0,0.005235988,0,0.049033247,-9.708582878,0.519752443
1677685710.5215487,1677685710.5176284,,,0,0.001745329,0,0.049033247,-9.708582878,0.519752443
1677685710.5206273,1677685710.5187519,9.975623131,1.017680407,,,,,,
1677685710.5253735,1677685710.5226324,,,-0.003490658,0,0,0.06864655,-9.708582878,0.529559076
1677685710.5284379,1677685710.5276358,,,0,-0.003490658,-0.001745329,0.06864655,-9.708582878,0.529559076
1677685710.53452,1677685710.53264,,,-0.001745329,0,0,0.06864655,-9.698776245,0.519752443
1677685710.5384526,1677685710.537643,,,0,0,0,0.06864655,-9.698776245,0.519752443
1677685710.5399215,1677685710.5387168,9.976801872,1.017680407,,,,,,
1677685710.5435438,1677685710.5426474,,,0,0,-0.001745329,0.06864655,-9.718389511,0.529559076
1677685710.5487425,1677685710.5476503,,,-0.001745329,0.001745329,0,0.06864655,-9.718389511,0.529559076
1677685710.5530815,1677685710.5526547,,,-0.005235988,0.001745329,0.001745329,0.06864655,-9.708582878,0.519752443
1677685710.559204,1677685710.557659,,,0,0,0,0.06864655,-9.708582878,0.519752443
1677685710.5615084,1677685710.5592775,9.973087311,1.017680407,,,,,,
1677685710.5639,1677685710.5626621,,,0,0.001745329,0,0.06864655,-9.698776245,0.50994581
1677685710.5687776,1677685710.5676663,,,-0.001745329,0.003490658,0,0.06864655,-9.698776245,0.50994581
1677685710.5742147,1677685710.5726697,,,0.001745329,0,0,0.06864655,-9.698776245,0.529559076
1677685710.5792353,1677685710.5776737,,,-0.001745329,0.001745329,0,0.06864655,-9.698776245,0.529559076
1677685710.5813892,1677685710.5787122,9.975995064,1.017680407,,,,,,
1677685710.5836878,1677685710.582677,,,-0.001745329,0,0,0.078453198,-9.688969612,0.529559076
1677685710.5880017,1677685710.5876813,,,-0.001745329,0,-0.001745329,0.078453198,-9.688969612,0.529559076
1677685710.5935862,1677685710.5926845,,,0,0.001745329,-0.001745329,0.078453198,-9.688969612,0.529559076
1677685710.5986016,1677685710.597689,,,-0.003490658,0,0,0.078453198,-9.708582878,0.519752443
1677685710.5996192,1677685710.5987136,9.975387573,1.017680407,,,,,,
1677685710.60425,1677685710.602693,,,0,0,0.001745329,0.078453198,-9.708582878,0.519752443
1677685710.6080956,1677685710.6076963,,,-0.001745329,-0.003490658,0,0.078453198,-9.708582878,0.519752443
1677685710.6141708,1677685710.6127007,,,0,0.005235988,0,0.078453198,-9.698776245,0.519752443
1677685710.618249,1677685710.617704,,,0,0,0,0.078453198,-9.698776245,0.519752443
1677685710.62,1677685710.6187487,9.977910042,1.017680407,,,,,,
1677685710.6242027,1677685710.6227083,,,0,0,0,0.06864655,-9.708582878,0.529559076
1677685710.6286645,1677685710.6277115,,,0,0.005235988,-0.001745329,0.06864655,-9.708582878,0.529559076
1677685710.6347196,1677685710.6327157,,,-0.001745329,0,0,0.078453198,-9.718389511,0.519752443
1677685710.638528,1677685710.6377192,,,-0.005235988,0.001745329,0,0.078453198,-9.718389511,0.519752443
1677685710.6391962,1677685710.6386907,9.973644257,1.017680407,,,,,,
1677685710.643314,1677685710.6427233,,,-0.003490658,-0.003490658,0,0.06864655,-9.698776245,0.529559076
1677685710.6487956,1677685710.6477277,,,0,0.001745329,0,0.06864655,-9.698776245,0.529559076
1677685710.652997,1677685710.652731,,,-0.001745329,0,0,0.058839899,-9.698776245,0.529559076
1677685710.6599934,1677685710.657735,,,-0.005235988,0,0,0.058839899,-9.698776245,0.529559076
1677685710.6599634,1677685710.6587338,9.976410866,1.017680407,,,,,,
1677685710.6643698,1677685710.6627383,,,-0.001745329,0.003490658,0,0.06864655,-9.708582878,0.519752443
1677685710.669892,1677685710.667743,,,-0.001745329,0.001745329,0,0.06864655,-9.708582878,0.519752443
1677685710.6732252,1677685710.672746,,,-0.001745329,0.005235988,0,0.06864655,-9.708582878,0.519752443
1677685710.6784768,1677685710.6777506,,,-0.005235988,0,0,0.06864655,-9.708582878,0.519752443
1677685710.68066,1677685710.6787071,9.972493172,1.017680407,,,,,,
1677685710.6862633,1677685710.6827548,,,-0.003490658,0,0.003490658,0.06864655,-9.708582878,0.519752443
1677685710.6891224,1677685710.6877584,,,-0.003490658,-0.003490658,0,0.06864655,-9.708582878,0.519752443
1677685710.694363,1677685710.6927624,,,-0.003490658,-0.001745329,0,0.06864655,-9.708582878,0.519752443
1677685710.6981683,1677685710.6977658,,,-0.001745329,-0.003490658,0.001745329,0.06864655,-9.708582878,0.519752443
1677685710.6993916,1677685710.6988254,9.976859093,1.017680407,,,,,,
1677685710.703909,1677685710.7027702,,,-0.005235988,0.006981317,0,0.078453198,-9.708582878,0.50994581
1677685710.7086744,1677685710.7077737,,,-0.001745329,0.012217305,0.003490658,0.078453198,-9.708582878,0.50994581
1677685710.718631,1677685710.712778,,,-0.003490658,0.001745329,-0.003490658,0.205939651,-9.806650162,0.490332484
1677685710.7201657,1677685710.7177813,,,0.005235988,0.022689279,-0.013962634,0.205939651,-9.806650162,0.490332484
1677685710.7201374,1677685710.7187185,9.976509094,1.017680407,,,,,,
1677685710.7234213,1677685710.7227855,,,0.003490658,0.036651913,-0.019198623,0.353039384,-9.708582878,0.558979034
1677685710.7281675,1677685710.7277892,,,0,0.041887902,-0.020943951,0.353039384,-9.708582878,0.558979034
1677685710.733132,1677685710.7327933,,,-0.001745329,0.04363323,-0.027925268,0.284392834,-9.581096649,0.519752443
1677685710.7398224,1677685710.737798,,,-0.006981317,0.057595864,-0.02617994,0.284392834,-9.581096649,0.519752443
1677685710.7401965,1677685710.7387524,9.990048409,1.017680407,,,,,,
1677685710.7439768,1677685710.7428012,,,-0.005235988,0.055850536,-0.029670596,0.313812792,-9.581096649,0.529559076
1677685710.748275,1677685710.7478056,,,-0.005235988,0.059341192,-0.031415924,0.313812792,-9.581096649,0.529559076
1677685710.7555044,1677685710.752809,,,-0.012217305,0.055850536,-0.033161256,0.078453198,-9.610516548,0.480525851
1677685710.7583303,1677685710.7578135,,,-0.017453292,0.038397245,-0.024434609,0.078453198,-9.610516548,0.480525851
1677685710.75936,1677685710.7587316,10.06507015,1.017680407,,,,,,
1677685710.7649496,1677685710.7628167,,,-0.019198623,0.017453292,-0.003490658,-0.30400613,-9.718389511,0.402072638
1677685710.768267,1677685710.7678213,,,-0.015707962,0.008726646,0.024434609,-0.30400613,-9.718389511,0.402072638
1677685710.7740157,1677685710.7728257,,,-0.006981317,-0.003490658,0.038397245,-0.382459342,-9.96355629,0.451105893
1677685710.7794,1677685710.7778294,,,0.003490658,-0.019198623,0.027925268,-0.382459342,-9.96355629,0.451105893
1677685710.7793705,1677685710.7787464,10.10262394,1.017680407,,,,,,
1677685710.7875247,1677685710.7828336,,,0.012217305,-0.010471975,0.019198623,-0.039226599,-9.885103226,0.568785667
1677685710.7895331,1677685710.7878373,,,0.012217305,0,-0.005235988,-0.039226599,-9.885103226,0.568785667
1677685710.7955236,1677685710.7928414,,,0.010471975,-0.001745329,-0.022689279,-0.058839899,-9.620323181,0.519752443
1677685710.798363,1677685710.797845,,,0.001745329,-0.001745329,-0.019198623,-0.058839899,-9.620323181,0.519752443
1677685710.799656,1677685710.798737,10.09568977,1.017680407,,,,,,
1677685710.8035583,1677685710.8028493,,,-0.012217305,0.008726646,-0.015707962,0.049033247,-9.522256851,0.519752443
1677685710.808301,1677685710.807853,,,-0.013962634,0.012217305,-0.012217305,0.049033247,-9.522256851,0.519752443
1677685710.8138824,1677685710.8128574,,,-0.012217305,0.017453292,-0.022689279,0.235359594,-9.679162979,0.549172401
1677685710.818198,1677685710.8178608,,,-0.006981317,0.020943951,-0.02617994,0.235359594,-9.679162979,0.549172401
1677685710.8192794,1677685710.8186917,10.09568977,1.017680407,,,,,,
1677685710.8234472,1677685710.8228652,,,-0.010471975,0.008726646,-0.031415924,0.088259846,-9.796843529,0.558979034
1677685710.8292103,1677685710.82787,,,-0.005235988,0.001745329,-0.015707962,0.088259846,-9.796843529,0.558979034
1677685710.83325,1677685710.832873,,,0.001745329,0.003490658,0.003490658,0.078453198,-9.806650162,0.519752443
1677685710.8444207,1677685710.8378778,,,0,-0.006981317,0.008726646,0.078453198,-9.806650162,0.519752443
1677685710.8401184,1677685710.8389432,10.09831429,1.017680407,,,,,,
1677685710.8448105,1677685710.8428812,,,0,-0.015707962,0.022689279,0.06864655,-9.688969612,0.529559076
1677685710.8481953,1677685710.8478858,,,0,-0.017453292,0.017453292,0.06864655,-9.688969612,0.529559076
1677685710.8530264,1677685710.8528903,,,0.003490658,-0.006981317,0.020943951,0.205939651,-9.659549713,0.568785667
1677685710.8580854,1677685710.857894,,,0.001745329,-0.001745329,0.010471975,0.205939651,-9.659549713,0.568785667
1677685710.8593485,1677685710.8587124,10.10487175,1.017680407,,,,,,
1677685710.865639,1677685710.8628972,,,-0.005235988,0,0.013962634,0.1372931,-9.718389511,0.568785667
1677685710.872313,1677685710.867902,,,-0.003490658,0.008726646,0.008726646,0.1372931,-9.718389511,0.568785667
1677685710.8733692,1677685710.8729064,,,-0.005235988,0.017453292,0,0.0196133,-9.718389511,0.558979034
1677685710.8784792,1677685710.87791,,,-0.005235988,0.013962634,-0.003490658,0.0196133,-9.718389511,0.558979034
1677685710.879489,1677685710.8787117,10.10346031,1.017680407,,,,,,
1677685710.8832126,1677685710.8829145,,,-0.003490658,0.012217305,-0.013962634,-0.098066494,-9.688969612,0.519752443
1677685710.8899794,1677685710.887918,,,-0.003490658,0.005235988,-0.017453292,-0.098066494,-9.688969612,0.519752443
1677685710.89574,1677685710.8929226,,,-0.001745329,0.003490658,-0.015707962,-0.088259846,-9.698776245,0.50994581
1677685710.898334,1677685710.897926,,,-0.001745329,0,-0.012217305,-0.088259846,-9.698776245,0.50994581
1677685710.8993995,1677685710.8987348,10.11583805,1.017680407,,,,,,
1677685710.9035897,1677685710.9029307,,,-0.001745329,-0.003490658,-0.006981317,0.06864655,-9.708582878,0.539365709
1677685710.9079354,1677685710.9079342,,,0,0,-0.003490658,0.06864655,-9.708582878,0.539365709
1677685710.9224596,1677685710.9129388,,,0,-0.001745329,-0.001745329,0.215746298,-9.718389511,0.568785667
1677685710.9228053,1677685710.9179432,,,0,-0.003490658,0,0.215746298,-9.718389511,0.568785667
1677685710.922391,1677685710.9187562,10.11194515,1.017680407,,,,,,
1677685710.923372,1677685710.9229472,,,0,-0.001745329,0.008726646,0.245166242,-9.718389511,0.549172401
1677685710.9281201,1677685710.9279513,,,-0.003490658,0.005235988,0.010471975,0.245166242,-9.718389511,0.549172401
1677685710.9337122,1677685710.9329562,,,-0.003490658,0.003490658,0.008726646,0.117679797,-9.718389511,0.549172401
1677685710.9382603,1677685710.9379597,,,-0.005235988,0.003490658,0.006981317,0.117679797,-9.718389511,0.549172401
1677685710.9398177,1677685710.9391377,10.10998726,1.017680407,,,,,,
1677685710.944137,1677685710.9429634,,,-0.005235988,0.001745329,0.006981317,0,-9.679162979,0.50994581
1677685710.9488547,1677685710.9479678,,,-0.005235988,0,0.001745329,0,-9.679162979,0.50994581
1677685710.9532912,1677685710.9529722,,,-0.003490658,0,0,-0.088259846,-9.688969612,0.50994581
1677685710.9585395,1677685710.957976,,,0,0,-0.001745329,-0.088259846,-9.688969612,0.50994581
1677685710.959398,1677685710.9587045,10.11136341,1.017680407,,,,,,
1677685710.9633043,1677685710.9629805,,,0,-0.003490658,-0.001745329,0.00980665,-9.728196144,0.50994581
1677685710.9694402,1677685710.9679844,,,0,-0.001745329,-0.006981317,0.00980665,-9.728196144,0.50994581
1677685710.9743338,1677685710.9729888,,,0,0,-0.006981317,0.098066494,-9.728196144,0.529559076
1677685710.9784,1677685710.9779928,,,-0.005235988,0.001745329,-0.006981317,0.098066494,-9.728196144,0.529559076
1677685710.9800854,1677685710.9790087,10.10729885,1.017680407,,,,,,
1677685710.9843287,1677685710.9829972,,,-0.006981317,-0.001745329,-0.003490658,0.147099748,-9.669356346,0.529559076
1677685710.9882166,1677685710.988001,,,-0.006981317,0,-0.001745329,0.147099748,-9.669356346,0.529559076
1677685710.9933238,1677685710.9930055,,,-0.003490658,0,-0.005235988,0.117679797,-9.698776245,0.519752443
1677685710.9982717,1677685710.9980094,,,-0.005235988,0,0.001745329,0.117679797,-9.698776245,0.519752443
1677685710.999202,1677685710.9987128,10.10360813,1.017680407,,,,,,
1677685711.003243,1677685711.0030138,,,-0.001745329,-0.001745329,0.005235988,0.098066494,-9.76742363,0.50994581
1677685711.0084782,1677685711.0080185,,,-0.001745329,-0.003490658,0.003490658,0.098066494,-9.76742363,0.50994581
1677685711.01468,1677685711.0130222,,,0,-0.001745329,0.003490658,0.049033247,-9.728196144,0.500139117
1677685711.0195925,1677685711.0180268,,,0,-0.005235988,0.006981317,0.049033247,-9.728196144,0.500139117
1677685711.019558,1677685711.0187004,10.10574913,1.017680407,,,,,,
1677685711.02362,1677685711.0230305,,,-0.005235988,-0.005235988,0.006981317,0.039226599,-9.688969612,0.490332484
1677685711.0284295,1677685711.0280352,,,-0.001745329,-0.003490658,0,0.039226599,-9.688969612,0.490332484
1677685711.0351663,1677685711.0330348,,,0,0,0.001745329,0.039226599,-9.688969612,0.519752443
1677685711.0464625,1677685711.0380318,,,0,0,0,0.039226599,-9.688969612,0.519752443
1677685711.0462258,1677685711.0387843,10.10596657,1.017680407,,,,,,
1677685711.0470967,1677685711.0430293,,,-0.003490658,0.003490658,0,0.088259846,-9.718389511,0.519752443
1677685711.048234,1677685711.0480278,,,-0.001745329,0.001745329,-0.001745329,0.088259846,-9.718389511,0.519752443
1677685711.0540183,1677685711.0530257,,,-0.005235988,-0.005235988,-0.005235988,0.058839899,-9.718389511,0.500139117
1677685711.0623345,1677685711.0580232,,,-0.003490658,0.001745329,-0.006981317,0.058839899,-9.718389511,0.500139117
1677685711.0622728,1677685711.0587482,10.10377502,1.017680407,,,,,,
1677685711.0637558,1677685711.0630217,,,0,0.003490658,-0.001745329,0.06864655,-9.708582878,0.519752443
1677685711.069058,1677685711.0680187,,,-0.001745329,-0.005235988,-0.001745329,0.06864655,-9.708582878,0.519752443
1677685711.0730622,1677685711.0730171,,,0,0.003490658,-0.001745329,0.06864655,-9.718389511,0.50994581
1677685711.0818405,1677685711.0780144,,,0,-0.001745329,0,0.06864655,-9.718389511,0.50994581
1677685711.0817654,1677685711.078771,10.10536098,1.017680407,,,,,,
1677685711.0855112,1677685711.0830126,,,-0.001745329,-0.001745329,0.003490658,0.107873149,-9.728196144,0.519752443
1677685711.0893636,1677685711.08801,,,-0.003490658,-0.005235988,0,0.107873149,-9.728196144,0.519752443
1677685711.093366,1677685711.0930083,,,0,-0.003490658,0.005235988,0.078453198,-9.698776245,0.50994581
1677685711.0981488,1677685711.0980065,,,0,0.001745329,0.006981317,0.078453198,-9.698776245,0.50994581
1677685711.0991786,1677685711.0987225,10.10461426,1.017680407,,,,,,
1677685711.1068811,1677685711.1030037,,,0.003490658,0.001745329,0.010471975,0.088259846,-9.777230263,0.568785667
1677685711.110626,1677685711.108002,,,0.005235988,-0.003490658,0.012217305,0.088259846,-9.777230263,0.568785667
1677685711.1152732,1677685711.1129992,,,0.019198623,0,0.010471975,0.06864655,-10.01258945,0.735498726
1677685711.118444,1677685711.1179976,,,0.045378558,0,0.005235988,0.06864655,-10.01258945,0.735498726
1677685711.1195824,1677685711.1187148,10.1050663,1.017680407,,,,,,
1677685711.1229208,1677685711.1229959,,,0.068067841,-0.005235988,0.010471975,-0.147099748,-10.17930222,1.255251169
1677685711.1286712,1677685711.127993,,,0.089011788,-0.015707962,0,-0.147099748,-10.17930222,1.255251169
1677685711.1341646,1677685711.1329916,,,0.125663698,-0.02617994,0.013962634,-0.382459342,-10.20872211,2.039783239
1677685711.1387632,1677685711.1379888,,,0.148352981,-0.052359879,0.020943951,-0.382459342,-10.20872211,2.039783239
1677685711.1413376,1677685711.1387613,10.10404682,1.017680407,,,,,,
1677685711.143247,1677685711.142987,,,0.169296935,-0.059341192,0.031415924,-0.627625585,-10.27736855,3.36368084
1677685711.147963,1677685711.1479843,,,0.185004905,-0.094247781,0.048869219,-0.627625585,-10.27736855,3.36368084
1677685711.1530833,1677685711.1529827,,,0.218166158,-0.116937056,0.024434609,-0.794338644,-10.41466236,4.501252174
1677685711.158462,1677685711.157981,,,0.256563395,-0.130899698,0.057595864,-0.794338644,-10.41466236,4.501252174
1677685711.160409,1677685711.1587272,10.07079887,1.017680407,,,,,,
1677685711.1642408,1677685711.1629784,,,0.261799395,-0.171042264,0.066322513,-1.206217885,-10.23814201,5.393657207
1677685711.169519,1677685711.1679764,,,0.287979335,-0.233874112,0.102974422,-1.206217885,-10.23814201,5.393657207
1677685711.1762586,1677685711.1729739,,,0.270526022,-0.275762022,0.097738437,-1.520030737,-9.296704292,5.629016876
1677685711.1818216,1677685711.1779723,,,0.219911486,-0.301941961,0.181514233,-1.520030737,-9.296704292,5.629016876
1677685711.1811917,1677685711.1793213,10.03008747,1.017680407,,,,,,
1677685711.183983,1677685711.1829696,,,0.226892799,-0.38048178,0.162315622,-1.716163754,-8.757338524,5.972249508
1677685711.1892848,1677685711.1879678,,,0.181514233,-0.394444406,0.171042264,-1.716163754,-8.757338524,5.972249508
1677685711.192774,1677685711.192965,,,0.127409041,-0.452040285,0.181514233,-1.882876754,-8.600431442,5.972249508
1677685711.197877,1677685711.1979632,,,0.061086524,-0.507890821,0.157079637,-1.882876754,-8.600431442,5.972249508
1677685711.199283,1677685711.1986938,9.413653374,1.017680407,,,,,,
1677685711.2028923,1677685711.2029605,,,-0.019198623,-0.509636164,0.130899698,-1.569063902,-7.962999821,5.746696949
1677685711.208925,1677685711.2079587,,,-0.085521132,-0.53407073,0.078539819,-1.569063902,-7.962999821,5.746696949
1677685711.2129588,1677685711.2129562,,,-0.106465086,-0.53407073,0.055850536,-1.206217885,-8.227779388,5.472110748
1677685711.2179186,1677685711.2179544,,,-0.071558498,-0.54454273,0.022689279,-1.206217885,-8.227779388,5.472110748
1677685711.2194324,1677685711.2187455,9.201836586,1.017680407,,,,,,
1677685711.222914,1677685711.2229526,,,-0.083775803,-0.558505356,0,-1.059118152,-8.825984955,5.344624043
1677685711.2279325,1677685711.2279499,,,-0.048869219,-0.541052043,-0.033161256,-1.059118152,-8.825984955,5.344624043
1677685711.23503,1677685711.2329483,,,-0.073303826,-0.527089417,-0.064577185,-0.64723891,-7.88454628,5.119071007
1677685711.2389278,1677685711.2379456,,,-0.07679449,-0.532325447,-0.08726646,-0.64723891,-7.88454628,5.119071007
1677685711.2394862,1677685711.2387335,8.17678833,1.017680407,,,,,,
1677685711.243075,1677685711.2429438,,,-0.064577185,-0.53930676,-0.137881011,-1.588677287,-7.913966179,4.540478706
1677685711.2477808,1677685711.247941,,,-0.031415924,-0.561996043,-0.134390354,-1.588677287,-7.913966179,4.540478706
1677685711.253118,1677685711.2529395,,,-0.04712389,-0.593411922,-0.134390354,-1.73577702,-8.610238075,4.638545513
1677685711.2580614,1677685711.2579367,,,-0.019198623,-0.52359879,-0.073303826,-1.73577702,-8.610238075,4.638545513
1677685711.2595062,1677685711.2587411,9.792531013,1.005576611,,,,,,
1677685711.2629378,1677685711.2629347,,,-0.176278248,-0.537561417,-0.038397245,-1.117958069,-9.610516548,4.638545513
1677685711.2685008,1677685711.2679331,,,-0.242600769,-0.773180842,-0.059341192,-1.117958069,-9.610516548,4.638545513
1677685711.2741506,1677685711.2729304,,,-0.326376557,-0.954695106,0.010471975,-3.324454308,-9.561483383,2.255529404
1677685711.2781556,1677685711.2779286,,,-0.394444406,-1.045452237,0.226892799,-3.324454308,-9.561483383,2.255529404
1677685711.2795286,1677685711.2787154,8.761300087,1.005576611,,,,,,
1677685711.2828481,1677685711.282926,,,-0.294960648,-1.117010713,0.418879032,-0.95124501,-13.33704376,2.941994905
1677685711.2882655,1677685711.2879243,,,-0.214675501,-1.178097248,0.53930676,-0.95124501,-13.33704376,2.941994905
1677685711.2947443,1677685711.2929227,,,-0.033161256,-1.190314531,0.532325447,-0.519752443,-13.87640953,2.647795439
1677685711.298209,1677685711.29792,,,0.095993109,-1.174606562,0.541052043,-0.519752443,-13.87640953,2.647795439
1677685711.300004,1677685711.2988138,7.699672222,1.005576611,,,,,,
1677685711.303366,1677685711.3029182,,,0.275762022,-1.158898592,0.366519153,-1.147377968,-11.63068676,2.471275806
1677685711.308125,1677685711.3079152,,,0.324631244,-1.080358744,0.247836754,-1.147377968,-11.63068676,2.471275806
1677685711.317866,1677685711.3129137,,,0.431096315,-1.08908546,0.151843637,-1.216024518,-7.727640152,1.431770921
1677685711.318324,1677685711.3179107,,,0.293215305,-1.043706894,0.005235988,-1.216024518,-7.727640152,1.431770921
1677685711.3194587,1677685711.3186946,7.179129124,1.005576611,,,,,,
1677685711.3234558,1677685711.322909,,,0.212930173,-0.935496449,-0.033161256,-0.470719188,-4.491445541,2.128042936
1677685711.3284504,1677685711.3279066,,,-0.015707962,-0.802851439,-0.089011788,-0.470719188,-4.491445541,2.128042936
1677685711.3333406,1677685711.3329048,,,-0.202458188,-0.792379498,-0.176278248,-0.88259846,-4.089373112,1.637710452
1677685711.338507,1677685711.337902,,,-0.284488678,-0.895353913,-0.289724648,-0.88259846,-4.089373112,1.637710452
1677685711.3398967,1677685711.3386633,7.863883495,0.993338704,,,,,,
1677685711.342857,1677685711.3429003,,,-0.396189749,-0.923279166,-0.378736436,-2.255529404,-7.168661118,1.039504886
1677685711.3483799,1677685711.3478973,,,-0.376991123,-0.891863227,-0.324631244,-2.255529404,-7.168661118,1.039504886
1677685711.35337,1677685711.3528957,,,-0.310668617,-0.938987136,-0.268780708,-1.59848392,-12.34657192,1.794616938
1677685711.3585799,1677685711.3578942,,,-0.127409041,-1.054178834,-0.268780708,-1.59848392,-12.34657192,1.794616938
1677685711.3603861,1677685711.3587391,6.53108263,0.993338704,,,,,,
1677685711.3630219,1677685711.3628912,,,-0.010471975,-1.000073671,-0.045378558,-1.01989162,-15.04340076,1.66713047
1677685711.3685293,1677685711.3678896,,,0.19024089,-1.061160207,0,-1.01989162,-15.04340076,1.66713047
1677685711.373006,1677685711.3728871,,,0.38048178,-1.125737309,0.083775803,-0.764918685,-14.31770897,1.941716671
1677685711.381737,1677685711.3778849,,,0.373500466,-1.153662682,0.17453292,-0.843371868,-9.051537514,1.108151436
1677685711.380317,1677685711.3788521,5.500656605,0.993338704,,,,,,
1677685711.383207,1677685711.3828833,,,0.457276255,-1.206022501,0.207694173,-0.843371868,-9.051537514,1.108151436
1677685711.388099,1677685711.3878808,,,0.280998021,-1.239183784,0.258308738,-0.843371868,-9.051537514,1.108151436
1677685711.3932183,1677685711.3928788,,,0.125663698,-1.260127664,0.286233991,-0.235359594,-5.138684273,0.725692093
1677685711.3979359,1677685711.3978763,,,0.013962634,-1.326450229,0.272271365,-0.235359594,-5.138684273,0.725692093
1677685711.4011285,1677685711.3987448,7.255885124,0.980950773,,,,,,
1677685711.4039342,1677685711.4028747,,,-0.305432618,-1.291543603,0.274016678,-0.196132988,-5.344624043,0.608012259
1677685711.4080298,1677685711.4078715,,,-0.376991123,-1.228711843,0.249582082,-0.196132988,-5.344624043,0.608012259
1677685711.413083,1677685711.41287,,,-0.635299861,-1.174606562,0.006981317,-0.627625585,-8.914244652,0.666852176
1677685711.42392,1677685711.4178672,,,-0.493928164,-1.151917338,0.036651913,-0.95124501,-13.81756973,-0.431492597
1677685711.4223516,1677685711.421065,4.812285423,0.980950773,,,,,,
1677685711.426442,1677685711.4228654,,,-0.336848557,-1.148426652,0.008726646,-0.95124501,-13.81756973,-0.431492597
1677685711.4345248,1677685711.427863,,,-0.218166158,-1.040216208,-0.274016678,-2.010363102,-15.64160633,0.529559076
1677685711.4349096,1677685711.432861,,,0.158824965,-1.087340117,-0.186750233,-2.010363102,-15.64160633,0.529559076
1677685711.438083,1677685711.4378593,,,0.347320527,-1.069886804,-0.356047153,-2.010363102,-15.64160633,0.529559076
1677685711.4394674,1677685711.4387407,5.284296513,0.968370199,,,,,,
1677685711.4466617,1677685711.4428566,,,0.527089417,-1.005309582,-0.253072739,-1.01989162,-13.29781723,0.804145277
1677685711.4481974,1677685711.4478548,,,0.591666639,-0.979129732,-0.125663698,-1.01989162,-13.29781723,0.804145277
1677685711.4534912,1677685711.452852,,,0.651007831,-1.021017551,-0.036651913,0.147099748,-7.404020786,0.049033247
1677685711.4580548,1677685711.4578505,,,0.366519153,-0.982620358,0.125663698,0.147099748,-7.404020786,0.049033247
1677685711.4598386,1677685711.4587266,4.135499954,0.968370199,,,,,,
1677685711.4631793,1677685711.4628477,,,0.261799395,-1.024508238,0.209439516,0.902211785,-3.84420681,-0.156906396
1677685711.469142,1677685711.4678457,,,-0.029670596,-0.984365702,0.268780708,0.902211785,-3.84420681,-0.156906396
1677685711.473126,1677685711.472843,,,-0.322885901,-1.001819015,0.183259577,1.549450636,-5.678050041,0.313812792
1677685711.4796376,1677685711.4778414,,,-0.35430184,-0.942477763,0.162315622,1.549450636,-5.678050041,0.313812792
1677685711.4795558,1677685711.478755,2.606206894,0.968370199,,,,,,
1677685711.4834254,1677685711.4828396,,,-0.5497787,-0.954695106,0.066322513,1.676937103,-10.14988232,0.18632634
1677685711.488106,1677685711.4878368,,,-0.415388346,-0.86742866,0.157079637,1.676937103,-10.14988232,0.18632634
1677685711.4933133,1677685711.492835,,,-0.280998021,-0.825540721,0.162315622,0.990471601,-14.4157753,0.568785667
1677685711.498394,1677685711.4978323,,,-0.123918377,-0.832522035,0.204203516,0.990471601,-14.4157753,0.568785667
1677685711.499591,1677685711.4987693,4.058670521,0.955641925,,,,,,
1677685711.5032084,1677685711.5028305,,,0.064577185,-0.794124782,0.282743335,-1.137571335,-13.75872993,0.764918685
1677685711.5082803,1677685711.507828,,,0.167551607,-0.897099257,0.209439516,-1.137571335,-13.75872993,0.764918685
1677685711.5132942,1677685711.5128262,,,0.300196618,-0.891863227,0.228638127,-1.52983737,-8.786758423,0.166713044
1677685711.51786,1677685711.5178242,,,0.277507335,-0.822050095,0.230383456,-1.52983737,-8.786758423,0.166713044
1677685711.5195038,1677685711.5187488,4.058670521,0.955641925,,,,,,
1677685711.522977,1677685711.5228217,,,0.328121901,-0.869173944,0.169296935,-0.402072638,-5.952636242,0.254972905
1677685711.5282352,1677685711.5278199,,,0.263544708,-0.778416812,0.191986218,-0.402072638,-5.952636242,0.254972905
1677685711.5331886,1677685711.5328171,,,0.089011788,-0.774926186,0.041887902,-0.421685934,-6.129156113,0.294199497
1677685711.5382106,1677685711.5378153,,,0.001745329,-0.691150367,-0.08726646,-0.421685934,-6.129156113,0.294199497
1677685711.5397089,1677685711.5387292,1.887046099,0.955641925,,,,,,
1677685711.5432746,1677685711.5428123,,,-0.280998021,-0.747000933,-0.055850536,-1.127764702,-8.629851341,-0.608012259
1677685711.5493975,1677685711.5478108,,,-0.366519153,-0.811578095,-0.181514233,-1.127764702,-8.629851341,-0.608012259
1677685711.5535324,1677685711.5528083,,,-0.53407073,-0.841248691,-0.19024089,-2.373209238,-12.30734539,-0.30400613
1677685711.5592382,1677685711.557806,,,-0.546288073,-0.853465974,-0.193731546,-2.373209238,-12.30734539,-0.30400613
1677685711.5598464,1677685711.5587673,0.982205212,0.955641925,,,,,,
1677685711.5626466,1677685711.5628035,,,-0.329867214,-0.879645944,-0.130899698,-0.245166242,-14.36674213,0.37265268
1677685711.5685055,1677685711.567802,,,-0.228638127,-0.829031408,-0.137881011,-0.245166242,-14.36674213,0.37265268
1677685711.573807,1677685711.5728,,,-0.012217305,-0.75049156,-0.090757117,2.118236303,-12.11121273,0.627625585
1677685711.577578,1677685711.5777974,,,0.181514233,-0.663225114,-0.027925268,2.118236303,-12.11121273,0.627625585
1677685711.5794847,1677685711.5787013,3.052340508,0.942776024,,,,,,
1677685711.5826235,1677685711.5827956,,,0.294960648,-0.673697114,0.029670596,2.530115604,-8.423912048,0.764918685
1677685711.5876033,1677685711.5877926,,,0.366519153,-0.541052043,0.141371667,2.530115604,-8.423912048,0.764918685
1677685711.593085,1677685711.592791,,,0.37000981,-0.607374549,0.172787592,1.657323837,-5.275977612,0
1677685711.5980468,1677685711.597788,,,0.279252678,-0.572467983,0.287979335,1.657323837,-5.275977612,0
1677685711.599364,1677685711.5987384,3.052340508,0.942776024,,,,,,
1677685711.6029685,1677685711.6027863,,,0.146607652,-0.595157266,0.321140587,0.598205626,-5.746696949,0.529559076
1677685711.6076431,1677685711.6077838,,,0.010471975,-0.654498458,0.293215305,0.598205626,-5.746696949,0.529559076
1677685711.612764,1677685711.612782,,,-0.171042264,-0.516617477,0.397935063,0.843371868,-8.629851341,0.117679797
1677685711.6179547,1677685711.6177802,,,-0.230383456,-0.521853447,0.34906584,0.843371868,-8.629851341,0.117679797
1677685711.6204438,1677685711.6187546,3.052340508,0.942776024,,,,,,
1677685711.62292,1677685711.6227775,,,-0.218166158,-0.485201538,0.202458188,-0.264779538,-12.86632442,1.000278234
1677685711.6276958,1677685711.6277757,,,-0.151843637,-0.486946851,0.195476875,-0.264779538,-12.86632442,1.000278234
1677685711.6327014,1677685711.632773,,,-0.06981317,-0.52359879,0.055850536,-1.402350903,-13.05265045,0.078453198
1677685711.639764,1677685711.637771,,,-0.048869219,-0.504400134,-0.031415924,-1.402350903,-13.05265045,0.078453198
1677685711.640303,1677685711.6387348,3.052340508,0.942776024,,,,,,
1677685711.6430328,1677685711.6427684,,,0.013962634,-0.415388346,-0.111701071,-0.912018418,-10.26756191,0.353039384
1677685711.6482472,1677685711.6477666,,,0.04363323,-0.431096315,-0.277507335,-0.912018418,-10.26756191,0.353039384
1677685711.6541681,1677685711.652765,,,0.054105207,-0.326376557,-0.383972436,-0.098066494,-9.414383888,0.57859236
1677685711.6588998,1677685711.657762,,,0.048869219,-0.249582082,-0.415388346,-0.098066494,-9.414383888,0.57859236
1677685711.6610284,1677685711.6587074,2.457628727,0.929773808,,,,,,
1677685711.6629043,1677685711.662759,,,0.071558498,-0.260054052,-0.490437508,0.078453198,-8.894631386,0.107873149
1677685711.6678588,1677685711.6677575,,,0.02617994,-0.20071286,-0.483456194,0.078453198,-8.894631386,0.107873149
1677685711.6734295,1677685711.672756,,,-0.038397245,-0.195476875,-0.417133689,0.215746298,-8.149326324,0.147099748
1677685711.678803,1677685711.6777527,,,-0.062831849,-0.228638127,-0.434586972,0.215746298,-8.149326324,0.147099748
1677685711.6800785,1677685711.678744,4.211598873,0.916640818,,,,,,
1677685711.6838636,1677685711.6827512,,,-0.167551607,-0.274016678,-0.326376557,0,-8.394492149,0.588398993
1677685711.6879134,1677685711.6877487,,,-0.247836754,-0.296705961,-0.207694173,0,-8.394492149,0.588398993
1677685711.6935506,1677685711.6927464,,,-0.181514233,-0.390953749,-0.141371667,0,-9.365350723,0.294199497
1677685711.6984272,1677685711.697744,,,-0.249582082,-0.422369689,0.024434609,0.50994581,-10.04200935,0.176519692
1677685711.6995883,1677685711.6987624,3.800421715,0.916640818,,,,,,
1677685711.7026844,1677685711.7027423,,,-0.207694173,-0.445058942,0.089011788,0.50994581,-10.04200935,0.176519692
1677685711.709382,1677685711.70774,,,-0.066322513,-0.488692194,0.160570294,0.50994581,-10.04200935,0.176519692
1677685711.7141843,1677685711.7127376,,,-0.068067841,-0.424115002,0.235619441,1.22583127,-12.0131464,1.108151436
1677685711.720355,1677685711.717736,,,0.129154369,-0.431096315,0.178023577,1.22583127,-12.0131464,1.108151436
1677685711.720252,1677685711.718856,3.094320059,0.916640818,,,,,,
1677685711.7244375,1677685711.7227328,,,0.214675501,-0.357792497,0.225147471,1.725970387,-12.57212543,0.333426088
1677685711.7282095,1677685711.7277312,,,0.232128784,-0.301941961,0.211184844,1.725970387,-12.57212543,0.333426088
1677685711.7341483,1677685711.7327297,,,0.366519153,-0.275762022,0.169296935,0.774725318,-11.76797962,0.06864655
1677685711.7380936,1677685711.7377267,,,0.282743335,-0.237364769,0.242600769,0.774725318,-11.76797962,0.06864655
1677685711.739804,1677685711.7387161,5.587700367,0.903337717,,,,,,
1677685711.7434688,1677685711.742725,,,0.185004905,-0.218166158,0.205948845,-0.676658809,-9.051537514,0.245166242
1677685711.7483423,1677685711.7477221,,,0.075049154,-0.272271365,0.136135682,-0.676658809,-9.051537514,0.245166242
1677685711.752851,1677685711.7527194,,,-0.136135682,-0.254818082,0.158824965,-1.480804086,-6.276255608,0.098066494
1677685711.7599459,1677685711.7577176,,,-0.277507335,-0.284488678,0.062831849,-1.480804086,-6.276255608,0.098066494
1677685711.7603457,1677685711.758752,5.272963047,0.903337717,,,,,,
1677685711.7639477,1677685711.7627158,,,-0.270526022,-0.366519153,0.017453292,-1.353317618,-6.629295349,-0.294199497
1677685711.768263,1677685711.767713,,,-0.335103214,-0.312413931,0.061086524,-0.06864655,-9.120183945,0.313812792
1677685711.7730558,1677685711.7727113,,,-0.247836754,-0.366519153,-0.020943951,-0.06864655,-9.120183945,0.313812792
1677685711.7783754,1677685711.7777085,,,-0.111701071,-0.363028467,0.071558498,-0.06864655,-9.120183945,0.313812792
1677685711.779481,1677685711.7787344,4.672422409,0.903337717,,,,,,
1677685711.784264,1677685711.7827067,,,-0.045378558,-0.335103214,0.104719758,0.539365709,-11.39532661,0.64723891
1677685711.7888756,1677685711.787705,,,0.08726646,-0.366519153,0.050614547,0.666852176,-11.74836636,0.421685934
1677685711.792697,1677685711.7927022,,,0.151843637,-0.280998021,0.108210415,0.666852176,-11.74836636,0.421685934
1677685711.7997236,1677685711.7977004,,,0.226892799,-0.218166158,0.024434609,0.666852176,-11.74836636,0.421685934
1677685711.7999816,1677685711.798776,4.486179829,0.903337717,,,,,,
1677685711.8028138,1677685711.8026974,,,0.347320527,-0.209439516,-0.061086524,0.1372931,-12.46425152,0.549172401
1677685711.8089416,1677685711.8076959,,,0.356047153,-0.204203516,-0.127409041,0.1372931,-12.46425152,0.549172401
1677685711.8131313,1677685711.8126929,,,0.342084527,-0.188495561,-0.195476875,-0.892405152,-11.28745365,0.451105893
1677685711.8178344,1677685711.817691,,,0.301941961,-0.218166158,-0.235619441,-0.892405152,-11.28745365,0.451105893
1677685711.8194728,1677685711.8187053,7.196315289,0.889875174,,,,,,
1677685711.8226645,1677685711.8226886,,,0.052359879,-0.249582082,-0.167551607,-1.117958069,-7.560926914,0.049033247
1677685711.828976,1677685711.8276865,,,-0.150098309,-0.277507335,-0.134390354,-0.980664968,-4.609125614,-0.127486452
1677685711.832701,1677685711.8326838,,,-0.401425719,-0.371755123,-0.036651913,-0.980664968,-4.609125614,-0.127486452
1677685711.8384984,1677685711.8376822,,,-0.54454273,-0.397935063,0.031415924,-0.980664968,-4.609125614,-0.127486452
1677685711.8395321,1677685711.8387606,7.196315289,0.889875174,,,,,,
1677685711.842894,1677685711.84268,,,-0.54454273,-0.453785598,0.082030475,-0.205939651,-6.884268284,0.333426088
1677685711.8488724,1677685711.8476775,,,-0.497418821,-0.479965538,0.150098309,0.686465502,-10.84615421,0.696272135
1677685711.853178,1677685711.852676,,,-0.356047153,-0.450294942,0.150098309,0.686465502,-10.84615421,0.696272135
1677685711.8584526,1677685711.857673,,,-0.062831849,-0.472984225,0.185004905,0.588398993,-14.07254219,1.01989162
1677685711.8594487,1677685711.8587477,7.196315289,0.889875174,,,,,,
1677685711.8641784,1677685711.8626711,,,0.099483766,-0.439822972,0.267035365,0.588398993,-14.07254219,1.01989162
