__time,/hamster2/imu/header.stamp,/hamster2/command/drive.steering_angle,/hamster2/command/drive.speed,/hamster2/imu/angular_velocity.x,/hamster2/imu/angular_velocity.y,/hamster2/imu/angular_velocity.z,/hamster2/imu/linear_acceleration.x,/hamster2/imu/linear_acceleration.y,/hamster2/imu/linear_acceleration.z
1677685709.4604588,1677685709.4325433,9.974722862,1.017680407,-0.006981317,0.001745329,0,0.058839899,-9.698776245,0.519752443
1677685709.460994,1677685709.4375403,9.974722862,1.017680407,0,0,0.001745329,0.058839899,-9.698776245,0.519752443
1677685709.4621024,1677685709.439159,9.974722862,1.017680407,-0.000872665,0,0.000872665,0.058839899,-9.698776245,0.519752443
1677685709.4613712,1677685709.442539,9.974402618,1.017680407,-0.001745329,0,0,0.058839899,-9.698776245,0.519752443
1677685709.461769,1677685709.4475365,9.974082374,1.017680407,-0.003490658,0.001745329,0,0.058839899,-9.708582878,0.519752443
1677685709.4621828,1677685709.452535,9.973762131,1.017680407,-0.003490658,0.003490658,-0.001745329,0.058839899,-9.708582878,0.519752443
1677685709.4657438,1677685709.457532,9.973441887,1.017680407,-0.001745329,0.001745329,0,0.06864655,-9.718389511,0.519752443
1677685709.464713,1677685709.4617815,9.973121643,1.017680407,-0.001745329,0.000872665,0,0.06864655,-9.718389511,0.519752443
1677685709.4699326,1677685709.4625304,9.97315979,1.017680407,-0.001745329,0,0,0.06864655,-9.718389511,0.519752443
1677685709.4733346,1677685709.4675276,9.973197937,1.017680407,0,0,0,0.06864655,-9.718389511,0.519752443
1677685709.4746218,1677685709.4725258,9.973236084,1.017680407,0,0.003490658,0,0.06864655,-9.718389511,0.519752443
1677685709.480367,1677685709.477523,9.973274231,1.017680407,-0.003490658,0.005235988,-0.001745329,0.06864655,-9.708582878,0.529559076
1677685709.4801035,1677685709.4793382,9.973312378,1.017680407,-0.001745329,0.004363323,-0.000872665,0.06864655,-9.708582878,0.529559076
1677685709.4837315,1677685709.4825215,9.974275971,1.017680407,0,0.003490658,0,0.06864655,-9.708582878,0.529559076
1677685709.489282,1677685709.4875195,9.975239563,1.017680407,0,0,0,0.06864655,-9.698776245,0.519752443
1677685709.493597,1677685709.4925172,9.976203156,1.017680407,-0.001745329,0.001745329,0,0.06864655,-9.698776245,0.519752443
1677685709.4993684,1677685709.4975152,9.977166748,1.017680407,-0.003490658,0,0,0.078453198,-9.698776245,0.519752443
1677685709.4990814,1677685709.4987097,9.978130341,1.017680407,-0.002617994,0,0,0.078453198,-9.698776245,0.519752443
1677685709.5048027,1677685709.5025127,9.977019501,1.017680407,-0.001745329,0,0,0.078453198,-9.698776245,0.519752443
1677685709.5086937,1677685709.5075111,9.975908661,1.017680407,-0.001745329,0.001745329,0,0.078453198,-9.718389511,0.50994581
1677685709.5144,1677685709.512509,9.974797821,1.017680407,-0.005235988,0.001745329,0,0.078453198,-9.718389511,0.50994581
1677685709.518748,1677685709.5175066,9.973686981,1.017680407,0,0.003490658,-0.001745329,0.058839899,-9.718389511,0.519752443
1677685709.5201342,1677685709.5187275,9.972576141,1.017680407,-0.000872665,0.004363323,-0.000872665,0.058839899,-9.718389511,0.519752443
1677685709.5239215,1677685709.522504,9.973713493,1.017680407,-0.001745329,0.005235988,0,0.058839899,-9.718389511,0.519752443
1677685709.528764,1677685709.527502,9.974850845,1.017680407,0,0,-0.001745329,0.06864655,-9.718389511,0.519752443
1677685709.5339384,1677685709.5325005,9.975988197,1.017680407,-0.001745329,-0.001745329,0.001745329,0.06864655,-9.718389511,0.519752443
1677685709.5400834,1677685709.5374978,9.977125549,1.017680407,-0.006981317,-0.005235988,0,0.078453198,-9.708582878,0.529559076
1677685709.540044,1677685709.5387511,9.978262901,1.017680407,-0.005235988,-0.002617994,-0.000872665,0.078453198,-9.708582878,0.529559076
1677685709.544528,1677685709.542496,9.977048874,1.017680407,-0.003490658,0,-0.001745329,0.078453198,-9.708582878,0.529559076
1677685709.5488515,1677685709.5474944,9.975834846,1.017680407,-0.001745329,0,0.001745329,0.078453198,-9.698776245,0.519752443
1677685709.5542953,1677685709.5524917,9.974620819,1.017680407,0,0,0,0.078453198,-9.698776245,0.519752443
1677685709.558944,1677685709.557489,9.973406791,1.017680407,0,0,0,0.058839899,-9.708582878,0.529559076
1677685709.5592034,1677685709.558755,9.972192764,1.017680407,0,-0.000872665,0,0.058839899,-9.708582878,0.529559076
1677685709.5635564,1677685709.5624874,9.972447395,1.017680407,0,-0.001745329,0,0.058839899,-9.708582878,0.529559076
1677685709.5695815,1677685709.5674846,9.972702026,1.017680407,-0.003490658,-0.001745329,-0.001745329,0.06864655,-9.708582878,0.519752443
1677685709.5738597,1677685709.5724828,9.972956657,1.017680407,0,0,0.001745329,0.06864655,-9.708582878,0.519752443
1677685709.5783987,1677685709.5774813,9.973211288,1.017680407,-0.001745329,0.001745329,0,0.058839899,-9.708582878,0.50994581
1677685709.5794902,1677685709.5788136,9.973465919,1.017680407,-0.000872665,0.001745329,0,0.058839899,-9.708582878,0.50994581
1677685709.583565,1677685709.5824783,9.973337745,1.017680407,0,0.001745329,0,0.058839899,-9.708582878,0.50994581
1677685709.588683,1677685709.5874767,9.973209571,1.017680407,-0.003490658,0,0,0.06864655,-9.718389511,0.50994581
1677685709.5934668,1677685709.5924742,9.973081398,1.017680407,-0.001745329,0,0,0.06864655,-9.718389511,0.50994581
1677685709.599408,1677685709.5974724,9.972953224,1.017680407,-0.003490658,0,0,0.06864655,-9.708582878,0.529559076
1677685709.5997791,1677685709.598709,9.97282505,1.017680407,-0.001745329,0.000872665,0,0.06864655,-9.708582878,0.529559076
1677685709.6040304,1677685709.6024706,9.972609329,1.017680407,0,0.001745329,0,0.06864655,-9.708582878,0.529559076
1677685709.610744,1677685709.607468,9.972393608,1.017680407,-0.003490658,0.001745329,0,0.049033247,-9.708582878,0.519752443
1677685709.613755,1677685709.6124663,9.972177887,1.017680407,0,0.001745329,0,0.049033247,-9.708582878,0.519752443
1677685709.6188164,1677685709.6174636,9.971962166,1.017680407,-0.003490658,0,0,0.06864655,-9.728196144,0.50994581
1677685709.6195438,1677685709.618706,9.971746445,1.017680407,-0.002617994,0.001745329,0,0.06864655,-9.728196144,0.50994581
1677685709.623299,1677685709.622462,9.973021126,1.017680407,-0.001745329,0.003490658,0,0.06864655,-9.728196144,0.50994581
1677685709.628356,1677685709.6274593,9.974295807,1.017680407,0,0,0,0.06864655,-9.708582878,0.50994581
1677685709.6333263,1677685709.6324575,9.975570488,1.017680407,0,0.001745329,0.001745329,0.06864655,-9.708582878,0.50994581
1677685709.6386423,1677685709.6374547,9.976845169,1.017680407,0,0,0,0.078453198,-9.718389511,0.529559076
1677685709.6397138,1677685709.638737,9.97811985,1.017680407,0,0,0,0.078453198,-9.718389511,0.529559076
1677685709.644154,1677685709.6424532,9.977702331,1.017680407,0,0,0,0.078453198,-9.718389511,0.529559076
1677685709.6487906,1677685709.6474514,9.977284813,1.017680407,0.001745329,0,0,0.078453198,-9.708582878,0.529559076
1677685709.6535492,1677685709.652449,9.976867294,1.017680407,0,0.001745329,0,0.078453198,-9.708582878,0.529559076
1677685709.6586285,1677685709.6574469,9.976449776,1.017680407,-0.001745329,0.008726646,0,0.058839899,-9.698776245,0.519752443
1677685709.659345,1677685709.6588178,9.976032257,1.017680407,-0.000872665,0.006108652,0,0.058839899,-9.698776245,0.519752443
1677685709.6635957,1677685709.662444,9.975884247,1.017680407,0,0.003490658,0,0.058839899,-9.698776245,0.519752443
1677685709.6685486,1677685709.6674423,9.975736237,1.017680407,-0.001745329,-0.005235988,0.001745329,0.058839899,-9.698776245,0.50994581
1677685709.6737325,1677685709.6724398,9.975588226,1.017680407,0,0,0,0.058839899,-9.698776245,0.50994581
1677685709.6788735,1677685709.677438,9.975440216,1.017680407,-0.001745329,0,0,0.078453198,-9.718389511,0.519752443
1677685709.6796486,1677685709.678847,9.975292206,1.017680407,-0.001745329,0.000872665,0.000872665,0.078453198,-9.718389511,0.519752443
1677685709.6833122,1677685709.6824353,9.974397087,1.017680407,-0.001745329,0.001745329,0.001745329,0.078453198,-9.718389511,0.519752443
1677685709.6883953,1677685709.6874335,9.973501968,1.017680407,-0.001745329,-0.001745329,0,0.06864655,-9.708582878,0.50994581
1677685709.6935704,1677685709.6924307,9.97260685,1.017680407,-0.001745329,-0.003490658,0,0.06864655,-9.708582878,0.50994581
1677685709.6983645,1677685709.6974292,9.971711731,1.017680407,0,-0.001745329,-0.001745329,0.06864655,-9.698776245,0.50994581
1677685709.699571,1677685709.698732,9.970816612,1.017680407,-0.001745329,0.001745329,-0.000872665,0.06864655,-9.698776245,0.50994581
1677685709.7034082,1677685709.7024274,9.971304893,1.017680407,-0.003490658,0.005235988,0,0.06864655,-9.698776245,0.50994581
1677685709.7090707,1677685709.7074249,9.971793174,1.017680407,-0.003490658,0.001745329,0,0.06864655,-9.698776245,0.519752443
1677685709.7137296,1677685709.712423,9.972281456,1.017680407,0,0,0,0.06864655,-9.698776245,0.519752443
1677685709.718528,1677685709.7174203,9.972769737,1.017680407,-0.001745329,0.001745329,0,0.058839899,-9.708582878,0.50994581
1677685709.721982,1677685709.7187498,9.973258018,1.017680407,-0.002617994,0.001745329,0,0.058839899,-9.708582878,0.50994581
1677685709.7236147,1677685709.7224188,9.973611068,1.017680407,-0.003490658,0.001745329,0,0.058839899,-9.708582878,0.50994581
1677685709.7287903,1677685709.727416,9.973964119,1.017680407,-0.003490658,0,0,0.078453198,-9.708582878,0.519752443
1677685709.733484,1677685709.7324142,9.974317169,1.017680407,-0.001745329,0,0,0.078453198,-9.708582878,0.519752443
1677685709.738703,1677685709.7374115,9.97467022,1.017680407,0,0,0.001745329,0.058839899,-9.708582878,0.519752443
1677685709.7399633,1677685709.738709,9.97502327,1.017680407,0,0.001745329,0.000872665,0.058839899,-9.708582878,0.519752443
1677685709.7433026,1677685709.74241,9.975140953,1.017680407,0,0.003490658,0,0.058839899,-9.708582878,0.519752443
1677685709.7484026,1677685709.7474072,9.975258637,1.017680407,0,0.001745329,-0.001745329,0.058839899,-9.708582878,0.50994581
1677685709.7533514,1677685709.7524054,9.97537632,1.017680407,-0.003490658,0,0,0.058839899,-9.708582878,0.50994581
1677685709.7588646,1677685709.757404,9.975494004,1.017680407,-0.001745329,-0.001745329,0,0.06864655,-9.698776245,0.519752443
1677685709.759329,1677685709.7587285,9.975611687,1.017680407,-0.003490658,-0.001745329,0,0.06864655,-9.698776245,0.519752443
1677685709.7634149,1677685709.7624009,9.975611687,1.017680407,-0.005235988,-0.001745329,0,0.06864655,-9.698776245,0.519752443
1677685709.7685866,1677685709.767399,9.975611687,1.017680407,-0.005235988,0.003490658,0,0.06864655,-9.708582878,0.529559076
1677685709.7736187,1677685709.7723975,9.975611687,1.017680407,0,0,0,0.06864655,-9.708582878,0.529559076
1677685709.7787957,1677685709.7773948,9.975611687,1.017680407,-0.005235988,0,0,0.078453198,-9.708582878,0.519752443
1677685709.7794158,1677685709.7788134,9.975611687,1.017680407,-0.003490659,0,0,0.078453198,-9.708582878,0.519752443
1677685709.7834487,1677685709.782393,9.975611687,1.017680407,-0.001745329,0,0,0.078453198,-9.708582878,0.519752443
1677685709.788555,1677685709.7873905,9.975611687,1.017680407,-0.001745329,-0.003490658,0.003490658,0.06864655,-9.718389511,0.519752443
1677685709.7936268,1677685709.792389,9.975611687,1.017680407,-0.003490658,0,0,0.06864655,-9.718389511,0.519752443
1677685709.7988153,1677685709.797386,9.975611687,1.017680407,0,0,0,0.078453198,-9.708582878,0.50994581
1677685709.7999055,1677685709.798761,9.975611687,1.017680407,0,0.001745329,0,0.078453198,-9.708582878,0.50994581
1677685709.8035443,1677685709.8023844,9.975611687,1.017680407,0,0.003490658,0,0.078453198,-9.708582878,0.50994581
1677685709.808532,1677685709.8073814,9.975611687,1.017680407,0,0.005235988,0,0.078453198,-9.698776245,0.519752443
1677685709.813302,1677685709.8123798,9.975611687,1.017680407,0,0,0,0.078453198,-9.698776245,0.519752443
1677685709.8187628,1677685709.817377,9.975611687,1.017680407,0,0.003490658,0,0.06864655,-9.708582878,0.519752443
1677685709.8194516,1677685709.8187718,9.975611687,1.017680407,-0.002617994,0.001745329,0,0.06864655,-9.708582878,0.519752443
1677685709.823824,1677685709.8223755,9.975611687,1.017680407,-0.005235988,0,0,0.06864655,-9.708582878,0.519752443
1677685709.8290095,1677685709.8273735,9.975611687,1.017680407,0,0.001745329,-0.001745329,0.06864655,-9.708582878,0.519752443
1677685709.8334703,1677685709.832371,9.975611687,1.017680407,-0.001745329,0,0,0.06864655,-9.708582878,0.519752443
1677685709.8386998,1677685709.8373692,9.975611687,1.017680407,-0.001745329,0,0,0.058839899,-9.708582878,0.519752443
1677685709.8393316,1677685709.8387868,9.975611687,1.017680407,-0.000872665,-0.000872665,0,0.058839899,-9.708582878,0.519752443
1677685709.843995,1677685709.8423665,9.975611687,1.017680407,0,-0.001745329,0,0.058839899,-9.708582878,0.519752443
1677685709.8489,1677685709.847365,9.975611687,1.017680407,0,0.001745329,0,0.06864655,-9.708582878,0.519752443
1677685709.853647,1677685709.852362,9.975611687,1.017680407,-0.001745329,0,0,0.06864655,-9.708582878,0.519752443
1677685709.8584712,1677685709.8573604,9.975611687,1.017680407,-0.003490658,0.001745329,0.003490658,0.06864655,-9.708582878,0.529559076
1677685709.8593743,1677685709.8587034,9.975611687,1.017680407,-0.001745329,0.003490658,0.000872665,0.06864655,-9.708582878,0.529559076
1677685709.8634963,1677685709.862358,9.975611687,1.017680407,0,0.005235988,-0.001745329,0.06864655,-9.708582878,0.529559076
1677685709.868384,1677685709.8673558,9.975611687,1.017680407,-0.001745329,0.001745329,0,0.06864655,-9.708582878,0.519752443
1677685709.8732889,1677685709.8723533,9.975611687,1.017680407,0,0.005235988,-0.001745329,0.06864655,-9.708582878,0.519752443
1677685709.8786578,1677685709.8773515,9.975611687,1.017680407,0,0.003490658,0,0.058839899,-9.698776245,0.519752443
1677685709.8795414,1677685709.8787344,9.975611687,1.017680407,-0.000872665,0.001745329,0,0.058839899,-9.698776245,0.519752443
1677685709.8839326,1677685709.8823483,9.975611687,1.017680407,-0.001745329,0,0,0.058839899,-9.698776245,0.519752443
1677685709.8886695,1677685709.887347,9.975611687,1.017680407,0,0,0,0.078453198,-9.688969612,0.539365709
1677685709.8938203,1677685709.8923452,9.975611687,1.017680407,0,0,0,0.078453198,-9.688969612,0.539365709
1677685709.8984332,1677685709.8973424,9.975611687,1.017680407,-0.001745329,0.003490658,0,0.078453198,-9.708582878,0.519752443
1677685709.899763,1677685709.898744,9.975611687,1.017680407,-0.001745329,0.002617994,0,0.078453198,-9.708582878,0.519752443
1677685709.9034016,1677685709.902341,9.975611687,1.017680407,-0.001745329,0.001745329,0,0.078453198,-9.708582878,0.519752443
1677685709.9086769,1677685709.907338,9.975611687,1.017680407,-0.001745329,0,0.001745329,0.078453198,-9.708582878,0.519752443
1677685709.9135582,1677685709.9123363,9.975611687,1.017680407,0,-0.005235988,0,0.078453198,-9.708582878,0.519752443
1677685709.9186926,1677685709.9173338,9.975611687,1.017680407,-0.003490658,0.001745329,0,0.078453198,-9.698776245,0.529559076
1677685709.919625,1677685709.9187436,9.975611687,1.017680407,-0.003490658,0.002617994,0,0.078453198,-9.698776245,0.529559076
1677685709.9237473,1677685709.9223318,9.975611687,1.017680407,-0.003490658,0.003490658,0,0.078453198,-9.698776245,0.529559076
1677685709.928513,1677685709.927329,9.975611687,1.017680407,-0.001745329,0.003490658,0,0.06864655,-9.708582878,0.519752443
1677685709.9336145,1677685709.9323275,9.975611687,1.017680407,0.001745329,0,0,0.06864655,-9.708582878,0.519752443
1677685709.9387226,1677685709.9373257,9.975611687,1.017680407,-0.001745329,0.001745329,0.001745329,0.078453198,-9.708582878,0.50994581
1677685709.94006,1677685709.9387293,9.975611687,1.017680407,-0.000872665,0.000872665,0.000872665,0.078453198,-9.708582878,0.50994581
1677685709.9436114,1677685709.942323,9.975611687,1.017680407,0,0,0,0.078453198,-9.708582878,0.50994581
1677685709.9485157,1677685709.9473214,9.975611687,1.017680407,-0.001745329,0,0,0.078453198,-9.708582878,0.50994581
1677685709.9538035,1677685709.952319,9.975611687,1.017680407,0,0.005235988,0,0.078453198,-9.708582878,0.50994581
1677685709.958393,1677685709.9573169,9.975611687,1.017680407,-0.003490658,0,0,0.058839899,-9.708582878,0.529559076
1677685709.9594202,1677685709.9587407,9.975611687,1.017680407,-0.002617994,0,0.000872665,0.058839899,-9.708582878,0.529559076
1677685709.963733,1677685709.962315,9.975611687,1.017680407,-0.001745329,0,0.001745329,0.058839899,-9.708582878,0.529559076
1677685709.9685147,1677685709.967312,9.975611687,1.017680407,-0.001745329,-0.001745329,-0.001745329,0.06864655,-9.698776245,0.519752443
1677685709.9737213,1677685709.9723103,9.975611687,1.017680407,-0.003490658,0,0.001745329,0.06864655,-9.698776245,0.519752443
1677685709.9785397,1677685709.9773078,9.975611687,1.017680407,-0.001745329,0.001745329,0,0.06864655,-9.718389511,0.529559076
1677685709.979417,1677685709.9787333,9.975611687,1.017680407,-0.002617994,0.001745329,0,0.06864655,-9.718389511,0.529559076
1677685709.9836347,1677685709.982306,9.975611687,1.017680407,-0.003490658,0.001745329,0,0.06864655,-9.718389511,0.529559076
1677685709.9885304,1677685709.9873035,9.975611687,1.017680407,0,0,0,0.06864655,-9.708582878,0.50994581
1677685709.9940772,1677685709.992302,9.975611687,1.017680407,-0.001745329,0,0,0.06864655,-9.708582878,0.50994581
1677685709.9984848,1677685709.9972992,9.975611687,1.017680407,0,0,0,0.078453198,-9.708582878,0.519752443
1677685709.999377,1677685709.9987106,9.975611687,1.017680407,-0.000872665,0.000872665,-0.000872665,0.078453198,-9.708582878,0.519752443
1677685710.0032651,1677685710.0022972,9.975611687,1.017680407,-0.001745329,0.001745329,-0.001745329,0.078453198,-9.708582878,0.519752443
1677685710.0085237,1677685710.0072944,9.975611687,1.017680407,0,0,0,0.058839899,-9.708582878,0.529559076
1677685710.0138147,1677685710.0122926,9.975611687,1.017680407,-0.003490658,0,-0.001745329,0.058839899,-9.708582878,0.529559076
1677685710.0185652,1677685710.01729,9.975611687,1.017680407,-0.003490658,0,0,0.06864655,-9.708582878,0.519752443
1677685710.019694,1677685710.01876,9.975611687,1.017680407,-0.003490658,0,0,0.06864655,-9.708582878,0.519752443
1677685710.0235074,1677685710.0222883,9.975611687,1.017680407,-0.003490658,0,0,0.06864655,-9.708582878,0.519752443
1677685710.0312903,1677685710.027286,9.975611687,1.017680407,-0.001745329,0.003490658,-0.001745329,0.078453198,-9.708582878,0.529559076
1677685710.034958,1677685710.0322895,9.975611687,1.017680407,-0.003490658,0,0,0.078453198,-9.708582878,0.529559076
1677685710.038523,1677685710.0372932,9.975611687,1.017680407,-0.006981317,0,0,0.078453198,-9.718389511,0.519752443
1677685710.039441,1677685710.03871,9.975611687,1.017680407,-0.004363323,0,0,0.078453198,-9.718389511,0.519752443
1677685710.0438943,1677685710.0422957,9.975611687,1.017680407,-0.001745329,0,0,0.078453198,-9.718389511,0.519752443
1677685710.0514534,1677685710.0472996,9.975611687,1.017680407,-0.001745329,0,0.001745329,0.078453198,-9.708582878,0.529559076
1677685710.0605578,1677685710.0523026,9.975611687,1.017680407,-0.001745329,0,0,0.078453198,-9.708582878,0.529559076
1677685710.061958,1677685710.057306,9.975611687,1.017680407,-0.001745329,-0.001745329,0,0.06864655,-9.708582878,0.519752443
1677685710.0619273,1677685710.0589938,9.975611687,1.017680407,-0.001745329,-0.000872665,0,0.06864655,-9.708582878,0.519752443
1677685710.065264,1677685710.0623088,9.975611687,1.017680407,-0.001745329,0,0,0.06864655,-9.708582878,0.519752443
1677685710.070665,1677685710.0673125,9.975611687,1.017680407,0.001745329,0,0.001745329,0.058839899,-9.708582878,0.50994581
1677685710.0836253,1677685710.0723164,9.975611687,1.017680407,-0.003490658,0,-0.001745329,0.058839899,-9.708582878,0.519752443
1677685710.085838,1677685710.0773191,9.975611687,1.017680407,-0.001745329,0.001745329,0.001745329,0.058839899,-9.708582878,0.519752443
1677685710.0819,1677685710.0792823,9.975611687,1.017680407,-0.000872665,0.002617994,0.000872665,0.068646549,-9.708582878,0.519752443
1677685710.086556,1677685710.0823226,9.975611687,1.017680407,0,0.003490658,0,0.078453198,-9.708582878,0.519752443
1677685710.0880806,1677685710.087325,9.975611687,1.017680407,-0.005235988,-0.001745329,-0.001745329,0.078453198,-9.708582878,0.519752443
1677685710.0930605,1677685710.0923295,9.975611687,1.017680407,-0.003490658,-0.001745329,0,0.078453198,-9.708582878,0.519752443
1677685710.0983512,1677685710.097332,9.975611687,1.017680407,0,0,0,0.078453198,-9.708582878,0.529559076
1677685710.099936,1677685710.0987809,9.975611687,1.017680407,-0.002617994,0,0,0.078453198,-9.708582878,0.529559076
1677685710.1047163,1677685710.1023357,9.975611687,1.017680407,-0.005235988,0,0,0.078453198,-9.708582878,0.529559076
1677685710.1097488,1677685710.1073396,9.975611687,1.017680407,-0.001745329,0,0,0.06864655,-9.698776245,0.519752443
1677685710.1134498,1677685710.1123424,9.975611687,1.017680407,0,0,0,0.06864655,-9.698776245,0.519752443
1677685710.118488,1677685710.1173463,9.975611687,1.017680407,-0.005235988,0,0,0.06864655,-9.708582878,0.519752443
1677685710.1202345,1677685710.1187065,9.975611687,1.017680407,-0.002617994,0.000872665,0,0.06864655,-9.708582878,0.519752443
1677685710.1233983,1677685710.1223488,9.975611687,1.017680407,0,0.001745329,0,0.06864655,-9.708582878,0.519752443
1677685710.1286955,1677685710.1273527,9.975611687,1.017680407,-0.005235988,0.006981317,0,0.049033247,-9.708582878,0.519752443
1677685710.1338215,1677685710.1323557,9.975611687,1.017680407,-0.001745329,0,0,0.049033247,-9.708582878,0.519752443
1677685710.1409135,1677685710.1373594,9.975611687,1.017680407,-0.003490658,0,0,0.06864655,-9.708582878,0.519752443
1677685710.139861,1677685710.1386938,9.975611687,1.017680407,-0.002617994,0,0,0.06864655,-9.708582878,0.529559076
1677685710.1611078,1677685710.142362,9.975611687,1.017680407,-0.001745329,0,0,0.06864655,-9.708582878,0.539365709
1677685710.1619112,1677685710.1473658,9.975611687,1.017680407,-0.005235988,0,-0.003490658,0.06864655,-9.708582878,0.539365709
1677685710.1622005,1677685710.1523695,9.975611687,1.017680407,0,0,0,0.06864655,-9.708582878,0.539365709
1677685710.1629329,1677685710.1573727,9.975611687,1.017680407,0,0,0,0.06864655,-9.708582878,0.539365709
1677685710.1604617,1677685710.1587565,9.975611687,1.017680407,-0.000872665,0.000872665,0,0.06864655,-9.708582878,0.539365709
1677685710.165166,1677685710.1623762,9.975611687,1.017680407,-0.001745329,0.001745329,0,0.06864655,-9.708582878,0.539365709
1677685710.1689792,1677685710.1673791,9.975611687,1.017680407,-0.003490658,0.001745329,0,0.078453198,-9.708582878,0.519752443
1677685710.1733372,1677685710.172383,9.975611687,1.017680407,-0.005235988,0,0,0.078453198,-9.708582878,0.519752443
1677685710.1782238,1677685710.1773858,9.975611687,1.017680407,-0.001745329,-0.003490658,0,0.058839899,-9.698776245,0.50994581
1677685710.182044,1677685710.178721,9.975611687,1.017680407,-0.002617994,-0.001745329,0,0.068646549,-9.703679562,0.50994581
1677685710.185449,1677685710.1823895,9.975611687,1.017680407,-0.003490658,0,0,0.078453198,-9.708582878,0.50994581
1677685710.1886911,1677685710.1873925,9.975611687,1.017680407,0,0,0,0.078453198,-9.708582878,0.50994581
1677685710.1932988,1677685710.1923964,9.975611687,1.017680407,-0.005235988,0,0,0.078453198,-9.708582878,0.50994581
1677685710.1983538,1677685710.1974,9.975611687,1.017680407,-0.005235988,-0.003490658,0,0.078453198,-9.708582878,0.50994581
1677685710.1994448,1677685710.1987095,9.975611687,1.017680407,-0.004363323,-0.001745329,0,0.068646549,-9.708582878,0.519752443
1677685710.2200377,1677685710.202403,9.975611687,1.017680407,-0.003490658,0,0,0.058839899,-9.708582878,0.529559076
1677685710.2204163,1677685710.207407,9.975611687,1.017680407,0,0,0.001745329,0.058839899,-9.708582878,0.529559076
1677685710.2224033,1677685710.21241,9.975611687,1.017680407,-0.003490658,0,0,0.058839899,-9.708582878,0.529559076
1677685710.222726,1677685710.2174137,9.975611687,1.017680407,-0.001745329,0.003490658,-0.001745329,0.058839899,-9.708582878,0.529559076
1677685710.2199652,1677685710.2187636,9.975611687,1.017680407,-0.003490658,0.001745329,-0.000872665,0.058839899,-9.708582878,0.534462393
1677685710.224745,1677685710.2224164,9.975601197,1.017680407,-0.005235988,0,0,0.058839899,-9.708582878,0.539365709
1677685710.2287047,1677685710.2274203,9.975590706,1.017680407,-0.001745329,0,0,0.058839899,-9.708582878,0.539365709
1677685710.2340653,1677685710.2324233,9.975580216,1.017680407,-0.005235988,0.001745329,0,0.058839899,-9.708582878,0.539365709
1677685710.240477,1677685710.2374272,9.975569725,1.017680407,0,-0.003490658,0.001745329,0.06864655,-9.708582878,0.529559076
1677685710.2404535,1677685710.238689,9.975559235,1.017680407,-0.000872665,-0.001745329,0.000872665,0.06864655,-9.708582878,0.529559076
1677685710.2458675,1677685710.2424302,9.975580597,1.017680407,-0.001745329,0,0,0.06864655,-9.708582878,0.529559076
1677685710.2505302,1677685710.247434,9.975601959,1.017680407,-0.003490658,0.001745329,0,0.078453198,-9.698776245,0.50994581
1677685710.2645738,1677685710.252438,9.975623322,1.017680407,0,0,-0.001745329,0.06864655,-9.698776245,0.519752443
1677685710.2654006,1677685710.257441,9.975644684,1.017680407,0,0.003490658,0,0.06864655,-9.698776245,0.519752443
1677685710.2645023,1677685710.2586925,9.975666046,1.017680407,-0.002617994,0.001745329,-0.000872665,0.06864655,-9.703679562,0.52465576
1677685710.2660608,1677685710.2624447,9.975634384,1.017680407,-0.005235988,0,-0.001745329,0.06864655,-9.708582878,0.529559076
1677685710.2699556,1677685710.2674477,9.975602722,1.017680407,0,0.001745329,0,0.06864655,-9.708582878,0.529559076
1677685710.2795136,1677685710.2724516,9.97557106,1.017680407,-0.003490658,0.001745329,0,0.06864655,-9.708582878,0.529559076
1677685710.281163,1677685710.2774546,9.975539398,1.017680407,-0.003490658,0.001745329,0,0.06864655,-9.708582878,0.519752443
1677685710.279452,1677685710.2786963,9.975507736,1.017680407,-0.000872665,0.000872665,0,0.06864655,-9.718389511,0.52465576
1677685710.284808,1677685710.2824583,9.974932861,1.017680407,0.001745329,0,0,0.06864655,-9.728196144,0.529559076
1677685710.2895656,1677685710.2874625,9.974357986,1.017680407,-0.001745329,0,0,0.06864655,-9.728196144,0.529559076
1677685710.294535,1677685710.2924654,9.973783112,1.017680407,0.001745329,0.003490658,0,0.06864655,-9.728196144,0.529559076
1677685710.2987175,1677685710.2974694,9.973208237,1.017680407,0,0.003490658,0,0.088259846,-9.718389511,0.519752443
1677685710.2999246,1677685710.298718,9.972633362,1.017680407,-0.000872665,0.002617994,0,0.088259846,-9.718389511,0.519752443
1677685710.3035417,1677685710.3024724,9.973194122,1.017680407,-0.001745329,0.001745329,0,0.088259846,-9.718389511,0.519752443
1677685710.3088868,1677685710.3074763,9.973754883,1.017680407,0,0,0,0.06864655,-9.708582878,0.519752443
1677685710.3140726,1677685710.3124793,9.974315643,1.017680407,-0.001745329,-0.001745329,0,0.06864655,-9.708582878,0.519752443
1677685710.3201556,1677685710.3174832,9.974876404,1.017680407,0,0.001745329,0,0.06864655,-9.708582878,0.519752443
1677685710.319837,1677685710.3187275,9.975437164,1.017680407,-0.000872665,0.000872665,0,0.06864655,-9.708582878,0.519752443
1677685710.326126,1677685710.3224862,9.975518799,1.017680407,-0.001745329,0,0,0.06864655,-9.708582878,0.519752443
1677685710.3302853,1677685710.3274903,9.975600433,1.017680407,-0.005235988,0,0,0.06864655,-9.708582878,0.519752443
1677685710.3362074,1677685710.332494,9.975682068,1.017680407,-0.001745329,-0.001745329,0.001745329,0.06864655,-9.708582878,0.519752443
1677685710.3384588,1677685710.337497,9.975763702,1.017680407,-0.001745329,0.001745329,-0.001745329,0.058839899,-9.718389511,0.519752443
1677685710.3400314,1677685710.3388553,9.975845337,1.017680407,-0.002617994,0.000872665,-0.000872665,0.058839899,-9.718389511,0.519752443
1677685710.343945,1677685710.3425012,9.976089287,1.017680407,-0.003490658,0,0,0.058839899,-9.718389511,0.519752443
1677685710.3483768,1677685710.347504,9.976333237,1.017680407,-0.001745329,0,0,0.06864655,-9.708582878,0.519752443
1677685710.353765,1677685710.3525083,9.976577186,1.017680407,-0.003490658,0,0,0.06864655,-9.708582878,0.519752443
1677685710.3584232,1677685710.3575113,9.976821136,1.017680407,-0.001745329,-0.003490658,0.001745329,0.078453198,-9.698776245,0.50994581
1677685710.359346,1677685710.3587208,9.977065086,1.017680407,-0.004363323,-0.001745329,0.000872665,0.078453198,-9.698776245,0.50994581
1677685710.365442,1677685710.3625152,9.976591873,1.017680407,-0.006981317,0,0,0.078453198,-9.698776245,0.50994581
1677685710.3683913,1677685710.3675182,9.97611866,1.017680407,-0.001745329,-0.003490658,0,0.06864655,-9.698776245,0.50994581
1677685710.3737075,1677685710.3725224,9.975645446,1.017680407,-0.003490658,0.005235988,0,0.06864655,-9.698776245,0.50994581
1677685710.3784373,1677685710.3775263,9.975172233,1.017680407,-0.001745329,0,0,0.078453198,-9.698776245,0.50994581
1677685710.3795123,1677685710.3787358,9.97469902,1.017680407,-0.000872665,0,-0.002617994,0.078453198,-9.698776245,0.50994581
1677685710.3834832,1677685710.3825293,9.974711227,1.017680407,0,0,-0.005235988,0.078453198,-9.698776245,0.50994581
1677685710.388442,1677685710.3875337,9.974723434,1.017680407,-0.003490658,0,0,0.078453198,-9.708582878,0.529559076
1677685710.3952246,1677685710.3925364,9.974735642,1.017680407,-0.001745329,0,0,0.058839899,-9.708582878,0.519752443
1677685710.4005315,1677685710.3975406,9.974747849,1.017680407,0,0,0,0.058839899,-9.708582878,0.519752443
1677685710.4007995,1677685710.3987567,9.974760056,1.017680407,-0.001745329,-0.003490659,0,0.058839899,-9.708582878,0.52465576
1677685710.4061086,1677685710.4025435,9.974887848,1.017680407,-0.003490658,-0.006981317,0,0.058839899,-9.708582878,0.529559076
1677685710.4082348,1677685710.4075477,9.97501564,1.017680407,-0.001745329,0,0,0.058839899,-9.708582878,0.529559076
1677685710.413375,1677685710.4125507,9.975143433,1.017680407,-0.003490658,0,0,0.058839899,-9.708582878,0.529559076
1677685710.4198732,1677685710.4175546,9.975271225,1.017680407,-0.005235988,0,0,0.06864655,-9.708582878,0.50994581
1677685710.4197867,1677685710.4187353,9.975399017,1.017680407,-0.004363323,0,0,0.06864655,-9.708582878,0.50994581
1677685710.4236052,1677685710.4225588,9.975281524,1.017680407,-0.003490658,0,0,0.06864655,-9.708582878,0.50994581
1677685710.4286478,1677685710.427562,9.975164032,1.017680407,0,-0.003490658,0.001745329,0.078453198,-9.708582878,0.519752443
1677685710.4340782,1677685710.4325662,9.975046539,1.017680407,0,0.001745329,-0.001745329,0.078453198,-9.708582878,0.519752443
1677685710.4383185,1677685710.4375691,9.974929047,1.017680407,-0.001745329,0.001745329,0,0.06864655,-9.708582878,0.519752443
1677685710.439674,1677685710.4387257,9.974811554,1.017680407,-0.001745329,0.000872665,0,0.06864655,-9.708582878,0.519752443
1677685710.4439435,1677685710.4425733,9.974417496,1.017680407,-0.001745329,0,0,0.06864655,-9.708582878,0.519752443
1677685710.4486494,1677685710.4475763,9.974023438,1.017680407,-0.001745329,0,0,0.078453198,-9.708582878,0.519752443
1677685710.4535146,1677685710.4525807,9.973629379,1.017680407,-0.001745329,0,0,0.078453198,-9.708582878,0.519752443
1677685710.458264,1677685710.4575837,9.973235321,1.017680407,-0.005235988,0,0,0.06864655,-9.698776245,0.50994581
1677685710.4594312,1677685710.4587293,9.972841263,1.017680407,-0.003490659,0,0,0.06864655,-9.698776245,0.50994581
1677685710.4637098,1677685710.4625876,9.972996521,1.017680407,-0.001745329,0,0,0.06864655,-9.698776245,0.50994581
1677685710.468619,1677685710.4675918,9.973151779,1.017680407,-0.001745329,0,0,0.06864655,-9.698776245,0.519752443
1677685710.4734728,1677685710.472595,9.973307038,1.017680407,0,0,0,0.06864655,-9.698776245,0.519752443
1677685710.4785352,1677685710.4775991,9.973462296,1.017680407,0,0,0,0.06864655,-9.708582878,0.529559076
1677685710.4795763,1677685710.4787345,9.973617554,1.017680407,0,0.000872665,0.000872665,0.06864655,-9.703679562,0.52465576
1677685710.485798,1677685710.4826024,9.973731613,1.017680407,0,0.001745329,0.001745329,0.06864655,-9.698776245,0.519752443
1677685710.4890783,1677685710.4876063,9.973845673,1.017680407,0,0.001745329,-0.001745329,0.06864655,-9.698776245,0.519752443
1677685710.4944973,1677685710.4926095,9.973959732,1.017680407,0,0.005235988,0,0.078453198,-9.708582878,0.529559076
1677685710.500569,1677685710.497614,9.974073792,1.017680407,-0.001745329,0,0.001745329,0.078453198,-9.708582878,0.529559076
1677685710.5020278,1677685710.4998398,9.974187851,1.017680407,-0.000872665,0,0.000872665,0.068646549,-9.713486195,0.519752443
1677685710.5039968,1677685710.5026166,9.974474907,1.017680407,0,0,0,0.058839899,-9.718389511,0.50994581
1677685710.5083933,1677685710.507621,9.974761963,1.017680407,0,0,0,0.058839899,-9.718389511,0.50994581
1677685710.5133262,1677685710.5126252,9.975049019,1.017680407,0,0.005235988,0,0.049033247,-9.708582878,0.519752443
1677685710.5215487,1677685710.5176284,9.975336075,1.017680407,0,0.001745329,0,0.049033247,-9.708582878,0.519752443
1677685710.5206273,1677685710.518752,9.975623131,1.017680407,-0.001745329,0.000872665,0,0.058839899,-9.708582878,0.52465576
1677685710.5253737,1677685710.5226324,9.975858879,1.017680407,-0.003490658,0,0,0.06864655,-9.708582878,0.529559076
1677685710.528438,1677685710.5276358,9.976094627,1.017680407,0,-0.003490658,-0.001745329,0.06864655,-9.708582878,0.529559076
1677685710.53452,1677685710.53264,9.976330376,1.017680407,-0.001745329,0,0,0.06864655,-9.698776245,0.519752443
1677685710.5384526,1677685710.537643,9.976566124,1.017680407,0,0,0,0.06864655,-9.698776245,0.519752443
1677685710.5399215,1677685710.5387168,9.976801872,1.017680407,0,0,-0.000872665,0.06864655,-9.708582878,0.52465576
1677685710.5435438,1677685710.5426474,9.97605896,1.017680407,0,0,-0.001745329,0.06864655,-9.718389511,0.529559076
1677685710.5487423,1677685710.5476503,9.975316048,1.017680407,-0.001745329,0.001745329,0,0.06864655,-9.718389511,0.529559076
1677685710.5530815,1677685710.5526547,9.974573135,1.017680407,-0.005235988,0.001745329,0.001745329,0.06864655,-9.708582878,0.519752443
1677685710.559204,1677685710.557659,9.973830223,1.017680407,0,0,0,0.06864655,-9.708582878,0.519752443
1677685710.5615084,1677685710.5592775,9.973087311,1.017680407,0,0.000872665,0,0.06864655,-9.703679562,0.514849127
1677685710.5639,1677685710.562662,9.973668862,1.017680407,0,0.001745329,0,0.06864655,-9.698776245,0.50994581
1677685710.5687776,1677685710.5676663,9.974250412,1.017680407,-0.001745329,0.003490658,0,0.06864655,-9.698776245,0.50994581
1677685710.5742147,1677685710.5726695,9.974831963,1.017680407,0.001745329,0,0,0.06864655,-9.698776245,0.529559076
1677685710.5792353,1677685710.5776737,9.975413513,1.017680407,-0.001745329,0.001745329,0,0.06864655,-9.698776245,0.529559076
1677685710.5813892,1677685710.5787122,9.975995064,1.017680407,-0.001745329,0.000872665,0,0.073549874,-9.693872929,0.529559076
1677685710.5836878,1677685710.582677,9.975873566,1.017680407,-0.001745329,0,0,0.078453198,-9.688969612,0.529559076
1677685710.5880015,1677685710.5876813,9.975752068,1.017680407,-0.001745329,0,-0.001745329,0.078453198,-9.688969612,0.529559076
1677685710.5935862,1677685710.5926845,9.975630569,1.017680407,0,0.001745329,-0.001745329,0.078453198,-9.688969612,0.529559076
1677685710.5986016,1677685710.597689,9.975509071,1.017680407,-0.003490658,0,0,0.078453198,-9.708582878,0.519752443
1677685710.5996192,1677685710.5987136,9.975387573,1.017680407,-0.001745329,0,0.000872665,0.078453198,-9.708582878,0.519752443
1677685710.60425,1677685710.602693,9.975892067,1.017680407,0,0,0.001745329,0.078453198,-9.708582878,0.519752443
1677685710.6080956,1677685710.6076963,9.976396561,1.017680407,-0.001745329,-0.003490658,0,0.078453198,-9.708582878,0.519752443
1677685710.6141708,1677685710.6127007,9.976901054,1.017680407,0,0.005235988,0,0.078453198,-9.698776245,0.519752443
1677685710.618249,1677685710.617704,9.977405548,1.017680407,0,0,0,0.078453198,-9.698776245,0.519752443
1677685710.62,1677685710.618749,9.977910042,1.017680407,0,0,0,0.073549874,-9.703679562,0.52465576
1677685710.6242027,1677685710.6227083,9.977056885,1.017680407,0,0,0,0.06864655,-9.708582878,0.529559076
1677685710.6286645,1677685710.6277115,9.976203728,1.017680407,0,0.005235988,-0.001745329,0.06864655,-9.708582878,0.529559076
1677685710.6347196,1677685710.6327157,9.975350571,1.017680407,-0.001745329,0,0,0.078453198,-9.718389511,0.519752443
1677685710.638528,1677685710.6377192,9.974497414,1.017680407,-0.005235988,0.001745329,0,0.078453198,-9.718389511,0.519752443
1677685710.6391962,1677685710.6386907,9.973644257,1.017680407,-0.004363323,-0.000872664,0,0.073549874,-9.708582878,0.52465576
1677685710.643314,1677685710.642723,9.974197579,1.017680407,-0.003490658,-0.003490658,0,0.06864655,-9.698776245,0.529559076
1677685710.6487956,1677685710.6477275,9.974750901,1.017680407,0,0.001745329,0,0.06864655,-9.698776245,0.529559076
1677685710.652997,1677685710.652731,9.975304222,1.017680407,-0.001745329,0,0,0.058839899,-9.698776245,0.529559076
1677685710.6599934,1677685710.657735,9.975857544,1.017680407,-0.005235988,0,0,0.058839899,-9.698776245,0.529559076
1677685710.6599634,1677685710.6587338,9.976410866,1.017680407,-0.003490659,0.001745329,0,0.063743225,-9.703679562,0.52465576
1677685710.6643698,1677685710.6627383,9.975627327,1.017680407,-0.001745329,0.003490658,0,0.06864655,-9.708582878,0.519752443
1677685710.669892,1677685710.667743,9.974843788,1.017680407,-0.001745329,0.001745329,0,0.06864655,-9.708582878,0.519752443
1677685710.6732252,1677685710.672746,9.97406025,1.017680407,-0.001745329,0.005235988,0,0.06864655,-9.708582878,0.519752443
1677685710.6784768,1677685710.6777506,9.973276711,1.017680407,-0.005235988,0,0,0.06864655,-9.708582878,0.519752443
1677685710.68066,1677685710.6787071,9.972493172,1.017680407,-0.004363323,0,0.001745329,0.06864655,-9.708582878,0.519752443
1677685710.686263,1677685710.6827548,9.973366356,1.017680407,-0.003490658,0,0.003490658,0.06864655,-9.708582878,0.519752443
1677685710.6891224,1677685710.6877584,9.97423954,1.017680407,-0.003490658,-0.003490658,0,0.06864655,-9.708582878,0.519752443
1677685710.694363,1677685710.6927624,9.975112725,1.017680407,-0.003490658,-0.001745329,0,0.06864655,-9.708582878,0.519752443
1677685710.6981685,1677685710.6977658,9.975985909,1.017680407,-0.001745329,-0.003490658,0.001745329,0.06864655,-9.708582878,0.519752443
1677685710.6993916,1677685710.6988254,9.976859093,1.017680407,-0.003490658,0.001745329,0.000872665,0.073549874,-9.708582878,0.514849127
1677685710.703909,1677685710.7027702,9.976789093,1.017680407,-0.005235988,0.006981317,0,0.078453198,-9.708582878,0.50994581
1677685710.7086744,1677685710.7077737,9.976719093,1.017680407,-0.001745329,0.012217305,0.003490658,0.078453198,-9.708582878,0.50994581
1677685710.718631,1677685710.712778,9.976649094,1.017680407,-0.003490658,0.001745329,-0.003490658,0.205939651,-9.806650162,0.490332484
1677685710.7201655,1677685710.7177813,9.976579094,1.017680407,0.005235988,0.022689279,-0.013962634,0.205939651,-9.806650162,0.490332484
1677685710.7201374,1677685710.7187183,9.976509094,1.017680407,0.004363323,0.029670596,-0.016580629,0.279489518,-9.75761652,0.524655759
1677685710.723421,1677685710.7227857,9.979216957,1.017680407,0.003490658,0.036651913,-0.019198623,0.353039384,-9.708582878,0.558979034
1677685710.7281675,1677685710.7277892,9.98192482,1.017680407,0,0.041887902,-0.020943951,0.353039384,-9.708582878,0.558979034
1677685710.733132,1677685710.732793,9.984632683,1.017680407,-0.001745329,0.04363323,-0.027925268,0.284392834,-9.581096649,0.519752443
1677685710.7398224,1677685710.737798,9.987340546,1.017680407,-0.006981317,0.057595864,-0.02617994,0.284392834,-9.581096649,0.519752443
1677685710.7401965,1677685710.7387524,9.990048409,1.017680407,-0.006108653,0.0567232,-0.027925268,0.299102813,-9.581096649,0.52465576
1677685710.7439768,1677685710.7428012,10.00505276,1.017680407,-0.005235988,0.055850536,-0.029670596,0.313812792,-9.581096649,0.529559076
1677685710.748275,1677685710.7478056,10.02005711,1.017680407,-0.005235988,0.059341192,-0.031415924,0.313812792,-9.581096649,0.529559076
1677685710.7555044,1677685710.752809,10.03506145,1.017680407,-0.012217305,0.055850536,-0.033161256,0.078453198,-9.610516548,0.480525851
1677685710.7583303,1677685710.7578137,10.0500658,1.017680407,-0.017453292,0.038397245,-0.024434609,0.078453198,-9.610516548,0.480525851
1677685710.75936,1677685710.7587316,10.06507015,1.017680407,-0.018325958,0.027925269,-0.013962634,-0.112776466,-9.664453029,0.441299245
1677685710.7649496,1677685710.762817,10.07258091,1.017680407,-0.019198623,0.017453292,-0.003490658,-0.30400613,-9.718389511,0.402072638
1677685710.768267,1677685710.7678213,10.08009167,1.017680407,-0.015707962,0.008726646,0.024434609,-0.30400613,-9.718389511,0.402072638
1677685710.7740157,1677685710.7728257,10.08760242,1.017680407,-0.006981317,-0.003490658,0.038397245,-0.382459342,-9.96355629,0.451105893
1677685710.7794,1677685710.7778294,10.09511318,1.017680407,0.003490658,-0.019198623,0.027925268,-0.382459342,-9.96355629,0.451105893
1677685710.7793703,1677685710.7787464,10.10262394,1.017680407,0.007853982,-0.014835299,0.023561946,-0.210842971,-9.924329758,0.50994578
1677685710.7875247,1677685710.7828336,10.10123711,1.017680407,0.012217305,-0.010471975,0.019198623,-0.039226599,-9.885103226,0.568785667
1677685710.7895331,1677685710.7878373,10.09985027,1.017680407,0.012217305,0,-0.005235988,-0.039226599,-9.885103226,0.568785667
1677685710.7955236,1677685710.7928414,10.09846344,1.017680407,0.010471975,-0.001745329,-0.022689279,-0.058839899,-9.620323181,0.519752443
1677685710.798363,1677685710.797845,10.0970766,1.017680407,0.001745329,-0.001745329,-0.019198623,-0.058839899,-9.620323181,0.519752443
1677685710.799656,1677685710.798737,10.09568977,1.017680407,-0.005235988,0.003490658,-0.017453293,-0.004903326,-9.571290016,0.519752443
1677685710.8035583,1677685710.8028493,10.09568977,1.017680407,-0.012217305,0.008726646,-0.015707962,0.049033247,-9.522256851,0.519752443
1677685710.808301,1677685710.807853,10.09568977,1.017680407,-0.013962634,0.012217305,-0.012217305,0.049033247,-9.522256851,0.519752443
1677685710.8138824,1677685710.8128574,10.09568977,1.017680407,-0.012217305,0.017453292,-0.022689279,0.235359594,-9.679162979,0.549172401
1677685710.818198,1677685710.8178608,10.09568977,1.017680407,-0.006981317,0.020943951,-0.02617994,0.235359594,-9.679162979,0.549172401
1677685710.8192794,1677685710.8186915,10.09568977,1.017680407,-0.008726646,0.014835299,-0.028797932,0.16180972,-9.738003254,0.554075718
1677685710.8234472,1677685710.8228652,10.09621467,1.017680407,-0.010471975,0.008726646,-0.031415924,0.088259846,-9.796843529,0.558979034
1677685710.8292103,1677685710.82787,10.09673958,1.017680407,-0.005235988,0.001745329,-0.015707962,0.088259846,-9.796843529,0.558979034
1677685710.83325,1677685710.832873,10.09726448,1.017680407,0.001745329,0.003490658,0.003490658,0.078453198,-9.806650162,0.519752443
1677685710.844421,1677685710.8378778,10.09778939,1.017680407,0,-0.006981317,0.008726646,0.078453198,-9.806650162,0.519752443
1677685710.8401184,1677685710.8389432,10.09831429,1.017680407,0,-0.01134464,0.015707963,0.073549874,-9.747809887,0.52465576
1677685710.8448105,1677685710.8428812,10.09962578,1.017680407,0,-0.015707962,0.022689279,0.06864655,-9.688969612,0.529559076
1677685710.8481953,1677685710.8478858,10.10093727,1.017680407,0,-0.017453292,0.017453292,0.06864655,-9.688969612,0.529559076
1677685710.8530264,1677685710.8528905,10.10224877,1.017680407,0.003490658,-0.006981317,0.020943951,0.205939651,-9.659549713,0.568785667
1677685710.8580854,1677685710.857894,10.10356026,1.017680407,0.001745329,-0.001745329,0.010471975,0.205939651,-9.659549713,0.568785667
1677685710.8593483,1677685710.8587124,10.10487175,1.017680407,-0.001745329,-0.000872665,0.012217305,0.171616376,-9.688969612,0.568785667
1677685710.865639,1677685710.8628972,10.10458946,1.017680407,-0.005235988,0,0.013962634,0.1372931,-9.718389511,0.568785667
1677685710.872313,1677685710.867902,10.10430717,1.017680407,-0.003490658,0.008726646,0.008726646,0.1372931,-9.718389511,0.568785667
1677685710.8733692,1677685710.8729064,10.10402489,1.017680407,-0.005235988,0.017453292,0,0.0196133,-9.718389511,0.558979034
1677685710.8784792,1677685710.87791,10.1037426,1.017680407,-0.005235988,0.013962634,-0.003490658,0.0196133,-9.718389511,0.558979034
1677685710.879489,1677685710.8787117,10.10346031,1.017680407,-0.004363323,0.01308997,-0.008726646,-0.039226597,-9.703679562,0.539365739
1677685710.8832126,1677685710.8829143,10.10593586,1.017680407,-0.003490658,0.012217305,-0.013962634,-0.098066494,-9.688969612,0.519752443
1677685710.8899794,1677685710.887918,10.10841141,1.017680407,-0.003490658,0.005235988,-0.017453292,-0.098066494,-9.688969612,0.519752443
1677685710.89574,1677685710.8929226,10.11088695,1.017680407,-0.001745329,0.003490658,-0.015707962,-0.088259846,-9.698776245,0.50994581
1677685710.898334,1677685710.897926,10.1133625,1.017680407,-0.001745329,0,-0.012217305,-0.088259846,-9.698776245,0.50994581
1677685710.8993995,1677685710.8987348,10.11583805,1.017680407,-0.001745329,-0.001745329,-0.009599311,-0.009806648,-9.703679562,0.52465576
1677685710.9035895,1677685710.9029307,10.11505947,1.017680407,-0.001745329,-0.003490658,-0.006981317,0.06864655,-9.708582878,0.539365709
1677685710.9079354,1677685710.9079342,10.11428089,1.017680407,0,0,-0.003490658,0.06864655,-9.708582878,0.539365709
1677685710.9224596,1677685710.9129388,10.11350231,1.017680407,0,-0.001745329,-0.001745329,0.215746298,-9.718389511,0.568785667
1677685710.9228053,1677685710.9179432,10.11272373,1.017680407,0,-0.003490658,0,0.215746298,-9.718389511,0.568785667
1677685710.922391,1677685710.9187562,10.11194515,1.017680407,0,-0.002617994,0.004363323,0.23045627,-9.718389511,0.558979034
1677685710.923372,1677685710.9229472,10.11155357,1.017680407,0,-0.001745329,0.008726646,0.245166242,-9.718389511,0.549172401
1677685710.92812,1677685710.927951,10.11116199,1.017680407,-0.003490658,0.005235988,0.010471975,0.245166242,-9.718389511,0.549172401
1677685710.9337122,1677685710.9329562,10.11077042,1.017680407,-0.003490658,0.003490658,0.008726646,0.117679797,-9.718389511,0.549172401
1677685710.9382603,1677685710.9379597,10.11037884,1.017680407,-0.005235988,0.003490658,0.006981317,0.117679797,-9.718389511,0.549172401
1677685710.9398177,1677685710.9391377,10.10998726,1.017680407,-0.005235988,0.002617994,0.006981317,0.058839899,-9.698776245,0.529559106
1677685710.944137,1677685710.9429634,10.11026249,1.017680407,-0.005235988,0.001745329,0.006981317,0,-9.679162979,0.50994581
1677685710.9488547,1677685710.9479678,10.11053772,1.017680407,-0.005235988,0,0.001745329,0,-9.679162979,0.50994581
1677685710.9532912,1677685710.9529722,10.11081295,1.017680407,-0.003490658,0,0,-0.088259846,-9.688969612,0.50994581
1677685710.9585395,1677685710.957976,10.11108818,1.017680407,0,0,-0.001745329,-0.088259846,-9.688969612,0.50994581
1677685710.959398,1677685710.9587045,10.11136341,1.017680407,0,-0.001745329,-0.001745329,-0.039226598,-9.708582878,0.50994581
1677685710.9633043,1677685710.9629805,10.1105505,1.017680407,0,-0.003490658,-0.001745329,0.00980665,-9.728196144,0.50994581
1677685710.9694402,1677685710.9679844,10.10973759,1.017680407,0,-0.001745329,-0.006981317,0.00980665,-9.728196144,0.50994581
1677685710.9743338,1677685710.9729888,10.10892467,1.017680407,0,0,-0.006981317,0.098066494,-9.728196144,0.529559076
1677685710.9784,1677685710.9779928,10.10811176,1.017680407,-0.005235988,0.001745329,-0.006981317,0.098066494,-9.728196144,0.529559076
1677685710.9800854,1677685710.979009,10.10729885,1.017680407,-0.006108653,0,-0.005235988,0.122583121,-9.698776245,0.529559076
1677685710.9843287,1677685710.9829972,10.10656071,1.017680407,-0.006981317,-0.001745329,-0.003490658,0.147099748,-9.669356346,0.529559076
1677685710.9882166,1677685710.988001,10.10582256,1.017680407,-0.006981317,0,-0.001745329,0.147099748,-9.669356346,0.529559076
1677685710.9933238,1677685710.9930055,10.10508442,1.017680407,-0.003490658,0,-0.005235988,0.117679797,-9.698776245,0.519752443
1677685710.9982717,1677685710.9980094,10.10434627,1.017680407,-0.005235988,0,0.001745329,0.117679797,-9.698776245,0.519752443
1677685710.999202,1677685710.9987128,10.10360813,1.017680407,-0.003490659,-0.000872665,0.003490658,0.107873146,-9.733099938,0.514849127
1677685711.003243,1677685711.0030138,10.10403633,1.017680407,-0.001745329,-0.001745329,0.005235988,0.098066494,-9.76742363,0.50994581
1677685711.0084782,1677685711.0080185,10.10446453,1.017680407,-0.001745329,-0.003490658,0.003490658,0.098066494,-9.76742363,0.50994581
1677685711.01468,1677685711.0130222,10.10489273,1.017680407,0,-0.001745329,0.003490658,0.049033247,-9.728196144,0.500139117
1677685711.0195923,1677685711.0180268,10.10532093,1.017680407,0,-0.005235988,0.006981317,0.049033247,-9.728196144,0.500139117
1677685711.019558,1677685711.0187004,10.10574913,1.017680407,-0.002617994,-0.005235988,0.006981317,0.044129923,-9.708582878,0.495235801
1677685711.02362,1677685711.0230303,10.10579262,1.017680407,-0.005235988,-0.005235988,0.006981317,0.039226599,-9.688969612,0.490332484
1677685711.0284295,1677685711.0280352,10.10583611,1.017680407,-0.001745329,-0.003490658,0,0.039226599,-9.688969612,0.490332484
1677685711.0351665,1677685711.0330348,10.10587959,1.017680407,0,0,0.001745329,0.039226599,-9.688969612,0.519752443
1677685711.0464623,1677685711.0380318,10.10592308,1.017680407,0,0,0,0.039226599,-9.688969612,0.519752443
1677685711.0462258,1677685711.0387845,10.10596657,1.017680407,-0.001745329,0.001745329,0,0.063743223,-9.703679562,0.519752443
1677685711.0470967,1677685711.0430293,10.10552826,1.017680407,-0.003490658,0.003490658,0,0.088259846,-9.718389511,0.519752443
1677685711.048234,1677685711.0480278,10.10508995,1.017680407,-0.001745329,0.001745329,-0.001745329,0.088259846,-9.718389511,0.519752443
1677685711.0540185,1677685711.0530255,10.10465164,1.017680407,-0.005235988,-0.005235988,-0.005235988,0.058839899,-9.718389511,0.500139117
1677685711.0623343,1677685711.0580232,10.10421333,1.017680407,-0.003490658,0.001745329,-0.006981317,0.058839899,-9.718389511,0.500139117
1677685711.0622728,1677685711.0587482,10.10377502,1.017680407,-0.001745329,0.002617994,-0.004363323,0.063743225,-9.713486195,0.50994578
1677685711.0637558,1677685711.0630217,10.10409221,1.017680407,0,0.003490658,-0.001745329,0.06864655,-9.708582878,0.519752443
1677685711.069058,1677685711.068019,10.1044094,1.017680407,-0.001745329,-0.005235988,-0.001745329,0.06864655,-9.708582878,0.519752443
1677685711.0730622,1677685711.0730171,10.1047266,1.017680407,0,0.003490658,-0.001745329,0.06864655,-9.718389511,0.50994581
1677685711.0818405,1677685711.0780144,10.10504379,1.017680407,0,-0.001745329,0,0.06864655,-9.718389511,0.50994581
1677685711.0817654,1677685711.078771,10.10536098,1.017680407,-0.000872665,-0.001745329,0.001745329,0.08825985,-9.723292828,0.514849127
1677685711.0855112,1677685711.0830126,10.10521164,1.017680407,-0.001745329,-0.001745329,0.003490658,0.107873149,-9.728196144,0.519752443
1677685711.0893636,1677685711.08801,10.10506229,1.017680407,-0.003490658,-0.005235988,0,0.107873149,-9.728196144,0.519752443
1677685711.093366,1677685711.0930085,10.10491295,1.017680407,0,-0.003490658,0.005235988,0.078453198,-9.698776245,0.50994581
1677685711.0981488,1677685711.0980065,10.1047636,1.017680407,0,0.001745329,0.006981317,0.078453198,-9.698776245,0.50994581
1677685711.0991786,1677685711.0987225,10.10461426,1.017680407,0.001745329,0.001745329,0.008726646,0.083356522,-9.738003254,0.539365739
1677685711.1068811,1677685711.1030035,10.10470467,1.017680407,0.003490658,0.001745329,0.010471975,0.088259846,-9.777230263,0.568785667
1677685711.110626,1677685711.108002,10.10479508,1.017680407,0.005235988,-0.003490658,0.012217305,0.088259846,-9.777230263,0.568785667
1677685711.1152732,1677685711.1129992,10.10488548,1.017680407,0.019198623,0,0.010471975,0.06864655,-10.01258945,0.735498726
1677685711.118444,1677685711.1179976,10.10497589,1.017680407,0.045378558,0,0.005235988,0.06864655,-10.01258945,0.735498726
1677685711.1195824,1677685711.1187148,10.1050663,1.017680407,0.0567232,-0.002617994,0.007853982,-0.039226599,-10.09594584,0.995374948
1677685711.1229208,1677685711.122996,10.1048624,1.017680407,0.068067841,-0.005235988,0.010471975,-0.147099748,-10.17930222,1.255251169
1677685711.1286712,1677685711.127993,10.10465851,1.017680407,0.089011788,-0.015707962,0,-0.147099748,-10.17930222,1.255251169
1677685711.1341646,1677685711.1329916,10.10445461,1.017680407,0.125663698,-0.02617994,0.013962634,-0.382459342,-10.20872211,2.039783239
1677685711.1387632,1677685711.1379888,10.10425072,1.017680407,0.148352981,-0.052359879,0.020943951,-0.382459342,-10.20872211,2.039783239
1677685711.1413376,1677685711.1387613,10.10404682,1.017680407,0.158824958,-0.055850536,0.026179938,-0.505042463,-10.24304533,2.70173204
1677685711.143247,1677685711.142987,10.09739723,1.017680407,0.169296935,-0.059341192,0.031415924,-0.627625585,-10.27736855,3.36368084
1677685711.147963,1677685711.1479845,10.09074764,1.017680407,0.185004905,-0.094247781,0.048869219,-0.627625585,-10.27736855,3.36368084
1677685711.153083,1677685711.1529827,10.08409805,1.017680407,0.218166158,-0.116937056,0.024434609,-0.794338644,-10.41466236,4.501252174
1677685711.158462,1677685711.157981,10.07744846,1.017680407,0.256563395,-0.130899698,0.057595864,-0.794338644,-10.41466236,4.501252174
1677685711.160409,1677685711.1587272,10.07079887,1.017680407,0.259181395,-0.150970981,0.061959189,-1.000278265,-10.32640219,4.947454691
1677685711.1642408,1677685711.1629784,10.06265659,1.017680407,0.261799395,-0.171042264,0.066322513,-1.206217885,-10.23814201,5.393657207
1677685711.169519,1677685711.1679764,10.05451431,1.017680407,0.287979335,-0.233874112,0.102974422,-1.206217885,-10.23814201,5.393657207
1677685711.1762586,1677685711.172974,10.04637203,1.017680407,0.270526022,-0.275762022,0.097738437,-1.520030737,-9.296704292,5.629016876
1677685711.1818216,1677685711.1779723,10.03822975,1.017680407,0.219911486,-0.301941961,0.181514233,-1.520030737,-9.296704292,5.629016876
1677685711.1811917,1677685711.1793213,10.03008747,1.017680407,0.223402143,-0.341211871,0.171914927,-1.618097246,-9.027021408,5.800633192
1677685711.183983,1677685711.1829696,9.906800651,1.017680407,0.226892799,-0.38048178,0.162315622,-1.716163754,-8.757338524,5.972249508
1677685711.1892848,1677685711.1879678,9.783513832,1.017680407,0.181514233,-0.394444406,0.171042264,-1.716163754,-8.757338524,5.972249508
1677685711.192774,1677685711.192965,9.660227012,1.017680407,0.127409041,-0.452040285,0.181514233,-1.882876754,-8.600431442,5.972249508
1677685711.197877,1677685711.1979632,9.536940193,1.017680407,0.061086524,-0.507890821,0.157079637,-1.882876754,-8.600431442,5.972249508
1677685711.199283,1677685711.1986938,9.413653374,1.017680407,0.020943951,-0.508763493,0.143989668,-1.725970328,-8.281715632,5.859473229
1677685711.2028923,1677685711.2029605,9.371290016,1.017680407,-0.019198623,-0.509636164,0.130899698,-1.569063902,-7.962999821,5.746696949
1677685711.208925,1677685711.2079587,9.328926659,1.017680407,-0.085521132,-0.53407073,0.078539819,-1.569063902,-7.962999821,5.746696949
1677685711.2129588,1677685711.2129562,9.286563301,1.017680407,-0.106465086,-0.53407073,0.055850536,-1.206217885,-8.227779388,5.472110748
1677685711.2179186,1677685711.2179544,9.244199944,1.017680407,-0.071558498,-0.54454273,0.022689279,-1.206217885,-8.227779388,5.472110748
1677685711.2194324,1677685711.2187457,9.201836586,1.017680407,-0.077667151,-0.551524043,0.01134464,-1.132668019,-8.526882171,5.408367396
1677685711.222914,1677685711.2229526,8.996826935,1.017680407,-0.083775803,-0.558505356,0,-1.059118152,-8.825984955,5.344624043
1677685711.2279325,1677685711.22795,8.791817284,1.017680407,-0.048869219,-0.541052043,-0.033161256,-1.059118152,-8.825984955,5.344624043
1677685711.23503,1677685711.2329483,8.586807632,1.017680407,-0.073303826,-0.527089417,-0.064577185,-0.64723891,-7.88454628,5.119071007
1677685711.2389278,1677685711.2379456,8.381797981,1.017680407,-0.07679449,-0.532325447,-0.08726646,-0.64723891,-7.88454628,5.119071007
1677685711.2394862,1677685711.2387335,8.17678833,1.017680407,-0.070685838,-0.535816104,-0.112573736,-1.117958099,-7.89925623,4.829774857
1677685711.243075,1677685711.2429438,8.499936867,1.015259648,-0.064577185,-0.53930676,-0.137881011,-1.588677287,-7.913966179,4.540478706
1677685711.2477808,1677685711.247941,8.823085403,1.012838889,-0.031415924,-0.561996043,-0.134390354,-1.588677287,-7.913966179,4.540478706
1677685711.253118,1677685711.2529397,9.14623394,1.010418129,-0.04712389,-0.593411922,-0.134390354,-1.73577702,-8.610238075,4.638545513
1677685711.2580614,1677685711.2579367,9.469382476,1.00799737,-0.019198623,-0.52359879,-0.073303826,-1.73577702,-8.610238075,4.638545513
1677685711.2595062,1677685711.2587411,9.792531013,1.005576611,-0.097738436,-0.530580104,-0.055850536,-1.426867544,-9.110377311,4.638545513
1677685711.2629378,1677685711.2629347,9.586284828,1.005576611,-0.176278248,-0.537561417,-0.038397245,-1.117958069,-9.610516548,4.638545513
1677685711.2685008,1677685711.2679331,9.380038643,1.005576611,-0.242600769,-0.773180842,-0.059341192,-1.117958069,-9.610516548,4.638545513
1677685711.2741506,1677685711.2729304,9.173792457,1.005576611,-0.326376557,-0.954695106,0.010471975,-3.324454308,-9.561483383,2.255529404
1677685711.2781556,1677685711.2779286,8.967546272,1.005576611,-0.394444406,-1.045452237,0.226892799,-3.324454308,-9.561483383,2.255529404
1677685711.2795286,1677685711.2787154,8.761300087,1.005576611,-0.344702527,-1.081231475,0.322885916,-2.137849659,-11.44926357,2.598762155
1677685711.282848,1677685711.282926,8.548974514,1.005576611,-0.294960648,-1.117010713,0.418879032,-0.95124501,-13.33704376,2.941994905
1677685711.2882657,1677685711.2879243,8.336648941,1.005576611,-0.214675501,-1.178097248,0.53930676,-0.95124501,-13.33704376,2.941994905
1677685711.2947445,1677685711.2929227,8.124323368,1.005576611,-0.033161256,-1.190314531,0.532325447,-0.519752443,-13.87640953,2.647795439
1677685711.298209,1677685711.29792,7.911997795,1.005576611,0.095993109,-1.174606562,0.541052043,-0.519752443,-13.87640953,2.647795439
1677685711.300004,1677685711.2988138,7.699672222,1.005576611,0.185877566,-1.166752577,0.453785598,-0.833565206,-12.75354815,2.559535623
1677685711.303366,1677685711.3029182,7.595563602,1.005576611,0.275762022,-1.158898592,0.366519153,-1.147377968,-11.63068676,2.471275806
1677685711.308125,1677685711.3079152,7.491454983,1.005576611,0.324631244,-1.080358744,0.247836754,-1.147377968,-11.63068676,2.471275806
1677685711.317866,1677685711.3129137,7.387346363,1.005576611,0.431096315,-1.08908546,0.151843637,-1.216024518,-7.727640152,1.431770921
1677685711.318324,1677685711.317911,7.283237744,1.005576611,0.293215305,-1.043706894,0.005235988,-1.216024518,-7.727640152,1.431770921
1677685711.3194587,1677685711.3186946,7.179129124,1.005576611,0.253072739,-0.989601672,-0.013962634,-0.843371853,-6.109542847,1.779906929
1677685711.3234558,1677685711.322909,7.316079998,1.00312903,0.212930173,-0.935496449,-0.033161256,-0.470719188,-4.491445541,2.128042936
1677685711.3284504,1677685711.3279066,7.453030872,1.000681448,-0.015707962,-0.802851439,-0.089011788,-0.470719188,-4.491445541,2.128042936
1677685711.3333406,1677685711.3329048,7.589981747,0.998233867,-0.202458188,-0.792379498,-0.176278248,-0.88259846,-4.089373112,1.637710452
1677685711.338507,1677685711.337902,7.726932621,0.995786285,-0.284488678,-0.895353913,-0.289724648,-0.88259846,-4.089373112,1.637710452
1677685711.339897,1677685711.338663,7.863883495,0.993338704,-0.340339213,-0.90931654,-0.334230542,-1.569063932,-5.629017115,1.338607669
1677685711.342857,1677685711.3429005,7.597323322,0.993338704,-0.396189749,-0.923279166,-0.378736436,-2.255529404,-7.168661118,1.039504886
1677685711.34838,1677685711.3478973,7.330763149,0.993338704,-0.376991123,-0.891863227,-0.324631244,-2.255529404,-7.168661118,1.039504886
1677685711.35337,1677685711.3528955,7.064202976,0.993338704,-0.310668617,-0.938987136,-0.268780708,-1.59848392,-12.34657192,1.794616938
