__time,__datetime,__type,/hamster2/imu/header.stamp,/hamster2/imu/header.frame_id,/hamster2/imu/orientation.x,/hamster2/imu/orientation.y,/hamster2/imu/orientation.z,/hamster2/imu/orientation.w,/hamster2/imu/orientation_covariance.0,/hamster2/imu/orientation_covariance.1,/hamster2/imu/orientation_covariance.2,/hamster2/imu/orientation_covariance.3,/hamster2/imu/orientation_covariance.4,/hamster2/imu/orientation_covariance.5,/hamster2/imu/orientation_covariance.6,/hamster2/imu/orientation_covariance.7,/hamster2/imu/orientation_covariance.8,/hamster2/imu/angular_velocity.x,/hamster2/imu/angular_velocity.y,/hamster2/imu/angular_velocity.z,/hamster2/imu/angular_velocity_covariance.0,/hamster2/imu/angular_velocity_covariance.1,/hamster2/imu/angular_velocity_covariance.2,/hamster2/imu/angular_velocity_covariance.3,/hamster2/imu/angular_velocity_covariance.4,/hamster2/imu/angular_velocity_covariance.5,/hamster2/imu/angular_velocity_covariance.6,/hamster2/imu/angular_velocity_covariance.7,/hamster2/imu/angular_velocity_covariance.8,/hamster2/imu/linear_acceleration.x,/hamster2/imu/linear_acceleration.y,/hamster2/imu/linear_acceleration.z,/hamster2/imu/linear_acceleration_covariance.0,/hamster2/imu/linear_acceleration_covariance.1,/hamster2/imu/linear_acceleration_covariance.2,/hamster2/imu/linear_acceleration_covariance.3,/hamster2/imu/linear_acceleration_covariance.4,/hamster2/imu/linear_acceleration_covariance.5,/hamster2/imu/linear_acceleration_covariance.6,/hamster2/imu/linear_acceleration_covariance.7,/hamster2/imu/linear_acceleration_covariance.8
1677685709.4604588,2023-03-01 16:48:29.460459,sensor_msgs/Imu,1677685709.4325433,camera_imu_optical_frame,0.0,0.0,0.0,0.0,-1.0,0.0,0.0,0.0,0.0,0.0,0.0,0.0,0.0,-0.006981316953897476,0.001745329238474369,0.0,0.01,0.0,0.0,0.0,0.01,0.0,0.0,0.0,0.01,0.05883989855647087,-9.698776245117188,0.5197524428367615,0.01,0.0,0.0,0.0,0.01,0.0,0.0,0.0,0.01
1677685709.460994,2023-03-01 16:48:29.460994,sensor_msgs/Imu,1677685709.4375405,camera_imu_optical_frame,0.0,0.0,0.0,0.0,-1.0,0.0,0.0,0.0,0.0,0.0,0.0,0.0,0.0,0.0,0.0,0.001745329238474369,0.01,0.0,0.0,0.0,0.01,0.0,0.0,0.0,0.01,0.05883989855647087,-9.698776245117188,0.5197524428367615,0.01,0.0,0.0,0.0,0.01,0.0,0.0,0.0,0.01
1677685709.4613712,2023-03-01 16:48:29.461371,sensor_msgs/Imu,1677685709.442539,camera_imu_optical_frame,0.0,0.0,0.0,0.0,-1.0,0.0,0.0,0.0,0.0,0.0,0.0,0.0,0.0,-0.001745329238474369,0.0,0.0,0.01,0.0,0.0,0.0,0.01,0.0,0.0,0.0,0.01,0.05883989855647087,-9.698776245117188,0.5197524428367615,0.01,0.0,0.0,0.0,0.01,0.0,0.0,0.0,0.01
1677685709.461769,2023-03-01 16:48:29.461769,sensor_msgs/Imu,1677685709.4475365,camera_imu_optical_frame,0.0,0.0,0.0,0.0,-1.0,0.0,0.0,0.0,0.0,0.0,0.0,0.0,0.0,-0.003490658476948738,0.001745329238474369,0.0,0.01,0.0,0.0,0.0,0.01,0.0,0.0,0.0,0.01,0.05883989855647087,-9.708582878112793,0.5197524428367615,0.01,0.0,0.0,0.0,0.01,0.0,0.0,0.0,0.01
1677685709.4621828,2023-03-01 16:48:29.462183,sensor_msgs/Imu,1677685709.4525347,camera_imu_optical_frame,0.0,0.0,0.0,0.0,-1.0,0.0,0.0,0.0,0.0,0.0,0.0,0.0,0.0,-0.003490658476948738,0.003490658476948738,-0.001745329238474369,0.01,0.0,0.0,0.0,0.01,0.0,0.0,0.0,0.01,0.05883989855647087,-9.708582878112793,0.5197524428367615,0.01,0.0,0.0,0.0,0.01,0.0,0.0,0.0,0.01
1677685709.4657438,2023-03-01 16:48:29.465744,sensor_msgs/Imu,1677685709.457532,camera_imu_optical_frame,0.0,0.0,0.0,0.0,-1.0,0.0,0.0,0.0,0.0,0.0,0.0,0.0,0.0,-0.001745329238474369,0.001745329238474369,0.0,0.01,0.0,0.0,0.0,0.01,0.0,0.0,0.0,0.01,0.06864655017852783,-9.718389511108398,0.5197524428367615,0.01,0.0,0.0,0.0,0.01,0.0,0.0,0.0,0.01
1677685709.4699326,2023-03-01 16:48:29.469933,sensor_msgs/Imu,1677685709.4625304,camera_imu_optical_frame,0.0,0.0,0.0,0.0,-1.0,0.0,0.0,0.0,0.0,0.0,0.0,0.0,0.0,-0.001745329238474369,0.0,0.0,0.01,0.0,0.0,0.0,0.01,0.0,0.0,0.0,0.01,0.06864655017852783,-9.718389511108398,0.5197524428367615,0.01,0.0,0.0,0.0,0.01,0.0,0.0,0.0,0.01
1677685709.4733346,2023-03-01 16:48:29.473335,sensor_msgs/Imu,1677685709.4675276,camera_imu_optical_frame,0.0,0.0,0.0,0.0,-1.0,0.0,0.0,0.0,0.0,0.0,0.0,0.0,0.0,0.0,0.0,0.0,0.01,0.0,0.0,0.0,0.01,0.0,0.0,0.0,0.01,0.06864655017852783,-9.718389511108398,0.5197524428367615,0.01,0.0,0.0,0.0,0.01,0.0,0.0,0.0,0.01
1677685709.4746218,2023-03-01 16:48:29.474622,sensor_msgs/Imu,1677685709.4725258,camera_imu_optical_frame,0.0,0.0,0.0,0.0,-1.0,0.0,0.0,0.0,0.0,0.0,0.0,0.0,0.0,0.0,0.003490658476948738,0.0,0.01,0.0,0.0,0.0,0.01,0.0,0.0,0.0,0.01,0.06864655017852783,-9.718389511108398,0.5197524428367615,0.01,0.0,0.0,0.0,0.01,0.0,0.0,0.0,0.01
1677685709.480367,2023-03-01 16:48:29.480367,sensor_msgs/Imu,1677685709.477523,camera_imu_optical_frame,0.0,0.0,0.0,0.0,-1.0,0.0,0.0,0.0,0.0,0.0,0.0,0.0,0.0,-0.003490658476948738,0.005235987715423107,-0.001745329238474369,0.01,0.0,0.0,0.0,0.01,0.0,0.0,0.0,0.01,0.06864655017852783,-9.708582878112793,0.5295590758323669,0.01,0.0,0.0,0.0,0.01,0.0,0.0,0.0,0.01
1677685709.4837315,2023-03-01 16:48:29.483732,sensor_msgs/Imu,1677685709.4825215,camera_imu_optical_frame,0.0,0.0,0.0,0.0,-1.0,0.0,0.0,0.0,0.0,0.0,0.0,0.0,0.0,0.0,0.003490658476948738,0.0,0.01,0.0,0.0,0.0,0.01,0.0,0.0,0.0,0.01,0.06864655017852783,-9.708582878112793,0.5295590758323669,0.01,0.0,0.0,0.0,0.01,0.0,0.0,0.0,0.01
1677685709.4892821,2023-03-01 16:48:29.489282,sensor_msgs/Imu,1677685709.4875197,camera_imu_optical_frame,0.0,0.0,0.0,0.0,-1.0,0.0,0.0,0.0,0.0,0.0,0.0,0.0,0.0,0.0,0.0,0.0,0.01,0.0,0.0,0.0,0.01,0.0,0.0,0.0,0.01,0.06864655017852783,-9.698776245117188,0.5197524428367615,0.01,0.0,0.0,0.0,0.01,0.0,0.0,0.0,0.01
1677685709.493597,2023-03-01 16:48:29.493597,sensor_msgs/Imu,1677685709.4925172,camera_imu_optical_frame,0.0,0.0,0.0,0.0,-1.0,0.0,0.0,0.0,0.0,0.0,0.0,0.0,0.0,-0.001745329238474369,0.001745329238474369,0.0,0.01,0.0,0.0,0.0,0.01,0.0,0.0,0.0,0.01,0.06864655017852783,-9.698776245117188,0.5197524428367615,0.01,0.0,0.0,0.0,0.01,0.0,0.0,0.0,0.01
1677685709.4993684,2023-03-01 16:48:29.499368,sensor_msgs/Imu,1677685709.4975152,camera_imu_optical_frame,0.0,0.0,0.0,0.0,-1.0,0.0,0.0,0.0,0.0,0.0,0.0,0.0,0.0,-0.003490658476948738,0.0,0.0,0.01,0.0,0.0,0.0,0.01,0.0,0.0,0.0,0.01,0.0784531980752945,-9.698776245117188,0.5197524428367615,0.01,0.0,0.0,0.0,0.01,0.0,0.0,0.0,0.01
1677685709.5048027,2023-03-01 16:48:29.504803,sensor_msgs/Imu,1677685709.5025127,camera_imu_optical_frame,0.0,0.0,0.0,0.0,-1.0,0.0,0.0,0.0,0.0,0.0,0.0,0.0,0.0,-0.001745329238474369,0.0,0.0,0.01,0.0,0.0,0.0,0.01,0.0,0.0,0.0,0.01,0.0784531980752945,-9.698776245117188,0.5197524428367615,0.01,0.0,0.0,0.0,0.01,0.0,0.0,0.0,0.01
1677685709.5086935,2023-03-01 16:48:29.508693,sensor_msgs/Imu,1677685709.5075111,camera_imu_optical_frame,0.0,0.0,0.0,0.0,-1.0,0.0,0.0,0.0,0.0,0.0,0.0,0.0,0.0,-0.001745329238474369,0.001745329238474369,0.0,0.01,0.0,0.0,0.0,0.01,0.0,0.0,0.0,0.01,0.0784531980752945,-9.718389511108398,0.509945809841156,0.01,0.0,0.0,0.0,0.01,0.0,0.0,0.0,0.01
1677685709.5144,2023-03-01 16:48:29.514400,sensor_msgs/Imu,1677685709.512509,camera_imu_optical_frame,0.0,0.0,0.0,0.0,-1.0,0.0,0.0,0.0,0.0,0.0,0.0,0.0,0.0,-0.005235987715423107,0.001745329238474369,0.0,0.01,0.0,0.0,0.0,0.01,0.0,0.0,0.0,0.01,0.0784531980752945,-9.718389511108398,0.509945809841156,0.01,0.0,0.0,0.0,0.01,0.0,0.0,0.0,0.01
1677685709.518748,2023-03-01 16:48:29.518748,sensor_msgs/Imu,1677685709.5175066,camera_imu_optical_frame,0.0,0.0,0.0,0.0,-1.0,0.0,0.0,0.0,0.0,0.0,0.0,0.0,0.0,0.0,0.003490658476948738,-0.001745329238474369,0.01,0.0,0.0,0.0,0.01,0.0,0.0,0.0,0.01,0.05883989855647087,-9.718389511108398,0.5197524428367615,0.01,0.0,0.0,0.0,0.01,0.0,0.0,0.0,0.01
1677685709.5239217,2023-03-01 16:48:29.523922,sensor_msgs/Imu,1677685709.5225039,camera_imu_optical_frame,0.0,0.0,0.0,0.0,-1.0,0.0,0.0,0.0,0.0,0.0,0.0,0.0,0.0,-0.001745329238474369,0.005235987715423107,0.0,0.01,0.0,0.0,0.0,0.01,0.0,0.0,0.0,0.01,0.05883989855647087,-9.718389511108398,0.5197524428367615,0.01,0.0,0.0,0.0,0.01,0.0,0.0,0.0,0.01
1677685709.528764,2023-03-01 16:48:29.528764,sensor_msgs/Imu,1677685709.527502,camera_imu_optical_frame,0.0,0.0,0.0,0.0,-1.0,0.0,0.0,0.0,0.0,0.0,0.0,0.0,0.0,0.0,0.0,-0.001745329238474369,0.01,0.0,0.0,0.0,0.01,0.0,0.0,0.0,0.01,0.06864655017852783,-9.718389511108398,0.5197524428367615,0.01,0.0,0.0,0.0,0.01,0.0,0.0,0.0,0.01
1677685709.5339384,2023-03-01 16:48:29.533938,sensor_msgs/Imu,1677685709.5325005,camera_imu_optical_frame,0.0,0.0,0.0,0.0,-1.0,0.0,0.0,0.0,0.0,0.0,0.0,0.0,0.0,-0.001745329238474369,-0.001745329238474369,0.001745329238474369,0.01,0.0,0.0,0.0,0.01,0.0,0.0,0.0,0.01,0.06864655017852783,-9.718389511108398,0.5197524428367615,0.01,0.0,0.0,0.0,0.01,0.0,0.0,0.0,0.01
1677685709.5400834,2023-03-01 16:48:29.540083,sensor_msgs/Imu,1677685709.5374978,camera_imu_optical_frame,0.0,0.0,0.0,0.0,-1.0,0.0,0.0,0.0,0.0,0.0,0.0,0.0,0.0,-0.006981316953897476,-0.005235987715423107,0.0,0.01,0.0,0.0,0.0,0.01,0.0,0.0,0.0,0.01,0.0784531980752945,-9.708582878112793,0.5295590758323669,0.01,0.0,0.0,0.0,0.01,0.0,0.0,0.0,0.01
1677685709.544528,2023-03-01 16:48:29.544528,sensor_msgs/Imu,1677685709.542496,camera_imu_optical_frame,0.0,0.0,0.0,0.0,-1.0,0.0,0.0,0.0,0.0,0.0,0.0,0.0,0.0,-0.003490658476948738,0.0,-0.001745329238474369,0.01,0.0,0.0,0.0,0.01,0.0,0.0,0.0,0.01,0.0784531980752945,-9.708582878112793,0.5295590758323669,0.01,0.0,0.0,0.0,0.01,0.0,0.0,0.0,0.01
1677685709.5488517,2023-03-01 16:48:29.548852,sensor_msgs/Imu,1677685709.5474944,camera_imu_optical_frame,0.0,0.0,0.0,0.0,-1.0,0.0,0.0,0.0,0.0,0.0,0.0,0.0,0.0,-0.001745329238474369,0.0,0.001745329238474369,0.01,0.0,0.0,0.0,0.01,0.0,0.0,0.0,0.01,0.0784531980752945,-9.698776245117188,0.5197524428367615,0.01,0.0,0.0,0.0,0.01,0.0,0.0,0.0,0.01
1677685709.5542953,2023-03-01 16:48:29.554295,sensor_msgs/Imu,1677685709.5524917,camera_imu_optical_frame,0.0,0.0,0.0,0.0,-1.0,0.0,0.0,0.0,0.0,0.0,0.0,0.0,0.0,0.0,0.0,0.0,0.01,0.0,0.0,0.0,0.01,0.0,0.0,0.0,0.01,0.0784531980752945,-9.698776245117188,0.5197524428367615,0.01,0.0,0.0,0.0,0.01,0.0,0.0,0.0,0.01
1677685709.558944,2023-03-01 16:48:29.558944,sensor_msgs/Imu,1677685709.557489,camera_imu_optical_frame,0.0,0.0,0.0,0.0,-1.0,0.0,0.0,0.0,0.0,0.0,0.0,0.0,0.0,0.0,0.0,0.0,0.01,0.0,0.0,0.0,0.01,0.0,0.0,0.0,0.01,0.05883989855647087,-9.708582878112793,0.5295590758323669,0.01,0.0,0.0,0.0,0.01,0.0,0.0,0.0,0.01
1677685709.5635564,2023-03-01 16:48:29.563556,sensor_msgs/Imu,1677685709.5624874,camera_imu_optical_frame,0.0,0.0,0.0,0.0,-1.0,0.0,0.0,0.0,0.0,0.0,0.0,0.0,0.0,0.0,-0.001745329238474369,0.0,0.01,0.0,0.0,0.0,0.01,0.0,0.0,0.0,0.01,0.05883989855647087,-9.708582878112793,0.5295590758323669,0.01,0.0,0.0,0.0,0.01,0.0,0.0,0.0,0.01
1677685709.5695815,2023-03-01 16:48:29.569582,sensor_msgs/Imu,1677685709.5674846,camera_imu_optical_frame,0.0,0.0,0.0,0.0,-1.0,0.0,0.0,0.0,0.0,0.0,0.0,0.0,0.0,-0.003490658476948738,-0.001745329238474369,-0.001745329238474369,0.01,0.0,0.0,0.0,0.01,0.0,0.0,0.0,0.01,0.06864655017852783,-9.708582878112793,0.5197524428367615,0.01,0.0,0.0,0.0,0.01,0.0,0.0,0.0,0.01
1677685709.5738597,2023-03-01 16:48:29.573860,sensor_msgs/Imu,1677685709.5724828,camera_imu_optical_frame,0.0,0.0,0.0,0.0,-1.0,0.0,0.0,0.0,0.0,0.0,0.0,0.0,0.0,0.0,0.0,0.001745329238474369,0.01,0.0,0.0,0.0,0.01,0.0,0.0,0.0,0.01,0.06864655017852783,-9.708582878112793,0.5197524428367615,0.01,0.0,0.0,0.0,0.01,0.0,0.0,0.0,0.01
1677685709.5783987,2023-03-01 16:48:29.578399,sensor_msgs/Imu,1677685709.5774813,camera_imu_optical_frame,0.0,0.0,0.0,0.0,-1.0,0.0,0.0,0.0,0.0,0.0,0.0,0.0,0.0,-0.001745329238474369,0.001745329238474369,0.0,0.01,0.0,0.0,0.0,0.01,0.0,0.0,0.0,0.01,0.05883989855647087,-9.708582878112793,0.509945809841156,0.01,0.0,0.0,0.0,0.01,0.0,0.0,0.0,0.01
1677685709.583565,2023-03-01 16:48:29.583565,sensor_msgs/Imu,1677685709.5824785,camera_imu_optical_frame,0.0,0.0,0.0,0.0,-1.0,0.0,0.0,0.0,0.0,0.0,0.0,0.0,0.0,0.0,0.001745329238474369,0.0,0.01,0.0,0.0,0.0,0.01,0.0,0.0,0.0,0.01,0.05883989855647087,-9.708582878112793,0.509945809841156,0.01,0.0,0.0,0.0,0.01,0.0,0.0,0.0,0.01
1677685709.588683,2023-03-01 16:48:29.588683,sensor_msgs/Imu,1677685709.5874767,camera_imu_optical_frame,0.0,0.0,0.0,0.0,-1.0,0.0,0.0,0.0,0.0,0.0,0.0,0.0,0.0,-0.003490658476948738,0.0,0.0,0.01,0.0,0.0,0.0,0.01,0.0,0.0,0.0,0.01,0.06864655017852783,-9.718389511108398,0.509945809841156,0.01,0.0,0.0,0.0,0.01,0.0,0.0,0.0,0.01
1677685709.5934668,2023-03-01 16:48:29.593467,sensor_msgs/Imu,1677685709.5924742,camera_imu_optical_frame,0.0,0.0,0.0,0.0,-1.0,0.0,0.0,0.0,0.0,0.0,0.0,0.0,0.0,-0.001745329238474369,0.0,0.0,0.01,0.0,0.0,0.0,0.01,0.0,0.0,0.0,0.01,0.06864655017852783,-9.718389511108398,0.509945809841156,0.01,0.0,0.0,0.0,0.01,0.0,0.0,0.0,0.01
1677685709.599408,2023-03-01 16:48:29.599408,sensor_msgs/Imu,1677685709.5974724,camera_imu_optical_frame,0.0,0.0,0.0,0.0,-1.0,0.0,0.0,0.0,0.0,0.0,0.0,0.0,0.0,-0.003490658476948738,0.0,0.0,0.01,0.0,0.0,0.0,0.01,0.0,0.0,0.0,0.01,0.06864655017852783,-9.708582878112793,0.5295590758323669,0.01,0.0,0.0,0.0,0.01,0.0,0.0,0.0,0.01
1677685709.6040304,2023-03-01 16:48:29.604030,sensor_msgs/Imu,1677685709.6024706,camera_imu_optical_frame,0.0,0.0,0.0,0.0,-1.0,0.0,0.0,0.0,0.0,0.0,0.0,0.0,0.0,0.0,0.001745329238474369,0.0,0.01,0.0,0.0,0.0,0.01,0.0,0.0,0.0,0.01,0.06864655017852783,-9.708582878112793,0.5295590758323669,0.01,0.0,0.0,0.0,0.01,0.0,0.0,0.0,0.01
1677685709.610744,2023-03-01 16:48:29.610744,sensor_msgs/Imu,1677685709.6074681,camera_imu_optical_frame,0.0,0.0,0.0,0.0,-1.0,0.0,0.0,0.0,0.0,0.0,0.0,0.0,0.0,-0.003490658476948738,0.001745329238474369,0.0,0.01,0.0,0.0,0.0,0.01,0.0,0.0,0.0,0.01,0.04903324693441391,-9.708582878112793,0.5197524428367615,0.01,0.0,0.0,0.0,0.01,0.0,0.0,0.0,0.01
1677685709.613755,2023-03-01 16:48:29.613755,sensor_msgs/Imu,1677685709.6124663,camera_imu_optical_frame,0.0,0.0,0.0,0.0,-1.0,0.0,0.0,0.0,0.0,0.0,0.0,0.0,0.0,0.0,0.001745329238474369,0.0,0.01,0.0,0.0,0.0,0.01,0.0,0.0,0.0,0.01,0.04903324693441391,-9.708582878112793,0.5197524428367615,0.01,0.0,0.0,0.0,0.01,0.0,0.0,0.0,0.01
1677685709.6188164,2023-03-01 16:48:29.618816,sensor_msgs/Imu,1677685709.6174636,camera_imu_optical_frame,0.0,0.0,0.0,0.0,-1.0,0.0,0.0,0.0,0.0,0.0,0.0,0.0,0.0,-0.003490658476948738,0.0,0.0,0.01,0.0,0.0,0.0,0.01,0.0,0.0,0.0,0.01,0.06864655017852783,-9.728196144104004,0.509945809841156,0.01,0.0,0.0,0.0,0.01,0.0,0.0,0.0,0.01
1677685709.623299,2023-03-01 16:48:29.623299,sensor_msgs/Imu,1677685709.622462,camera_imu_optical_frame,0.0,0.0,0.0,0.0,-1.0,0.0,0.0,0.0,0.0,0.0,0.0,0.0,0.0,-0.001745329238474369,0.003490658476948738,0.0,0.01,0.0,0.0,0.0,0.01,0.0,0.0,0.0,0.01,0.06864655017852783,-9.728196144104004,0.509945809841156,0.01,0.0,0.0,0.0,0.01,0.0,0.0,0.0,0.01
1677685709.628356,2023-03-01 16:48:29.628356,sensor_msgs/Imu,1677685709.6274593,camera_imu_optical_frame,0.0,0.0,0.0,0.0,-1.0,0.0,0.0,0.0,0.0,0.0,0.0,0.0,0.0,0.0,0.0,0.0,0.01,0.0,0.0,0.0,0.01,0.0,0.0,0.0,0.01,0.06864655017852783,-9.708582878112793,0.509945809841156,0.01,0.0,0.0,0.0,0.01,0.0,0.0,0.0,0.01
1677685709.6333263,2023-03-01 16:48:29.633326,sensor_msgs/Imu,1677685709.6324575,camera_imu_optical_frame,0.0,0.0,0.0,0.0,-1.0,0.0,0.0,0.0,0.0,0.0,0.0,0.0,0.0,0.0,0.001745329238474369,0.001745329238474369,0.01,0.0,0.0,0.0,0.01,0.0,0.0,0.0,0.01,0.06864655017852783,-9.708582878112793,0.509945809841156,0.01,0.0,0.0,0.0,0.01,0.0,0.0,0.0,0.01
1677685709.6386425,2023-03-01 16:48:29.638643,sensor_msgs/Imu,1677685709.6374547,camera_imu_optical_frame,0.0,0.0,0.0,0.0,-1.0,0.0,0.0,0.0,0.0,0.0,0.0,0.0,0.0,0.0,0.0,0.0,0.01,0.0,0.0,0.0,0.01,0.0,0.0,0.0,0.01,0.0784531980752945,-9.718389511108398,0.5295590758323669,0.01,0.0,0.0,0.0,0.01,0.0,0.0,0.0,0.01
1677685709.644154,2023-03-01 16:48:29.644154,sensor_msgs/Imu,1677685709.6424532,camera_imu_optical_frame,0.0,0.0,0.0,0.0,-1.0,0.0,0.0,0.0,0.0,0.0,0.0,0.0,0.0,0.0,0.0,0.0,0.01,0.0,0.0,0.0,0.01,0.0,0.0,0.0,0.01,0.0784531980752945,-9.718389511108398,0.5295590758323669,0.01,0.0,0.0,0.0,0.01,0.0,0.0,0.0,0.01
1677685709.6487906,2023-03-01 16:48:29.648791,sensor_msgs/Imu,1677685709.6474514,camera_imu_optical_frame,0.0,0.0,0.0,0.0,-1.0,0.0,0.0,0.0,0.0,0.0,0.0,0.0,0.0,0.001745329238474369,0.0,0.0,0.01,0.0,0.0,0.0,0.01,0.0,0.0,0.0,0.01,0.0784531980752945,-9.708582878112793,0.5295590758323669,0.01,0.0,0.0,0.0,0.01,0.0,0.0,0.0,0.01
1677685709.6535492,2023-03-01 16:48:29.653549,sensor_msgs/Imu,1677685709.6524487,camera_imu_optical_frame,0.0,0.0,0.0,0.0,-1.0,0.0,0.0,0.0,0.0,0.0,0.0,0.0,0.0,0.0,0.001745329238474369,0.0,0.01,0.0,0.0,0.0,0.01,0.0,0.0,0.0,0.01,0.0784531980752945,-9.708582878112793,0.5295590758323669,0.01,0.0,0.0,0.0,0.01,0.0,0.0,0.0,0.01
1677685709.6586285,2023-03-01 16:48:29.658628,sensor_msgs/Imu,1677685709.6574469,camera_imu_optical_frame,0.0,0.0,0.0,0.0,-1.0,0.0,0.0,0.0,0.0,0.0,0.0,0.0,0.0,-0.001745329238474369,0.008726646192371845,0.0,0.01,0.0,0.0,0.0,0.01,0.0,0.0,0.0,0.01,0.05883989855647087,-9.698776245117188,0.5197524428367615,0.01,0.0,0.0,0.0,0.01,0.0,0.0,0.0,0.01
1677685709.6635957,2023-03-01 16:48:29.663596,sensor_msgs/Imu,1677685709.662444,camera_imu_optical_frame,0.0,0.0,0.0,0.0,-1.0,0.0,0.0,0.0,0.0,0.0,0.0,0.0,0.0,0.0,0.003490658476948738,0.0,0.01,0.0,0.0,0.0,0.01,0.0,0.0,0.0,0.01,0.05883989855647087,-9.698776245117188,0.5197524428367615,0.01,0.0,0.0,0.0,0.01,0.0,0.0,0.0,0.01
1677685709.6685486,2023-03-01 16:48:29.668549,sensor_msgs/Imu,1677685709.6674423,camera_imu_optical_frame,0.0,0.0,0.0,0.0,-1.0,0.0,0.0,0.0,0.0,0.0,0.0,0.0,0.0,-0.001745329238474369,-0.005235987715423107,0.001745329238474369,0.01,0.0,0.0,0.0,0.01,0.0,0.0,0.0,0.01,0.05883989855647087,-9.698776245117188,0.509945809841156,0.01,0.0,0.0,0.0,0.01,0.0,0.0,0.0,0.01
1677685709.6737323,2023-03-01 16:48:29.673732,sensor_msgs/Imu,1677685709.6724398,camera_imu_optical_frame,0.0,0.0,0.0,0.0,-1.0,0.0,0.0,0.0,0.0,0.0,0.0,0.0,0.0,0.0,0.0,0.0,0.01,0.0,0.0,0.0,0.01,0.0,0.0,0.0,0.01,0.05883989855647087,-9.698776245117188,0.509945809841156,0.01,0.0,0.0,0.0,0.01,0.0,0.0,0.0,0.01
1677685709.6788735,2023-03-01 16:48:29.678874,sensor_msgs/Imu,1677685709.677438,camera_imu_optical_frame,0.0,0.0,0.0,0.0,-1.0,0.0,0.0,0.0,0.0,0.0,0.0,0.0,0.0,-0.001745329238474369,0.0,0.0,0.01,0.0,0.0,0.0,0.01,0.0,0.0,0.0,0.01,0.0784531980752945,-9.718389511108398,0.5197524428367615,0.01,0.0,0.0,0.0,0.01,0.0,0.0,0.0,0.01
1677685709.6833122,2023-03-01 16:48:29.683312,sensor_msgs/Imu,1677685709.6824353,camera_imu_optical_frame,0.0,0.0,0.0,0.0,-1.0,0.0,0.0,0.0,0.0,0.0,0.0,0.0,0.0,-0.001745329238474369,0.001745329238474369,0.001745329238474369,0.01,0.0,0.0,0.0,0.01,0.0,0.0,0.0,0.01,0.0784531980752945,-9.718389511108398,0.5197524428367615,0.01,0.0,0.0,0.0,0.01,0.0,0.0,0.0,0.01
1677685709.6883953,2023-03-01 16:48:29.688395,sensor_msgs/Imu,1677685709.6874335,camera_imu_optical_frame,0.0,0.0,0.0,0.0,-1.0,0.0,0.0,0.0,0.0,0.0,0.0,0.0,0.0,-0.001745329238474369,-0.001745329238474369,0.0,0.01,0.0,0.0,0.0,0.01,0.0,0.0,0.0,0.01,0.06864655017852783,-9.708582878112793,0.509945809841156,0.01,0.0,0.0,0.0,0.01,0.0,0.0,0.0,0.01
1677685709.6935704,2023-03-01 16:48:29.693570,sensor_msgs/Imu,1677685709.6924307,camera_imu_optical_frame,0.0,0.0,0.0,0.0,-1.0,0.0,0.0,0.0,0.0,0.0,0.0,0.0,0.0,-0.001745329238474369,-0.003490658476948738,0.0,0.01,0.0,0.0,0.0,0.01,0.0,0.0,0.0,0.01,0.06864655017852783,-9.708582878112793,0.509945809841156,0.01,0.0,0.0,0.0,0.01,0.0,0.0,0.0,0.01
1677685709.6983643,2023-03-01 16:48:29.698364,sensor_msgs/Imu,1677685709.6974292,camera_imu_optical_frame,0.0,0.0,0.0,0.0,-1.0,0.0,0.0,0.0,0.0,0.0,0.0,0.0,0.0,0.0,-0.001745329238474369,-0.001745329238474369,0.01,0.0,0.0,0.0,0.01,0.0,0.0,0.0,0.01,0.06864655017852783,-9.698776245117188,0.509945809841156,0.01,0.0,0.0,0.0,0.01,0.0,0.0,0.0,0.01
1677685709.7034082,2023-03-01 16:48:29.703408,sensor_msgs/Imu,1677685709.7024274,camera_imu_optical_frame,0.0,0.0,0.0,0.0,-1.0,0.0,0.0,0.0,0.0,0.0,0.0,0.0,0.0,-0.003490658476948738,0.005235987715423107,0.0,0.01,0.0,0.0,0.0,0.01,0.0,0.0,0.0,0.01,0.06864655017852783,-9.698776245117188,0.509945809841156,0.01,0.0,0.0,0.0,0.01,0.0,0.0,0.0,0.01
1677685709.7090707,2023-03-01 16:48:29.709071,sensor_msgs/Imu,1677685709.7074249,camera_imu_optical_frame,0.0,0.0,0.0,0.0,-1.0,0.0,0.0,0.0,0.0,0.0,0.0,0.0,0.0,-0.003490658476948738,0.001745329238474369,0.0,0.01,0.0,0.0,0.0,0.01,0.0,0.0,0.0,0.01,0.06864655017852783,-9.698776245117188,0.5197524428367615,0.01,0.0,0.0,0.0,0.01,0.0,0.0,0.0,0.01
1677685709.7137296,2023-03-01 16:48:29.713730,sensor_msgs/Imu,1677685709.712423,camera_imu_optical_frame,0.0,0.0,0.0,0.0,-1.0,0.0,0.0,0.0,0.0,0.0,0.0,0.0,0.0,0.0,0.0,0.0,0.01,0.0,0.0,0.0,0.01,0.0,0.0,0.0,0.01,0.06864655017852783,-9.698776245117188,0.5197524428367615,0.01,0.0,0.0,0.0,0.01,0.0,0.0,0.0,0.01
1677685709.718528,2023-03-01 16:48:29.718528,sensor_msgs/Imu,1677685709.7174203,camera_imu_optical_frame,0.0,0.0,0.0,0.0,-1.0,0.0,0.0,0.0,0.0,0.0,0.0,0.0,0.0,-0.001745329238474369,0.001745329238474369,0.0,0.01,0.0,0.0,0.0,0.01,0.0,0.0,0.0,0.01,0.05883989855647087,-9.708582878112793,0.509945809841156,0.01,0.0,0.0,0.0,0.01,0.0,0.0,0.0,0.01
1677685709.7236147,2023-03-01 16:48:29.723615,sensor_msgs/Imu,1677685709.7224188,camera_imu_optical_frame,0.0,0.0,0.0,0.0,-1.0,0.0,0.0,0.0,0.0,0.0,0.0,0.0,0.0,-0.003490658476948738,0.001745329238474369,0.0,0.01,0.0,0.0,0.0,0.01,0.0,0.0,0.0,0.01,0.05883989855647087,-9.708582878112793,0.509945809841156,0.01,0.0,0.0,0.0,0.01,0.0,0.0,0.0,0.01
1677685709.7287905,2023-03-01 16:48:29.728791,sensor_msgs/Imu,1677685709.727416,camera_imu_optical_frame,0.0,0.0,0.0,0.0,-1.0,0.0,0.0,0.0,0.0,0.0,0.0,0.0,0.0,-0.003490658476948738,0.0,0.0,0.01,0.0,0.0,0.0,0.01,0.0,0.0,0.0,0.01,0.0784531980752945,-9.708582878112793,0.5197524428367615,0.01,0.0,0.0,0.0,0.01,0.0,0.0,0.0,0.01
1677685709.733484,2023-03-01 16:48:29.733484,sensor_msgs/Imu,1677685709.7324142,camera_imu_optical_frame,0.0,0.0,0.0,0.0,-1.0,0.0,0.0,0.0,0.0,0.0,0.0,0.0,0.0,-0.001745329238474369,0.0,0.0,0.01,0.0,0.0,0.0,0.01,0.0,0.0,0.0,0.01,0.0784531980752945,-9.708582878112793,0.5197524428367615,0.01,0.0,0.0,0.0,0.01,0.0,0.0,0.0,0.01
1677685709.738703,2023-03-01 16:48:29.738703,sensor_msgs/Imu,1677685709.7374115,camera_imu_optical_frame,0.0,0.0,0.0,0.0,-1.0,0.0,0.0,0.0,0.0,0.0,0.0,0.0,0.0,0.0,0.0,0.001745329238474369,0.01,0.0,0.0,0.0,0.01,0.0,0.0,0.0,0.01,0.05883989855647087,-9.708582878112793,0.5197524428367615,0.01,0.0,0.0,0.0,0.01,0.0,0.0,0.0,0.01
1677685709.7433026,2023-03-01 16:48:29.743303,sensor_msgs/Imu,1677685709.74241,camera_imu_optical_frame,0.0,0.0,0.0,0.0,-1.0,0.0,0.0,0.0,0.0,0.0,0.0,0.0,0.0,0.0,0.003490658476948738,0.0,0.01,0.0,0.0,0.0,0.01,0.0,0.0,0.0,0.01,0.05883989855647087,-9.708582878112793,0.5197524428367615,0.01,0.0,0.0,0.0,0.01,0.0,0.0,0.0,0.01
1677685709.7484026,2023-03-01 16:48:29.748403,sensor_msgs/Imu,1677685709.7474072,camera_imu_optical_frame,0.0,0.0,0.0,0.0,-1.0,0.0,0.0,0.0,0.0,0.0,0.0,0.0,0.0,0.0,0.001745329238474369,-0.001745329238474369,0.01,0.0,0.0,0.0,0.01,0.0,0.0,0.0,0.01,0.05883989855647087,-9.708582878112793,0.509945809841156,0.01,0.0,0.0,0.0,0.01,0.0,0.0,0.0,0.01
1677685709.7533514,2023-03-01 16:48:29.753351,sensor_msgs/Imu,1677685709.7524054,camera_imu_optical_frame,0.0,0.0,0.0,0.0,-1.0,0.0,0.0,0.0,0.0,0.0,0.0,0.0,0.0,-0.003490658476948738,0.0,0.0,0.01,0.0,0.0,0.0,0.01,0.0,0.0,0.0,0.01,0.05883989855647087,-9.708582878112793,0.509945809841156,0.01,0.0,0.0,0.0,0.01,0.0,0.0,0.0,0.01
1677685709.7588646,2023-03-01 16:48:29.758865,sensor_msgs/Imu,1677685709.7574039,camera_imu_optical_frame,0.0,0.0,0.0,0.0,-1.0,0.0,0.0,0.0,0.0,0.0,0.0,0.0,0.0,-0.001745329238474369,-0.001745329238474369,0.0,0.01,0.0,0.0,0.0,0.01,0.0,0.0,0.0,0.01,0.06864655017852783,-9.698776245117188,0.5197524428367615,0.01,0.0,0.0,0.0,0.01,0.0,0.0,0.0,0.01
1677685709.7634149,2023-03-01 16:48:29.763415,sensor_msgs/Imu,1677685709.7624009,camera_imu_optical_frame,0.0,0.0,0.0,0.0,-1.0,0.0,0.0,0.0,0.0,0.0,0.0,0.0,0.0,-0.005235987715423107,-0.001745329238474369,0.0,0.01,0.0,0.0,0.0,0.01,0.0,0.0,0.0,0.01,0.06864655017852783,-9.698776245117188,0.5197524428367615,0.01,0.0,0.0,0.0,0.01,0.0,0.0,0.0,0.01
1677685709.7685866,2023-03-01 16:48:29.768587,sensor_msgs/Imu,1677685709.767399,camera_imu_optical_frame,0.0,0.0,0.0,0.0,-1.0,0.0,0.0,0.0,0.0,0.0,0.0,0.0,0.0,-0.005235987715423107,0.003490658476948738,0.0,0.01,0.0,0.0,0.0,0.01,0.0,0.0,0.0,0.01,0.06864655017852783,-9.708582878112793,0.5295590758323669,0.01,0.0,0.0,0.0,0.01,0.0,0.0,0.0,0.01
1677685709.7736187,2023-03-01 16:48:29.773619,sensor_msgs/Imu,1677685709.7723975,camera_imu_optical_frame,0.0,0.0,0.0,0.0,-1.0,0.0,0.0,0.0,0.0,0.0,0.0,0.0,0.0,0.0,0.0,0.0,0.01,0.0,0.0,0.0,0.01,0.0,0.0,0.0,0.01,0.06864655017852783,-9.708582878112793,0.5295590758323669,0.01,0.0,0.0,0.0,0.01,0.0,0.0,0.0,0.01
1677685709.7787955,2023-03-01 16:48:29.778795,sensor_msgs/Imu,1677685709.7773948,camera_imu_optical_frame,0.0,0.0,0.0,0.0,-1.0,0.0,0.0,0.0,0.0,0.0,0.0,0.0,0.0,-0.005235987715423107,0.0,0.0,0.01,0.0,0.0,0.0,0.01,0.0,0.0,0.0,0.01,0.0784531980752945,-9.708582878112793,0.5197524428367615,0.01,0.0,0.0,0.0,0.01,0.0,0.0,0.0,0.01
1677685709.7834487,2023-03-01 16:48:29.783449,sensor_msgs/Imu,1677685709.782393,camera_imu_optical_frame,0.0,0.0,0.0,0.0,-1.0,0.0,0.0,0.0,0.0,0.0,0.0,0.0,0.0,-0.001745329238474369,0.0,0.0,0.01,0.0,0.0,0.0,0.01,0.0,0.0,0.0,0.01,0.0784531980752945,-9.708582878112793,0.5197524428367615,0.01,0.0,0.0,0.0,0.01,0.0,0.0,0.0,0.01
1677685709.7885547,2023-03-01 16:48:29.788555,sensor_msgs/Imu,1677685709.7873905,camera_imu_optical_frame,0.0,0.0,0.0,0.0,-1.0,0.0,0.0,0.0,0.0,0.0,0.0,0.0,0.0,-0.001745329238474369,-0.003490658476948738,0.003490658476948738,0.01,0.0,0.0,0.0,0.01,0.0,0.0,0.0,0.01,0.06864655017852783,-9.718389511108398,0.5197524428367615,0.01,0.0,0.0,0.0,0.01,0.0,0.0,0.0,0.01
1677685709.7936268,2023-03-01 16:48:29.793627,sensor_msgs/Imu,1677685709.7923887,camera_imu_optical_frame,0.0,0.0,0.0,0.0,-1.0,0.0,0.0,0.0,0.0,0.0,0.0,0.0,0.0,-0.003490658476948738,0.0,0.0,0.01,0.0,0.0,0.0,0.01,0.0,0.0,0.0,0.01,0.06864655017852783,-9.718389511108398,0.5197524428367615,0.01,0.0,0.0,0.0,0.01,0.0,0.0,0.0,0.01
1677685709.7988153,2023-03-01 16:48:29.798815,sensor_msgs/Imu,1677685709.797386,camera_imu_optical_frame,0.0,0.0,0.0,0.0,-1.0,0.0,0.0,0.0,0.0,0.0,0.0,0.0,0.0,0.0,0.0,0.0,0.01,0.0,0.0,0.0,0.01,0.0,0.0,0.0,0.01,0.0784531980752945,-9.708582878112793,0.509945809841156,0.01,0.0,0.0,0.0,0.01,0.0,0.0,0.0,0.01
1677685709.8035445,2023-03-01 16:48:29.803545,sensor_msgs/Imu,1677685709.8023844,camera_imu_optical_frame,0.0,0.0,0.0,0.0,-1.0,0.0,0.0,0.0,0.0,0.0,0.0,0.0,0.0,0.0,0.003490658476948738,0.0,0.01,0.0,0.0,0.0,0.01,0.0,0.0,0.0,0.01,0.0784531980752945,-9.708582878112793,0.509945809841156,0.01,0.0,0.0,0.0,0.01,0.0,0.0,0.0,0.01
1677685709.808532,2023-03-01 16:48:29.808532,sensor_msgs/Imu,1677685709.8073814,camera_imu_optical_frame,0.0,0.0,0.0,0.0,-1.0,0.0,0.0,0.0,0.0,0.0,0.0,0.0,0.0,0.0,0.005235987715423107,0.0,0.01,0.0,0.0,0.0,0.01,0.0,0.0,0.0,0.01,0.0784531980752945,-9.698776245117188,0.5197524428367615,0.01,0.0,0.0,0.0,0.01,0.0,0.0,0.0,0.01
1677685709.813302,2023-03-01 16:48:29.813302,sensor_msgs/Imu,1677685709.8123798,camera_imu_optical_frame,0.0,0.0,0.0,0.0,-1.0,0.0,0.0,0.0,0.0,0.0,0.0,0.0,0.0,0.0,0.0,0.0,0.01,0.0,0.0,0.0,0.01,0.0,0.0,0.0,0.01,0.0784531980752945,-9.698776245117188,0.5197524428367615,0.01,0.0,0.0,0.0,0.01,0.0,0.0,0.0,0.01
1677685709.8187628,2023-03-01 16:48:29.818763,sensor_msgs/Imu,1677685709.8173773,camera_imu_optical_frame,0.0,0.0,0.0,0.0,-1.0,0.0,0.0,0.0,0.0,0.0,0.0,0.0,0.0,0.0,0.003490658476948738,0.0,0.01,0.0,0.0,0.0,0.01,0.0,0.0,0.0,0.01,0.06864655017852783,-9.708582878112793,0.5197524428367615,0.01,0.0,0.0,0.0,0.01,0.0,0.0,0.0,0.01
1677685709.823824,2023-03-01 16:48:29.823824,sensor_msgs/Imu,1677685709.8223755,camera_imu_optical_frame,0.0,0.0,0.0,0.0,-1.0,0.0,0.0,0.0,0.0,0.0,0.0,0.0,0.0,-0.005235987715423107,0.0,0.0,0.01,0.0,0.0,0.0,0.01,0.0,0.0,0.0,0.01,0.06864655017852783,-9.708582878112793,0.5197524428367615,0.01,0.0,0.0,0.0,0.01,0.0,0.0,0.0,0.01
1677685709.8290095,2023-03-01 16:48:29.829010,sensor_msgs/Imu,1677685709.8273735,camera_imu_optical_frame,0.0,0.0,0.0,0.0,-1.0,0.0,0.0,0.0,0.0,0.0,0.0,0.0,0.0,0.0,0.001745329238474369,-0.001745329238474369,0.01,0.0,0.0,0.0,0.01,0.0,0.0,0.0,0.01,0.06864655017852783,-9.708582878112793,0.5197524428367615,0.01,0.0,0.0,0.0,0.01,0.0,0.0,0.0,0.01
1677685709.8334703,2023-03-01 16:48:29.833470,sensor_msgs/Imu,1677685709.832371,camera_imu_optical_frame,0.0,0.0,0.0,0.0,-1.0,0.0,0.0,0.0,0.0,0.0,0.0,0.0,0.0,-0.001745329238474369,0.0,0.0,0.01,0.0,0.0,0.0,0.01,0.0,0.0,0.0,0.01,0.06864655017852783,-9.708582878112793,0.5197524428367615,0.01,0.0,0.0,0.0,0.01,0.0,0.0,0.0,0.01
1677685709.8386998,2023-03-01 16:48:29.838700,sensor_msgs/Imu,1677685709.8373692,camera_imu_optical_frame,0.0,0.0,0.0,0.0,-1.0,0.0,0.0,0.0,0.0,0.0,0.0,0.0,0.0,-0.001745329238474369,0.0,0.0,0.01,0.0,0.0,0.0,0.01,0.0,0.0,0.0,0.01,0.05883989855647087,-9.708582878112793,0.5197524428367615,0.01,0.0,0.0,0.0,0.01,0.0,0.0,0.0,0.01
1677685709.8439953,2023-03-01 16:48:29.843995,sensor_msgs/Imu,1677685709.8423665,camera_imu_optical_frame,0.0,0.0,0.0,0.0,-1.0,0.0,0.0,0.0,0.0,0.0,0.0,0.0,0.0,0.0,-0.001745329238474369,0.0,0.01,0.0,0.0,0.0,0.01,0.0,0.0,0.0,0.01,0.05883989855647087,-9.708582878112793,0.5197524428367615,0.01,0.0,0.0,0.0,0.01,0.0,0.0,0.0,0.01
1677685709.8489,2023-03-01 16:48:29.848900,sensor_msgs/Imu,1677685709.847365,camera_imu_optical_frame,0.0,0.0,0.0,0.0,-1.0,0.0,0.0,0.0,0.0,0.0,0.0,0.0,0.0,0.0,0.001745329238474369,0.0,0.01,0.0,0.0,0.0,0.01,0.0,0.0,0.0,0.01,0.06864655017852783,-9.708582878112793,0.5197524428367615,0.01,0.0,0.0,0.0,0.01,0.0,0.0,0.0,0.01
1677685709.853647,2023-03-01 16:48:29.853647,sensor_msgs/Imu,1677685709.852362,camera_imu_optical_frame,0.0,0.0,0.0,0.0,-1.0,0.0,0.0,0.0,0.0,0.0,0.0,0.0,0.0,-0.001745329238474369,0.0,0.0,0.01,0.0,0.0,0.0,0.01,0.0,0.0,0.0,0.01,0.06864655017852783,-9.708582878112793,0.5197524428367615,0.01,0.0,0.0,0.0,0.01,0.0,0.0,0.0,0.01
1677685709.8584712,2023-03-01 16:48:29.858471,sensor_msgs/Imu,1677685709.8573604,camera_imu_optical_frame,0.0,0.0,0.0,0.0,-1.0,0.0,0.0,0.0,0.0,0.0,0.0,0.0,0.0,-0.003490658476948738,0.001745329238474369,0.003490658476948738,0.01,0.0,0.0,0.0,0.01,0.0,0.0,0.0,0.01,0.06864655017852783,-9.708582878112793,0.5295590758323669,0.01,0.0,0.0,0.0,0.01,0.0,0.0,0.0,0.01
1677685709.8634965,2023-03-01 16:48:29.863497,sensor_msgs/Imu,1677685709.8623579,camera_imu_optical_frame,0.0,0.0,0.0,0.0,-1.0,0.0,0.0,0.0,0.0,0.0,0.0,0.0,0.0,0.0,0.005235987715423107,-0.001745329238474369,0.01,0.0,0.0,0.0,0.01,0.0,0.0,0.0,0.01,0.06864655017852783,-9.708582878112793,0.5295590758323669,0.01,0.0,0.0,0.0,0.01,0.0,0.0,0.0,0.01
1677685709.8683841,2023-03-01 16:48:29.868384,sensor_msgs/Imu,1677685709.8673558,camera_imu_optical_frame,0.0,0.0,0.0,0.0,-1.0,0.0,0.0,0.0,0.0,0.0,0.0,0.0,0.0,-0.001745329238474369,0.001745329238474369,0.0,0.01,0.0,0.0,0.0,0.01,0.0,0.0,0.0,0.01,0.06864655017852783,-9.708582878112793,0.5197524428367615,0.01,0.0,0.0,0.0,0.01,0.0,0.0,0.0,0.01
1677685709.8732889,2023-03-01 16:48:29.873289,sensor_msgs/Imu,1677685709.8723533,camera_imu_optical_frame,0.0,0.0,0.0,0.0,-1.0,0.0,0.0,0.0,0.0,0.0,0.0,0.0,0.0,0.0,0.005235987715423107,-0.001745329238474369,0.01,0.0,0.0,0.0,0.01,0.0,0.0,0.0,0.01,0.06864655017852783,-9.708582878112793,0.5197524428367615,0.01,0.0,0.0,0.0,0.01,0.0,0.0,0.0,0.01
1677685709.8786578,2023-03-01 16:48:29.878658,sensor_msgs/Imu,1677685709.8773515,camera_imu_optical_frame,0.0,0.0,0.0,0.0,-1.0,0.0,0.0,0.0,0.0,0.0,0.0,0.0,0.0,0.0,0.003490658476948738,0.0,0.01,0.0,0.0,0.0,0.01,0.0,0.0,0.0,0.01,0.05883989855647087,-9.698776245117188,0.5197524428367615,0.01,0.0,0.0,0.0,0.01,0.0,0.0,0.0,0.01
1677685709.8839326,2023-03-01 16:48:29.883933,sensor_msgs/Imu,1677685709.8823485,camera_imu_optical_frame,0.0,0.0,0.0,0.0,-1.0,0.0,0.0,0.0,0.0,0.0,0.0,0.0,0.0,-0.001745329238474369,0.0,0.0,0.01,0.0,0.0,0.0,0.01,0.0,0.0,0.0,0.01,0.05883989855647087,-9.698776245117188,0.5197524428367615,0.01,0.0,0.0,0.0,0.01,0.0,0.0,0.0,0.01
1677685709.8886695,2023-03-01 16:48:29.888669,sensor_msgs/Imu,1677685709.887347,camera_imu_optical_frame,0.0,0.0,0.0,0.0,-1.0,0.0,0.0,0.0,0.0,0.0,0.0,0.0,0.0,0.0,0.0,0.0,0.01,0.0,0.0,0.0,0.01,0.0,0.0,0.0,0.01,0.0784531980752945,-9.688969612121582,0.5393657088279724,0.01,0.0,0.0,0.0,0.01,0.0,0.0,0.0,0.01
1677685709.8938203,2023-03-01 16:48:29.893820,sensor_msgs/Imu,1677685709.8923452,camera_imu_optical_frame,0.0,0.0,0.0,0.0,-1.0,0.0,0.0,0.0,0.0,0.0,0.0,0.0,0.0,0.0,0.0,0.0,0.01,0.0,0.0,0.0,0.01,0.0,0.0,0.0,0.01,0.0784531980752945,-9.688969612121582,0.5393657088279724,0.01,0.0,0.0,0.0,0.01,0.0,0.0,0.0,0.01
1677685709.8984332,2023-03-01 16:48:29.898433,sensor_msgs/Imu,1677685709.8973424,camera_imu_optical_frame,0.0,0.0,0.0,0.0,-1.0,0.0,0.0,0.0,0.0,0.0,0.0,0.0,0.0,-0.001745329238474369,0.003490658476948738,0.0,0.01,0.0,0.0,0.0,0.01,0.0,0.0,0.0,0.01,0.0784531980752945,-9.708582878112793,0.5197524428367615,0.01,0.0,0.0,0.0,0.01,0.0,0.0,0.0,0.01
1677685709.9034016,2023-03-01 16:48:29.903402,sensor_msgs/Imu,1677685709.902341,camera_imu_optical_frame,0.0,0.0,0.0,0.0,-1.0,0.0,0.0,0.0,0.0,0.0,0.0,0.0,0.0,-0.001745329238474369,0.001745329238474369,0.0,0.01,0.0,0.0,0.0,0.01,0.0,0.0,0.0,0.01,0.0784531980752945,-9.708582878112793,0.5197524428367615,0.01,0.0,0.0,0.0,0.01,0.0,0.0,0.0,0.01
1677685709.9086769,2023-03-01 16:48:29.908677,sensor_msgs/Imu,1677685709.9073381,camera_imu_optical_frame,0.0,0.0,0.0,0.0,-1.0,0.0,0.0,0.0,0.0,0.0,0.0,0.0,0.0,-0.001745329238474369,0.0,0.001745329238474369,0.01,0.0,0.0,0.0,0.01,0.0,0.0,0.0,0.01,0.0784531980752945,-9.708582878112793,0.5197524428367615,0.01,0.0,0.0,0.0,0.01,0.0,0.0,0.0,0.01
1677685709.9135582,2023-03-01 16:48:29.913558,sensor_msgs/Imu,1677685709.9123363,camera_imu_optical_frame,0.0,0.0,0.0,0.0,-1.0,0.0,0.0,0.0,0.0,0.0,0.0,0.0,0.0,0.0,-0.005235987715423107,0.0,0.01,0.0,0.0,0.0,0.01,0.0,0.0,0.0,0.01,0.0784531980752945,-9.708582878112793,0.5197524428367615,0.01,0.0,0.0,0.0,0.01,0.0,0.0,0.0,0.01
1677685709.9186926,2023-03-01 16:48:29.918693,sensor_msgs/Imu,1677685709.9173338,camera_imu_optical_frame,0.0,0.0,0.0,0.0,-1.0,0.0,0.0,0.0,0.0,0.0,0.0,0.0,0.0,-0.003490658476948738,0.001745329238474369,0.0,0.01,0.0,0.0,0.0,0.01,0.0,0.0,0.0,0.01,0.0784531980752945,-9.698776245117188,0.5295590758323669,0.01,0.0,0.0,0.0,0.01,0.0,0.0,0.0,0.01
1677685709.9237473,2023-03-01 16:48:29.923747,sensor_msgs/Imu,1677685709.9223318,camera_imu_optical_frame,0.0,0.0,0.0,0.0,-1.0,0.0,0.0,0.0,0.0,0.0,0.0,0.0,0.0,-0.003490658476948738,0.003490658476948738,0.0,0.01,0.0,0.0,0.0,0.01,0.0,0.0,0.0,0.01,0.0784531980752945,-9.698776245117188,0.5295590758323669,0.01,0.0,0.0,0.0,0.01,0.0,0.0,0.0,0.01
1677685709.928513,2023-03-01 16:48:29.928513,sensor_msgs/Imu,1677685709.927329,camera_imu_optical_frame,0.0,0.0,0.0,0.0,-1.0,0.0,0.0,0.0,0.0,0.0,0.0,0.0,0.0,-0.001745329238474369,0.003490658476948738,0.0,0.01,0.0,0.0,0.0,0.01,0.0,0.0,0.0,0.01,0.06864655017852783,-9.708582878112793,0.5197524428367615,0.01,0.0,0.0,0.0,0.01,0.0,0.0,0.0,0.01
1677685709.9336143,2023-03-01 16:48:29.933614,sensor_msgs/Imu,1677685709.9323275,camera_imu_optical_frame,0.0,0.0,0.0,0.0,-1.0,0.0,0.0,0.0,0.0,0.0,0.0,0.0,0.0,0.001745329238474369,0.0,0.0,0.01,0.0,0.0,0.0,0.01,0.0,0.0,0.0,0.01,0.06864655017852783,-9.708582878112793,0.5197524428367615,0.01,0.0,0.0,0.0,0.01,0.0,0.0,0.0,0.01
1677685709.9387226,2023-03-01 16:48:29.938723,sensor_msgs/Imu,1677685709.9373255,camera_imu_optical_frame,0.0,0.0,0.0,0.0,-1.0,0.0,0.0,0.0,0.0,0.0,0.0,0.0,0.0,-0.001745329238474369,0.001745329238474369,0.001745329238474369,0.01,0.0,0.0,0.0,0.01,0.0,0.0,0.0,0.01,0.0784531980752945,-9.708582878112793,0.509945809841156,0.01,0.0,0.0,0.0,0.01,0.0,0.0,0.0,0.01
1677685709.9436114,2023-03-01 16:48:29.943611,sensor_msgs/Imu,1677685709.942323,camera_imu_optical_frame,0.0,0.0,0.0,0.0,-1.0,0.0,0.0,0.0,0.0,0.0,0.0,0.0,0.0,0.0,0.0,0.0,0.01,0.0,0.0,0.0,0.01,0.0,0.0,0.0,0.01,0.0784531980752945,-9.708582878112793,0.509945809841156,0.01,0.0,0.0,0.0,0.01,0.0,0.0,0.0,0.01
1677685709.9485157,2023-03-01 16:48:29.948516,sensor_msgs/Imu,1677685709.9473214,camera_imu_optical_frame,0.0,0.0,0.0,0.0,-1.0,0.0,0.0,0.0,0.0,0.0,0.0,0.0,0.0,-0.001745329238474369,0.0,0.0,0.01,0.0,0.0,0.0,0.01,0.0,0.0,0.0,0.01,0.0784531980752945,-9.708582878112793,0.509945809841156,0.01,0.0,0.0,0.0,0.01,0.0,0.0,0.0,0.01
1677685709.9538035,2023-03-01 16:48:29.953804,sensor_msgs/Imu,1677685709.9523187,camera_imu_optical_frame,0.0,0.0,0.0,0.0,-1.0,0.0,0.0,0.0,0.0,0.0,0.0,0.0,0.0,0.0,0.005235987715423107,0.0,0.01,0.0,0.0,0.0,0.01,0.0,0.0,0.0,0.01,0.0784531980752945,-9.708582878112793,0.509945809841156,0.01,0.0,0.0,0.0,0.01,0.0,0.0,0.0,0.01
1677685709.9583933,2023-03-01 16:48:29.958393,sensor_msgs/Imu,1677685709.9573169,camera_imu_optical_frame,0.0,0.0,0.0,0.0,-1.0,0.0,0.0,0.0,0.0,0.0,0.0,0.0,0.0,-0.003490658476948738,0.0,0.0,0.01,0.0,0.0,0.0,0.01,0.0,0.0,0.0,0.01,0.05883989855647087,-9.708582878112793,0.5295590758323669,0.01,0.0,0.0,0.0,0.01,0.0,0.0,0.0,0.01
1677685709.963733,2023-03-01 16:48:29.963733,sensor_msgs/Imu,1677685709.9623153,camera_imu_optical_frame,0.0,0.0,0.0,0.0,-1.0,0.0,0.0,0.0,0.0,0.0,0.0,0.0,0.0,-0.001745329238474369,0.0,0.001745329238474369,0.01,0.0,0.0,0.0,0.01,0.0,0.0,0.0,0.01,0.05883989855647087,-9.708582878112793,0.5295590758323669,0.01,0.0,0.0,0.0,0.01,0.0,0.0,0.0,0.01
1677685709.9685147,2023-03-01 16:48:29.968515,sensor_msgs/Imu,1677685709.967312,camera_imu_optical_frame,0.0,0.0,0.0,0.0,-1.0,0.0,0.0,0.0,0.0,0.0,0.0,0.0,0.0,-0.001745329238474369,-0.001745329238474369,-0.001745329238474369,0.01,0.0,0.0,0.0,0.01,0.0,0.0,0.0,0.01,0.06864655017852783,-9.698776245117188,0.5197524428367615,0.01,0.0,0.0,0.0,0.01,0.0,0.0,0.0,0.01
1677685709.9737213,2023-03-01 16:48:29.973721,sensor_msgs/Imu,1677685709.9723105,camera_imu_optical_frame,0.0,0.0,0.0,0.0,-1.0,0.0,0.0,0.0,0.0,0.0,0.0,0.0,0.0,-0.003490658476948738,0.0,0.001745329238474369,0.01,0.0,0.0,0.0,0.01,0.0,0.0,0.0,0.01,0.06864655017852783,-9.698776245117188,0.5197524428367615,0.01,0.0,0.0,0.0,0.01,0.0,0.0,0.0,0.01
1677685709.9785395,2023-03-01 16:48:29.978539,sensor_msgs/Imu,1677685709.9773078,camera_imu_optical_frame,0.0,0.0,0.0,0.0,-1.0,0.0,0.0,0.0,0.0,0.0,0.0,0.0,0.0,-0.001745329238474369,0.001745329238474369,0.0,0.01,0.0,0.0,0.0,0.01,0.0,0.0,0.0,0.01,0.06864655017852783,-9.718389511108398,0.5295590758323669,0.01,0.0,0.0,0.0,0.01,0.0,0.0,0.0,0.01
1677685709.9836347,2023-03-01 16:48:29.983635,sensor_msgs/Imu,1677685709.982306,camera_imu_optical_frame,0.0,0.0,0.0,0.0,-1.0,0.0,0.0,0.0,0.0,0.0,0.0,0.0,0.0,-0.003490658476948738,0.001745329238474369,0.0,0.01,0.0,0.0,0.0,0.01,0.0,0.0,0.0,0.01,0.06864655017852783,-9.718389511108398,0.5295590758323669,0.01,0.0,0.0,0.0,0.01,0.0,0.0,0.0,0.01
1677685709.9885304,2023-03-01 16:48:29.988530,sensor_msgs/Imu,1677685709.9873035,camera_imu_optical_frame,0.0,0.0,0.0,0.0,-1.0,0.0,0.0,0.0,0.0,0.0,0.0,0.0,0.0,0.0,0.0,0.0,0.01,0.0,0.0,0.0,0.01,0.0,0.0,0.0,0.01,0.06864655017852783,-9.708582878112793,0.509945809841156,0.01,0.0,0.0,0.0,0.01,0.0,0.0,0.0,0.01
1677685709.9940772,2023-03-01 16:48:29.994077,sensor_msgs/Imu,1677685709.992302,camera_imu_optical_frame,0.0,0.0,0.0,0.0,-1.0,0.0,0.0,0.0,0.0,0.0,0.0,0.0,0.0,-0.001745329238474369,0.0,0.0,0.01,0.0,0.0,0.0,0.01,0.0,0.0,0.0,0.01,0.06864655017852783,-9.708582878112793,0.509945809841156,0.01,0.0,0.0,0.0,0.01,0.0,0.0,0.0,0.01
1677685709.9984848,2023-03-01 16:48:29.998485,sensor_msgs/Imu,1677685709.9972992,camera_imu_optical_frame,0.0,0.0,0.0,0.0,-1.0,0.0,0.0,0.0,0.0,0.0,0.0,0.0,0.0,0.0,0.0,0.0,0.01,0.0,0.0,0.0,0.01,0.0,0.0,0.0,0.01,0.0784531980752945,-9.708582878112793,0.5197524428367615,0.01,0.0,0.0,0.0,0.01,0.0,0.0,0.0,0.01
1677685710.0032651,2023-03-01 16:48:30.003265,sensor_msgs/Imu,1677685710.0022972,camera_imu_optical_frame,0.0,0.0,0.0,0.0,-1.0,0.0,0.0,0.0,0.0,0.0,0.0,0.0,0.0,-0.001745329238474369,0.001745329238474369,-0.001745329238474369,0.01,0.0,0.0,0.0,0.01,0.0,0.0,0.0,0.01,0.0784531980752945,-9.708582878112793,0.5197524428367615,0.01,0.0,0.0,0.0,0.01,0.0,0.0,0.0,0.01
1677685710.0085235,2023-03-01 16:48:30.008523,sensor_msgs/Imu,1677685710.0072944,camera_imu_optical_frame,0.0,0.0,0.0,0.0,-1.0,0.0,0.0,0.0,0.0,0.0,0.0,0.0,0.0,0.0,0.0,0.0,0.01,0.0,0.0,0.0,0.01,0.0,0.0,0.0,0.01,0.05883989855647087,-9.708582878112793,0.5295590758323669,0.01,0.0,0.0,0.0,0.01,0.0,0.0,0.0,0.01
1677685710.0138147,2023-03-01 16:48:30.013815,sensor_msgs/Imu,1677685710.0122926,camera_imu_optical_frame,0.0,0.0,0.0,0.0,-1.0,0.0,0.0,0.0,0.0,0.0,0.0,0.0,0.0,-0.003490658476948738,0.0,-0.001745329238474369,0.01,0.0,0.0,0.0,0.01,0.0,0.0,0.0,0.01,0.05883989855647087,-9.708582878112793,0.5295590758323669,0.01,0.0,0.0,0.0,0.01,0.0,0.0,0.0,0.01
1677685710.0185652,2023-03-01 16:48:30.018565,sensor_msgs/Imu,1677685710.0172899,camera_imu_optical_frame,0.0,0.0,0.0,0.0,-1.0,0.0,0.0,0.0,0.0,0.0,0.0,0.0,0.0,-0.003490658476948738,0.0,0.0,0.01,0.0,0.0,0.0,0.01,0.0,0.0,0.0,0.01,0.06864655017852783,-9.708582878112793,0.5197524428367615,0.01,0.0,0.0,0.0,0.01,0.0,0.0,0.0,0.01
1677685710.0235074,2023-03-01 16:48:30.023507,sensor_msgs/Imu,1677685710.0222883,camera_imu_optical_frame,0.0,0.0,0.0,0.0,-1.0,0.0,0.0,0.0,0.0,0.0,0.0,0.0,0.0,-0.003490658476948738,0.0,0.0,0.01,0.0,0.0,0.0,0.01,0.0,0.0,0.0,0.01,0.06864655017852783,-9.708582878112793,0.5197524428367615,0.01,0.0,0.0,0.0,0.01,0.0,0.0,0.0,0.01
1677685710.0312905,2023-03-01 16:48:30.031291,sensor_msgs/Imu,1677685710.027286,camera_imu_optical_frame,0.0,0.0,0.0,0.0,-1.0,0.0,0.0,0.0,0.0,0.0,0.0,0.0,0.0,-0.001745329238474369,0.003490658476948738,-0.001745329238474369,0.01,0.0,0.0,0.0,0.01,0.0,0.0,0.0,0.01,0.0784531980752945,-9.708582878112793,0.5295590758323669,0.01,0.0,0.0,0.0,0.01,0.0,0.0,0.0,0.01
1677685710.034958,2023-03-01 16:48:30.034958,sensor_msgs/Imu,1677685710.0322895,camera_imu_optical_frame,0.0,0.0,0.0,0.0,-1.0,0.0,0.0,0.0,0.0,0.0,0.0,0.0,0.0,-0.003490658476948738,0.0,0.0,0.01,0.0,0.0,0.0,0.01,0.0,0.0,0.0,0.01,0.0784531980752945,-9.708582878112793,0.5295590758323669,0.01,0.0,0.0,0.0,0.01,0.0,0.0,0.0,0.01
1677685710.038523,2023-03-01 16:48:30.038523,sensor_msgs/Imu,1677685710.0372932,camera_imu_optical_frame,0.0,0.0,0.0,0.0,-1.0,0.0,0.0,0.0,0.0,0.0,0.0,0.0,0.0,-0.006981316953897476,0.0,0.0,0.01,0.0,0.0,0.0,0.01,0.0,0.0,0.0,0.01,0.0784531980752945,-9.718389511108398,0.5197524428367615,0.01,0.0,0.0,0.0,0.01,0.0,0.0,0.0,0.01
1677685710.0438945,2023-03-01 16:48:30.043895,sensor_msgs/Imu,1677685710.0422957,camera_imu_optical_frame,0.0,0.0,0.0,0.0,-1.0,0.0,0.0,0.0,0.0,0.0,0.0,0.0,0.0,-0.001745329238474369,0.0,0.0,0.01,0.0,0.0,0.0,0.01,0.0,0.0,0.0,0.01,0.0784531980752945,-9.718389511108398,0.5197524428367615,0.01,0.0,0.0,0.0,0.01,0.0,0.0,0.0,0.01
1677685710.0514534,2023-03-01 16:48:30.051453,sensor_msgs/Imu,1677685710.0472996,camera_imu_optical_frame,0.0,0.0,0.0,0.0,-1.0,0.0,0.0,0.0,0.0,0.0,0.0,0.0,0.0,-0.001745329238474369,0.0,0.001745329238474369,0.01,0.0,0.0,0.0,0.01,0.0,0.0,0.0,0.01,0.0784531980752945,-9.708582878112793,0.5295590758323669,0.01,0.0,0.0,0.0,0.01,0.0,0.0,0.0,0.01
1677685710.0605578,2023-03-01 16:48:30.060558,sensor_msgs/Imu,1677685710.0523026,camera_imu_optical_frame,0.0,0.0,0.0,0.0,-1.0,0.0,0.0,0.0,0.0,0.0,0.0,0.0,0.0,-0.001745329238474369,0.0,0.0,0.01,0.0,0.0,0.0,0.01,0.0,0.0,0.0,0.01,0.0784531980752945,-9.708582878112793,0.5295590758323669,0.01,0.0,0.0,0.0,0.01,0.0,0.0,0.0,0.01
1677685710.061958,2023-03-01 16:48:30.061958,sensor_msgs/Imu,1677685710.057306,camera_imu_optical_frame,0.0,0.0,0.0,0.0,-1.0,0.0,0.0,0.0,0.0,0.0,0.0,0.0,0.0,-0.001745329238474369,-0.001745329238474369,0.0,0.01,0.0,0.0,0.0,0.01,0.0,0.0,0.0,0.01,0.06864655017852783,-9.708582878112793,0.5197524428367615,0.01,0.0,0.0,0.0,0.01,0.0,0.0,0.0,0.01
1677685710.065264,2023-03-01 16:48:30.065264,sensor_msgs/Imu,1677685710.0623088,camera_imu_optical_frame,0.0,0.0,0.0,0.0,-1.0,0.0,0.0,0.0,0.0,0.0,0.0,0.0,0.0,-0.001745329238474369,0.0,0.0,0.01,0.0,0.0,0.0,0.01,0.0,0.0,0.0,0.01,0.06864655017852783,-9.708582878112793,0.5197524428367615,0.01,0.0,0.0,0.0,0.01,0.0,0.0,0.0,0.01
1677685710.070665,2023-03-01 16:48:30.070665,sensor_msgs/Imu,1677685710.0673125,camera_imu_optical_frame,0.0,0.0,0.0,0.0,-1.0,0.0,0.0,0.0,0.0,0.0,0.0,0.0,0.0,0.001745329238474369,0.0,0.001745329238474369,0.01,0.0,0.0,0.0,0.01,0.0,0.0,0.0,0.01,0.05883989855647087,-9.708582878112793,0.509945809841156,0.01,0.0,0.0,0.0,0.01,0.0,0.0,0.0,0.01
1677685710.0836253,2023-03-01 16:48:30.083625,sensor_msgs/Imu,1677685710.0723164,camera_imu_optical_frame,0.0,0.0,0.0,0.0,-1.0,0.0,0.0,0.0,0.0,0.0,0.0,0.0,0.0,-0.003490658476948738,0.0,-0.001745329238474369,0.01,0.0,0.0,0.0,0.01,0.0,0.0,0.0,0.01,0.05883989855647087,-9.708582878112793,0.5197524428367615,0.01,0.0,0.0,0.0,0.01,0.0,0.0,0.0,0.01
1677685710.085838,2023-03-01 16:48:30.085838,sensor_msgs/Imu,1677685710.0773191,camera_imu_optical_frame,0.0,0.0,0.0,0.0,-1.0,0.0,0.0,0.0,0.0,0.0,0.0,0.0,0.0,-0.001745329238474369,0.001745329238474369,0.001745329238474369,0.01,0.0,0.0,0.0,0.01,0.0,0.0,0.0,0.01,0.05883989855647087,-9.708582878112793,0.5197524428367615,0.01,0.0,0.0,0.0,0.01,0.0,0.0,0.0,0.01
1677685710.086556,2023-03-01 16:48:30.086556,sensor_msgs/Imu,1677685710.0823226,camera_imu_optical_frame,0.0,0.0,0.0,0.0,-1.0,0.0,0.0,0.0,0.0,0.0,0.0,0.0,0.0,0.0,0.003490658476948738,0.0,0.01,0.0,0.0,0.0,0.01,0.0,0.0,0.0,0.01,0.0784531980752945,-9.708582878112793,0.5197524428367615,0.01,0.0,0.0,0.0,0.01,0.0,0.0,0.0,0.01
1677685710.0880806,2023-03-01 16:48:30.088081,sensor_msgs/Imu,1677685710.0873253,camera_imu_optical_frame,0.0,0.0,0.0,0.0,-1.0,0.0,0.0,0.0,0.0,0.0,0.0,0.0,0.0,-0.005235987715423107,-0.001745329238474369,-0.001745329238474369,0.01,0.0,0.0,0.0,0.01,0.0,0.0,0.0,0.01,0.0784531980752945,-9.708582878112793,0.5197524428367615,0.01,0.0,0.0,0.0,0.01,0.0,0.0,0.0,0.01
1677685710.0930605,2023-03-01 16:48:30.093060,sensor_msgs/Imu,1677685710.0923295,camera_imu_optical_frame,0.0,0.0,0.0,0.0,-1.0,0.0,0.0,0.0,0.0,0.0,0.0,0.0,0.0,-0.003490658476948738,-0.001745329238474369,0.0,0.01,0.0,0.0,0.0,0.01,0.0,0.0,0.0,0.01,0.0784531980752945,-9.708582878112793,0.5197524428367615,0.01,0.0,0.0,0.0,0.01,0.0,0.0,0.0,0.01
1677685710.0983512,2023-03-01 16:48:30.098351,sensor_msgs/Imu,1677685710.097332,camera_imu_optical_frame,0.0,0.0,0.0,0.0,-1.0,0.0,0.0,0.0,0.0,0.0,0.0,0.0,0.0,0.0,0.0,0.0,0.01,0.0,0.0,0.0,0.01,0.0,0.0,0.0,0.01,0.0784531980752945,-9.708582878112793,0.5295590758323669,0.01,0.0,0.0,0.0,0.01,0.0,0.0,0.0,0.01
1677685710.1047163,2023-03-01 16:48:30.104716,sensor_msgs/Imu,1677685710.1023357,camera_imu_optical_frame,0.0,0.0,0.0,0.0,-1.0,0.0,0.0,0.0,0.0,0.0,0.0,0.0,0.0,-0.005235987715423107,0.0,0.0,0.01,0.0,0.0,0.0,0.01,0.0,0.0,0.0,0.01,0.0784531980752945,-9.708582878112793,0.5295590758323669,0.01,0.0,0.0,0.0,0.01,0.0,0.0,0.0,0.01
1677685710.1097488,2023-03-01 16:48:30.109749,sensor_msgs/Imu,1677685710.1073396,camera_imu_optical_frame,0.0,0.0,0.0,0.0,-1.0,0.0,0.0,0.0,0.0,0.0,0.0,0.0,0.0,-0.001745329238474369,0.0,0.0,0.01,0.0,0.0,0.0,0.01,0.0,0.0,0.0,0.01,0.06864655017852783,-9.698776245117188,0.5197524428367615,0.01,0.0,0.0,0.0,0.01,0.0,0.0,0.0,0.01
1677685710.1134498,2023-03-01 16:48:30.113450,sensor_msgs/Imu,1677685710.1123424,camera_imu_optical_frame,0.0,0.0,0.0,0.0,-1.0,0.0,0.0,0.0,0.0,0.0,0.0,0.0,0.0,0.0,0.0,0.0,0.01,0.0,0.0,0.0,0.01,0.0,0.0,0.0,0.01,0.06864655017852783,-9.698776245117188,0.5197524428367615,0.01,0.0,0.0,0.0,0.01,0.0,0.0,0.0,0.01
1677685710.118488,2023-03-01 16:48:30.118488,sensor_msgs/Imu,1677685710.1173463,camera_imu_optical_frame,0.0,0.0,0.0,0.0,-1.0,0.0,0.0,0.0,0.0,0.0,0.0,0.0,0.0,-0.005235987715423107,0.0,0.0,0.01,0.0,0.0,0.0,0.01,0.0,0.0,0.0,0.01,0.06864655017852783,-9.708582878112793,0.5197524428367615,0.01,0.0,0.0,0.0,0.01,0.0,0.0,0.0,0.01
1677685710.1233985,2023-03-01 16:48:30.123399,sensor_msgs/Imu,1677685710.1223488,camera_imu_optical_frame,0.0,0.0,0.0,0.0,-1.0,0.0,0.0,0.0,0.0,0.0,0.0,0.0,0.0,0.0,0.001745329238474369,0.0,0.01,0.0,0.0,0.0,0.01,0.0,0.0,0.0,0.01,0.06864655017852783,-9.708582878112793,0.5197524428367615,0.01,0.0,0.0,0.0,0.01,0.0,0.0,0.0,0.01
1677685710.1286957,2023-03-01 16:48:30.128696,sensor_msgs/Imu,1677685710.1273527,camera_imu_optical_frame,0.0,0.0,0.0,0.0,-1.0,0.0,0.0,0.0,0.0,0.0,0.0,0.0,0.0,-0.005235987715423107,0.006981316953897476,0.0,0.01,0.0,0.0,0.0,0.01,0.0,0.0,0.0,0.01,0.04903324693441391,-9.708582878112793,0.5197524428367615,0.01,0.0,0.0,0.0,0.01,0.0,0.0,0.0,0.01
1677685710.1338217,2023-03-01 16:48:30.133822,sensor_msgs/Imu,1677685710.1323557,camera_imu_optical_frame,0.0,0.0,0.0,0.0,-1.0,0.0,0.0,0.0,0.0,0.0,0.0,0.0,0.0,-0.001745329238474369,0.0,0.0,0.01,0.0,0.0,0.0,0.01,0.0,0.0,0.0,0.01,0.04903324693441391,-9.708582878112793,0.5197524428367615,0.01,0.0,0.0,0.0,0.01,0.0,0.0,0.0,0.01
1677685710.1409135,2023-03-01 16:48:30.140913,sensor_msgs/Imu,1677685710.1373594,camera_imu_optical_frame,0.0,0.0,0.0,0.0,-1.0,0.0,0.0,0.0,0.0,0.0,0.0,0.0,0.0,-0.003490658476948738,0.0,0.0,0.01,0.0,0.0,0.0,0.01,0.0,0.0,0.0,0.01,0.06864655017852783,-9.708582878112793,0.5197524428367615,0.01,0.0,0.0,0.0,0.01,0.0,0.0,0.0,0.01
1677685710.1611078,2023-03-01 16:48:30.161108,sensor_msgs/Imu,1677685710.142362,camera_imu_optical_frame,0.0,0.0,0.0,0.0,-1.0,0.0,0.0,0.0,0.0,0.0,0.0,0.0,0.0,-0.001745329238474369,0.0,0.0,0.01,0.0,0.0,0.0,0.01,0.0,0.0,0.0,0.01,0.06864655017852783,-9.708582878112793,0.5393657088279724,0.01,0.0,0.0,0.0,0.01,0.0,0.0,0.0,0.01
1677685710.1619112,2023-03-01 16:48:30.161911,sensor_msgs/Imu,1677685710.1473658,camera_imu_optical_frame,0.0,0.0,0.0,0.0,-1.0,0.0,0.0,0.0,0.0,0.0,0.0,0.0,0.0,-0.005235987715423107,0.0,-0.003490658476948738,0.01,0.0,0.0,0.0,0.01,0.0,0.0,0.0,0.01,0.06864655017852783,-9.708582878112793,0.5393657088279724,0.01,0.0,0.0,0.0,0.01,0.0,0.0,0.0,0.01
1677685710.1622005,2023-03-01 16:48:30.162200,sensor_msgs/Imu,1677685710.1523697,camera_imu_optical_frame,0.0,0.0,0.0,0.0,-1.0,0.0,0.0,0.0,0.0,0.0,0.0,0.0,0.0,0.0,0.0,0.0,0.01,0.0,0.0,0.0,0.01,0.0,0.0,0.0,0.01,0.06864655017852783,-9.708582878112793,0.5393657088279724,0.01,0.0,0.0,0.0,0.01,0.0,0.0,0.0,0.01
1677685710.1629329,2023-03-01 16:48:30.162933,sensor_msgs/Imu,1677685710.1573727,camera_imu_optical_frame,0.0,0.0,0.0,0.0,-1.0,0.0,0.0,0.0,0.0,0.0,0.0,0.0,0.0,0.0,0.0,0.0,0.01,0.0,0.0,0.0,0.01,0.0,0.0,0.0,0.01,0.06864655017852783,-9.708582878112793,0.5393657088279724,0.01,0.0,0.0,0.0,0.01,0.0,0.0,0.0,0.01
1677685710.165166,2023-03-01 16:48:30.165166,sensor_msgs/Imu,1677685710.1623762,camera_imu_optical_frame,0.0,0.0,0.0,0.0,-1.0,0.0,0.0,0.0,0.0,0.0,0.0,0.0,0.0,-0.001745329238474369,0.001745329238474369,0.0,0.01,0.0,0.0,0.0,0.01,0.0,0.0,0.0,0.01,0.06864655017852783,-9.708582878112793,0.5393657088279724,0.01,0.0,0.0,0.0,0.01,0.0,0.0,0.0,0.01
1677685710.1689792,2023-03-01 16:48:30.168979,sensor_msgs/Imu,1677685710.1673791,camera_imu_optical_frame,0.0,0.0,0.0,0.0,-1.0,0.0,0.0,0.0,0.0,0.0,0.0,0.0,0.0,-0.003490658476948738,0.001745329238474369,0.0,0.01,0.0,0.0,0.0,0.01,0.0,0.0,0.0,0.01,0.0784531980752945,-9.708582878112793,0.5197524428367615,0.01,0.0,0.0,0.0,0.01,0.0,0.0,0.0,0.01
1677685710.1733372,2023-03-01 16:48:30.173337,sensor_msgs/Imu,1677685710.172383,camera_imu_optical_frame,0.0,0.0,0.0,0.0,-1.0,0.0,0.0,0.0,0.0,0.0,0.0,0.0,0.0,-0.005235987715423107,0.0,0.0,0.01,0.0,0.0,0.0,0.01,0.0,0.0,0.0,0.01,0.0784531980752945,-9.708582878112793,0.5197524428367615,0.01,0.0,0.0,0.0,0.01,0.0,0.0,0.0,0.01
1677685710.1782238,2023-03-01 16:48:30.178224,sensor_msgs/Imu,1677685710.1773858,camera_imu_optical_frame,0.0,0.0,0.0,0.0,-1.0,0.0,0.0,0.0,0.0,0.0,0.0,0.0,0.0,-0.001745329238474369,-0.003490658476948738,0.0,0.01,0.0,0.0,0.0,0.01,0.0,0.0,0.0,0.01,0.05883989855647087,-9.698776245117188,0.509945809841156,0.01,0.0,0.0,0.0,0.01,0.0,0.0,0.0,0.01
1677685710.185449,2023-03-01 16:48:30.185449,sensor_msgs/Imu,1677685710.1823897,camera_imu_optical_frame,0.0,0.0,0.0,0.0,-1.0,0.0,0.0,0.0,0.0,0.0,0.0,0.0,0.0,-0.003490658476948738,0.0,0.0,0.01,0.0,0.0,0.0,0.01,0.0,0.0,0.0,0.01,0.0784531980752945,-9.708582878112793,0.509945809841156,0.01,0.0,0.0,0.0,0.01,0.0,0.0,0.0,0.01
1677685710.1886911,2023-03-01 16:48:30.188691,sensor_msgs/Imu,1677685710.1873925,camera_imu_optical_frame,0.0,0.0,0.0,0.0,-1.0,0.0,0.0,0.0,0.0,0.0,0.0,0.0,0.0,0.0,0.0,0.0,0.01,0.0,0.0,0.0,0.01,0.0,0.0,0.0,0.01,0.0784531980752945,-9.708582878112793,0.509945809841156,0.01,0.0,0.0,0.0,0.01,0.0,0.0,0.0,0.01
1677685710.1932988,2023-03-01 16:48:30.193299,sensor_msgs/Imu,1677685710.1923964,camera_imu_optical_frame,0.0,0.0,0.0,0.0,-1.0,0.0,0.0,0.0,0.0,0.0,0.0,0.0,0.0,-0.005235987715423107,0.0,0.0,0.01,0.0,0.0,0.0,0.01,0.0,0.0,0.0,0.01,0.0784531980752945,-9.708582878112793,0.509945809841156,0.01,0.0,0.0,0.0,0.01,0.0,0.0,0.0,0.01
1677685710.1983538,2023-03-01 16:48:30.198354,sensor_msgs/Imu,1677685710.1974,camera_imu_optical_frame,0.0,0.0,0.0,0.0,-1.0,0.0,0.0,0.0,0.0,0.0,0.0,0.0,0.0,-0.005235987715423107,-0.003490658476948738,0.0,0.01,0.0,0.0,0.0,0.01,0.0,0.0,0.0,0.01,0.0784531980752945,-9.708582878112793,0.509945809841156,0.01,0.0,0.0,0.0,0.01,0.0,0.0,0.0,0.01
1677685710.2200377,2023-03-01 16:48:30.220038,sensor_msgs/Imu,1677685710.202403,camera_imu_optical_frame,0.0,0.0,0.0,0.0,-1.0,0.0,0.0,0.0,0.0,0.0,0.0,0.0,0.0,-0.003490658476948738,0.0,0.0,0.01,0.0,0.0,0.0,0.01,0.0,0.0,0.0,0.01,0.05883989855647087,-9.708582878112793,0.5295590758323669,0.01,0.0,0.0,0.0,0.01,0.0,0.0,0.0,0.01
1677685710.2204163,2023-03-01 16:48:30.220416,sensor_msgs/Imu,1677685710.207407,camera_imu_optical_frame,0.0,0.0,0.0,0.0,-1.0,0.0,0.0,0.0,0.0,0.0,0.0,0.0,0.0,0.0,0.0,0.001745329238474369,0.01,0.0,0.0,0.0,0.01,0.0,0.0,0.0,0.01,0.05883989855647087,-9.708582878112793,0.5295590758323669,0.01,0.0,0.0,0.0,0.01,0.0,0.0,0.0,0.01
1677685710.2224033,2023-03-01 16:48:30.222403,sensor_msgs/Imu,1677685710.21241,camera_imu_optical_frame,0.0,0.0,0.0,0.0,-1.0,0.0,0.0,0.0,0.0,0.0,0.0,0.0,0.0,-0.003490658476948738,0.0,0.0,0.01,0.0,0.0,0.0,0.01,0.0,0.0,0.0,0.01,0.05883989855647087,-9.708582878112793,0.5295590758323669,0.01,0.0,0.0,0.0,0.01,0.0,0.0,0.0,0.01
1677685710.222726,2023-03-01 16:48:30.222726,sensor_msgs/Imu,1677685710.2174137,camera_imu_optical_frame,0.0,0.0,0.0,0.0,-1.0,0.0,0.0,0.0,0.0,0.0,0.0,0.0,0.0,-0.001745329238474369,0.003490658476948738,-0.001745329238474369,0.01,0.0,0.0,0.0,0.01,0.0,0.0,0.0,0.01,0.05883989855647087,-9.708582878112793,0.5295590758323669,0.01,0.0,0.0,0.0,0.01,0.0,0.0,0.0,0.01
1677685710.224745,2023-03-01 16:48:30.224745,sensor_msgs/Imu,1677685710.2224164,camera_imu_optical_frame,0.0,0.0,0.0,0.0,-1.0,0.0,0.0,0.0,0.0,0.0,0.0,0.0,0.0,-0.005235987715423107,0.0,0.0,0.01,0.0,0.0,0.0,0.01,0.0,0.0,0.0,0.01,0.05883989855647087,-9.708582878112793,0.5393657088279724,0.01,0.0,0.0,0.0,0.01,0.0,0.0,0.0,0.01
1677685710.2287047,2023-03-01 16:48:30.228705,sensor_msgs/Imu,1677685710.2274203,camera_imu_optical_frame,0.0,0.0,0.0,0.0,-1.0,0.0,0.0,0.0,0.0,0.0,0.0,0.0,0.0,-0.001745329238474369,0.0,0.0,0.01,0.0,0.0,0.0,0.01,0.0,0.0,0.0,0.01,0.05883989855647087,-9.708582878112793,0.5393657088279724,0.01,0.0,0.0,0.0,0.01,0.0,0.0,0.0,0.01
1677685710.2340653,2023-03-01 16:48:30.234065,sensor_msgs/Imu,1677685710.2324233,camera_imu_optical_frame,0.0,0.0,0.0,0.0,-1.0,0.0,0.0,0.0,0.0,0.0,0.0,0.0,0.0,-0.005235987715423107,0.001745329238474369,0.0,0.01,0.0,0.0,0.0,0.01,0.0,0.0,0.0,0.01,0.05883989855647087,-9.708582878112793,0.5393657088279724,0.01,0.0,0.0,0.0,0.01,0.0,0.0,0.0,0.01
1677685710.2404773,2023-03-01 16:48:30.240477,sensor_msgs/Imu,1677685710.2374272,camera_imu_optical_frame,0.0,0.0,0.0,0.0,-1.0,0.0,0.0,0.0,0.0,0.0,0.0,0.0,0.0,0.0,-0.003490658476948738,0.001745329238474369,0.01,0.0,0.0,0.0,0.01,0.0,0.0,0.0,0.01,0.06864655017852783,-9.708582878112793,0.5295590758323669,0.01,0.0,0.0,0.0,0.01,0.0,0.0,0.0,0.01
1677685710.2458677,2023-03-01 16:48:30.245868,sensor_msgs/Imu,1677685710.2424302,camera_imu_optical_frame,0.0,0.0,0.0,0.0,-1.0,0.0,0.0,0.0,0.0,0.0,0.0,0.0,0.0,-0.001745329238474369,0.0,0.0,0.01,0.0,0.0,0.0,0.01,0.0,0.0,0.0,0.01,0.06864655017852783,-9.708582878112793,0.5295590758323669,0.01,0.0,0.0,0.0,0.01,0.0,0.0,0.0,0.01
1677685710.2505302,2023-03-01 16:48:30.250530,sensor_msgs/Imu,1677685710.247434,camera_imu_optical_frame,0.0,0.0,0.0,0.0,-1.0,0.0,0.0,0.0,0.0,0.0,0.0,0.0,0.0,-0.003490658476948738,0.001745329238474369,0.0,0.01,0.0,0.0,0.0,0.01,0.0,0.0,0.0,0.01,0.0784531980752945,-9.698776245117188,0.509945809841156,0.01,0.0,0.0,0.0,0.01,0.0,0.0,0.0,0.01
1677685710.2645738,2023-03-01 16:48:30.264574,sensor_msgs/Imu,1677685710.252438,camera_imu_optical_frame,0.0,0.0,0.0,0.0,-1.0,0.0,0.0,0.0,0.0,0.0,0.0,0.0,0.0,0.0,0.0,-0.001745329238474369,0.01,0.0,0.0,0.0,0.01,0.0,0.0,0.0,0.01,0.06864655017852783,-9.698776245117188,0.5197524428367615,0.01,0.0,0.0,0.0,0.01,0.0,0.0,0.0,0.01
1677685710.2654006,2023-03-01 16:48:30.265401,sensor_msgs/Imu,1677685710.257441,camera_imu_optical_frame,0.0,0.0,0.0,0.0,-1.0,0.0,0.0,0.0,0.0,0.0,0.0,0.0,0.0,0.0,0.003490658476948738,0.0,0.01,0.0,0.0,0.0,0.01,0.0,0.0,0.0,0.01,0.06864655017852783,-9.698776245117188,0.5197524428367615,0.01,0.0,0.0,0.0,0.01,0.0,0.0,0.0,0.01
1677685710.2660608,2023-03-01 16:48:30.266061,sensor_msgs/Imu,1677685710.2624447,camera_imu_optical_frame,0.0,0.0,0.0,0.0,-1.0,0.0,0.0,0.0,0.0,0.0,0.0,0.0,0.0,-0.005235987715423107,0.0,-0.001745329238474369,0.01,0.0,0.0,0.0,0.01,0.0,0.0,0.0,0.01,0.06864655017852783,-9.708582878112793,0.5295590758323669,0.01,0.0,0.0,0.0,0.01,0.0,0.0,0.0,0.01
1677685710.2699556,2023-03-01 16:48:30.269956,sensor_msgs/Imu,1677685710.2674477,camera_imu_optical_frame,0.0,0.0,0.0,0.0,-1.0,0.0,0.0,0.0,0.0,0.0,0.0,0.0,0.0,0.0,0.001745329238474369,0.0,0.01,0.0,0.0,0.0,0.01,0.0,0.0,0.0,0.01,0.06864655017852783,-9.708582878112793,0.5295590758323669,0.01,0.0,0.0,0.0,0.01,0.0,0.0,0.0,0.01
1677685710.2795136,2023-03-01 16:48:30.279514,sensor_msgs/Imu,1677685710.2724516,camera_imu_optical_frame,0.0,0.0,0.0,0.0,-1.0,0.0,0.0,0.0,0.0,0.0,0.0,0.0,0.0,-0.003490658476948738,0.001745329238474369,0.0,0.01,0.0,0.0,0.0,0.01,0.0,0.0,0.0,0.01,0.06864655017852783,-9.708582878112793,0.5295590758323669,0.01,0.0,0.0,0.0,0.01,0.0,0.0,0.0,0.01
1677685710.281163,2023-03-01 16:48:30.281163,sensor_msgs/Imu,1677685710.2774546,camera_imu_optical_frame,0.0,0.0,0.0,0.0,-1.0,0.0,0.0,0.0,0.0,0.0,0.0,0.0,0.0,-0.003490658476948738,0.001745329238474369,0.0,0.01,0.0,0.0,0.0,0.01,0.0,0.0,0.0,0.01,0.06864655017852783,-9.708582878112793,0.5197524428367615,0.01,0.0,0.0,0.0,0.01,0.0,0.0,0.0,0.01
1677685710.284808,2023-03-01 16:48:30.284808,sensor_msgs/Imu,1677685710.2824585,camera_imu_optical_frame,0.0,0.0,0.0,0.0,-1.0,0.0,0.0,0.0,0.0,0.0,0.0,0.0,0.0,0.001745329238474369,0.0,0.0,0.01,0.0,0.0,0.0,0.01,0.0,0.0,0.0,0.01,0.06864655017852783,-9.728196144104004,0.5295590758323669,0.01,0.0,0.0,0.0,0.01,0.0,0.0,0.0,0.01
1677685710.2895656,2023-03-01 16:48:30.289566,sensor_msgs/Imu,1677685710.2874625,camera_imu_optical_frame,0.0,0.0,0.0,0.0,-1.0,0.0,0.0,0.0,0.0,0.0,0.0,0.0,0.0,-0.001745329238474369,0.0,0.0,0.01,0.0,0.0,0.0,0.01,0.0,0.0,0.0,0.01,0.06864655017852783,-9.728196144104004,0.5295590758323669,0.01,0.0,0.0,0.0,0.01,0.0,0.0,0.0,0.01
1677685710.294535,2023-03-01 16:48:30.294535,sensor_msgs/Imu,1677685710.2924654,camera_imu_optical_frame,0.0,0.0,0.0,0.0,-1.0,0.0,0.0,0.0,0.0,0.0,0.0,0.0,0.0,0.001745329238474369,0.003490658476948738,0.0,0.01,0.0,0.0,0.0,0.01,0.0,0.0,0.0,0.01,0.06864655017852783,-9.728196144104004,0.5295590758323669,0.01,0.0,0.0,0.0,0.01,0.0,0.0,0.0,0.01
1677685710.2987177,2023-03-01 16:48:30.298718,sensor_msgs/Imu,1677685710.2974694,camera_imu_optical_frame,0.0,0.0,0.0,0.0,-1.0,0.0,0.0,0.0,0.0,0.0,0.0,0.0,0.0,0.0,0.003490658476948738,0.0,0.01,0.0,0.0,0.0,0.01,0.0,0.0,0.0,0.01,0.08825984597206116,-9.718389511108398,0.5197524428367615,0.01,0.0,0.0,0.0,0.01,0.0,0.0,0.0,0.01
1677685710.3035417,2023-03-01 16:48:30.303542,sensor_msgs/Imu,1677685710.3024724,camera_imu_optical_frame,0.0,0.0,0.0,0.0,-1.0,0.0,0.0,0.0,0.0,0.0,0.0,0.0,0.0,-0.001745329238474369,0.001745329238474369,0.0,0.01,0.0,0.0,0.0,0.01,0.0,0.0,0.0,0.01,0.08825984597206116,-9.718389511108398,0.5197524428367615,0.01,0.0,0.0,0.0,0.01,0.0,0.0,0.0,0.01
1677685710.3088868,2023-03-01 16:48:30.308887,sensor_msgs/Imu,1677685710.3074763,camera_imu_optical_frame,0.0,0.0,0.0,0.0,-1.0,0.0,0.0,0.0,0.0,0.0,0.0,0.0,0.0,0.0,0.0,0.0,0.01,0.0,0.0,0.0,0.01,0.0,0.0,0.0,0.01,0.06864655017852783,-9.708582878112793,0.5197524428367615,0.01,0.0,0.0,0.0,0.01,0.0,0.0,0.0,0.01
