__time,/hamster2/imu/header.stamp,/hamster2/command/drive.steering_angle,/hamster2/command/drive.speed,/hamster2/imu/angular_velocity.x,/hamster2/imu/angular_velocity.y,/hamster2/imu/angular_velocity.z,/hamster2/imu/linear_acceleration.x,/hamster2/imu/linear_acceleration.y,/hamster2/imu/linear_acceleration.z
1677685709,1677685709,9.972792625,1.017680407,,,,,,
1677685709,1677685709,9.972881317,1.017680407,,,,,,
1677685709,1677685709,9.975045204,1.017680407,,,,,,
1677685709,1677685709,9.974722862,1.017680407,,,,,,
1677685709,1677685709,0,0,-0.006981317,0.001745329,0,0.058839899,-9.698776245,0.519752443
1677685709,1677685709,0,0,0,0,0.001745329,0.058839899,-9.698776245,0.519752443
1677685709,1677685709,9.974722862,1.017680407,,,,,,
1677685709,1677685709,0,0,-0.001745329,0,0,0.058839899,-9.698776245,0.519752443
1677685709,1677685709,0,0,-0.003490658,0.001745329,0,0.058839899,-9.708582878,0.519752443
1677685709,1677685709,0,0,-0.003490658,0.003490658,-0.001745329,0.058839899,-9.708582878,0.519752443
1677685709,1677685709,0,0,-0.001745329,0.001745329,0,0.06864655,-9.718389511,0.519752443
1677685709,1677685709,9.973121643,1.017680407,,,,,,
1677685709,1677685709,0,0,-0.001745329,0,0,0.06864655,-9.718389511,0.519752443
1677685709,1677685709,0,0,0,0,0,0.06864655,-9.718389511,0.519752443
1677685709,1677685709,0,0,0,0.003490658,0,0.06864655,-9.718389511,0.519752443
1677685709,1677685709,0,0,-0.003490658,0.005235988,-0.001745329,0.06864655,-9.708582878,0.529559076
1677685709,1677685709,9.973312378,1.017680407,,,,,,
1677685709,1677685709,0,0,0,0.003490658,0,0.06864655,-9.708582878,0.529559076
1677685709,1677685709,0,0,0,0,0,0.06864655,-9.698776245,0.519752443
1677685709,1677685709,0,0,-0.001745329,0.001745329,0,0.06864655,-9.698776245,0.519752443
1677685709,1677685709,0,0,-0.003490658,0,0,0.078453198,-9.698776245,0.519752443
1677685709,1677685709,9.978130341,1.017680407,,,,,,
1677685710,1677685710,0,0,-0.001745329,0,0,0.078453198,-9.698776245,0.519752443
1677685710,1677685710,0,0,-0.001745329,0.001745329,0,0.078453198,-9.718389511,0.50994581
1677685710,1677685710,0,0,-0.005235988,0.001745329,0,0.078453198,-9.718389511,0.50994581
1677685710,1677685710,0,0,0,0.003490658,-0.001745329,0.058839899,-9.718389511,0.519752443
1677685710,1677685710,9.972576141,1.017680407,,,,,,
1677685710,1677685710,0,0,-0.001745329,0.005235988,0,0.058839899,-9.718389511,0.519752443
1677685710,1677685710,0,0,0,0,-0.001745329,0.06864655,-9.718389511,0.519752443
1677685710,1677685710,0,0,-0.001745329,-0.001745329,0.001745329,0.06864655,-9.718389511,0.519752443
1677685710,1677685710,0,0,-0.006981317,-0.005235988,0,0.078453198,-9.708582878,0.529559076
1677685710,1677685710,9.978262901,1.017680407,,,,,,
1677685710,1677685710,0,0,-0.003490658,0,-0.001745329,0.078453198,-9.708582878,0.529559076
1677685710,1677685710,0,0,-0.001745329,0,0.001745329,0.078453198,-9.698776245,0.519752443
1677685710,1677685710,0,0,0,0,0,0.078453198,-9.698776245,0.519752443
1677685710,1677685710,0,0,0,0,0,0.058839899,-9.708582878,0.529559076
1677685710,1677685710,9.972192764,1.017680407,,,,,,
1677685710,1677685710,0,0,0,-0.001745329,0,0.058839899,-9.708582878,0.529559076
1677685710,1677685710,0,0,-0.003490658,-0.001745329,-0.001745329,0.06864655,-9.708582878,0.519752443
1677685710,1677685710,0,0,0,0,0.001745329,0.06864655,-9.708582878,0.519752443
1677685710,1677685710,0,0,-0.001745329,0.001745329,0,0.058839899,-9.708582878,0.50994581
1677685710,1677685710,9.973465919,1.017680407,,,,,,
1677685710,1677685710,0,0,0,0.001745329,0,0.058839899,-9.708582878,0.50994581
1677685710,1677685710,0,0,-0.003490658,0,0,0.06864655,-9.718389511,0.50994581
1677685710,1677685710,0,0,-0.001745329,0,0,0.06864655,-9.718389511,0.50994581
1677685710,1677685710,0,0,-0.003490658,0,0,0.06864655,-9.708582878,0.529559076
1677685710,1677685710,9.97282505,1.017680407,,,,,,
1677685710,1677685710,0,0,0,0.001745329,0,0.06864655,-9.708582878,0.529559076
1677685710,1677685710,0,0,-0.003490658,0.001745329,0,0.049033247,-9.708582878,0.519752443
1677685710,1677685710,0,0,0,0.001745329,0,0.049033247,-9.708582878,0.519752443
1677685710,1677685710,0,0,-0.003490658,0,0,0.06864655,-9.728196144,0.50994581
1677685710,1677685710,9.971746445,1.017680407,,,,,,
1677685710,1677685710,0,0,-0.001745329,0.003490658,0,0.06864655,-9.728196144,0.50994581
1677685710,1677685710,0,0,0,0,0,0.06864655,-9.708582878,0.50994581
1677685710,1677685710,0,0,0,0.001745329,0.001745329,0.06864655,-9.708582878,0.50994581
1677685710,1677685710,0,0,0,0,0,0.078453198,-9.718389511,0.529559076
1677685710,1677685710,9.97811985,1.017680407,,,,,,
1677685710,1677685710,0,0,0,0,0,0.078453198,-9.718389511,0.529559076
1677685710,1677685710,0,0,0.001745329,0,0,0.078453198,-9.708582878,0.529559076
1677685710,1677685710,0,0,0,0.001745329,0,0.078453198,-9.708582878,0.529559076
1677685710,1677685710,0,0,-0.001745329,0.008726646,0,0.058839899,-9.698776245,0.519752443
1677685710,1677685710,9.976032257,1.017680407,,,,,,
1677685710,1677685710,0,0,0,0.003490658,0,0.058839899,-9.698776245,0.519752443
1677685710,1677685710,0,0,-0.001745329,-0.005235988,0.001745329,0.058839899,-9.698776245,0.50994581
1677685710,1677685710,0,0,0,0,0,0.058839899,-9.698776245,0.50994581
1677685710,1677685710,0,0,-0.001745329,0,0,0.078453198,-9.718389511,0.519752443
1677685710,1677685710,9.975292206,1.017680407,,,,,,
1677685710,1677685710,0,0,-0.001745329,0.001745329,0.001745329,0.078453198,-9.718389511,0.519752443
1677685710,1677685710,0,0,-0.001745329,-0.001745329,0,0.06864655,-9.708582878,0.50994581
1677685710,1677685710,0,0,-0.001745329,-0.003490658,0,0.06864655,-9.708582878,0.50994581
1677685710,1677685710,0,0,0,-0.001745329,-0.001745329,0.06864655,-9.698776245,0.50994581
1677685710,1677685710,9.970816612,1.017680407,,,,,,
1677685710,1677685710,0,0,-0.003490658,0.005235988,0,0.06864655,-9.698776245,0.50994581
1677685710,1677685710,0,0,-0.003490658,0.001745329,0,0.06864655,-9.698776245,0.519752443
1677685710,1677685710,0,0,0,0,0,0.06864655,-9.698776245,0.519752443
1677685710,1677685710,0,0,-0.001745329,0.001745329,0,0.058839899,-9.708582878,0.50994581
1677685710,1677685710,9.973258018,1.017680407,,,,,,
1677685710,1677685710,0,0,-0.003490658,0.001745329,0,0.058839899,-9.708582878,0.50994581
1677685710,1677685710,0,0,-0.003490658,0,0,0.078453198,-9.708582878,0.519752443
1677685710,1677685710,0,0,-0.001745329,0,0,0.078453198,-9.708582878,0.519752443
1677685710,1677685710,0,0,0,0,0.001745329,0.058839899,-9.708582878,0.519752443
1677685710,1677685710,9.97502327,1.017680407,,,,,,
1677685710,1677685710,0,0,0,0.003490658,0,0.058839899,-9.708582878,0.519752443
1677685710,1677685710,0,0,0,0.001745329,-0.001745329,0.058839899,-9.708582878,0.50994581
1677685710,1677685710,0,0,-0.003490658,0,0,0.058839899,-9.708582878,0.50994581
1677685710,1677685710,0,0,-0.001745329,-0.001745329,0,0.06864655,-9.698776245,0.519752443
1677685710,1677685710,9.975611687,1.017680407,,,,,,
1677685710,1677685710,0,0,-0.005235988,-0.001745329,0,0.06864655,-9.698776245,0.519752443
1677685710,1677685710,0,0,-0.005235988,0.003490658,0,0.06864655,-9.708582878,0.529559076
1677685710,1677685710,0,0,0,0,0,0.06864655,-9.708582878,0.529559076
1677685710,1677685710,0,0,-0.005235988,0,0,0.078453198,-9.708582878,0.519752443
1677685710,1677685710,9.975611687,1.017680407,,,,,,
1677685710,1677685710,0,0,-0.001745329,0,0,0.078453198,-9.708582878,0.519752443
1677685710,1677685710,0,0,-0.001745329,-0.003490658,0.003490658,0.06864655,-9.718389511,0.519752443
1677685710,1677685710,0,0,-0.003490658,0,0,0.06864655,-9.718389511,0.519752443
1677685710,1677685710,0,0,0,0,0,0.078453198,-9.708582878,0.50994581
1677685710,1677685710,9.975611687,1.017680407,,,,,,
1677685710,1677685710,0,0,0,0.003490658,0,0.078453198,-9.708582878,0.50994581
1677685710,1677685710,0,0,0,0.005235988,0,0.078453198,-9.698776245,0.519752443
1677685710,1677685710,0,0,0,0,0,0.078453198,-9.698776245,0.519752443
1677685710,1677685710,0,0,0,0.003490658,0,0.06864655,-9.708582878,0.519752443
1677685710,1677685710,9.975611687,1.017680407,,,,,,
1677685710,1677685710,0,0,-0.005235988,0,0,0.06864655,-9.708582878,0.519752443
1677685710,1677685710,0,0,0,0.001745329,-0.001745329,0.06864655,-9.708582878,0.519752443
1677685710,1677685710,0,0,-0.001745329,0,0,0.06864655,-9.708582878,0.519752443
1677685710,1677685710,0,0,-0.001745329,0,0,0.058839899,-9.708582878,0.519752443
1677685710,1677685710,9.975611687,1.017680407,,,,,,
1677685710,1677685710,0,0,0,-0.001745329,0,0.058839899,-9.708582878,0.519752443
1677685710,1677685710,0,0,0,0.001745329,0,0.06864655,-9.708582878,0.519752443
1677685710,1677685710,0,0,-0.001745329,0,0,0.06864655,-9.708582878,0.519752443
1677685710,1677685710,0,0,-0.003490658,0.001745329,0.003490658,0.06864655,-9.708582878,0.529559076
1677685710,1677685710,9.975611687,1.017680407,,,,,,
1677685710,1677685710,0,0,0,0.005235988,-0.001745329,0.06864655,-9.708582878,0.529559076
1677685710,1677685710,0,0,-0.001745329,0.001745329,0,0.06864655,-9.708582878,0.519752443
1677685710,1677685710,0,0,0,0.005235988,-0.001745329,0.06864655,-9.708582878,0.519752443
1677685710,1677685710,0,0,0,0.003490658,0,0.058839899,-9.698776245,0.519752443
1677685710,1677685710,9.975611687,1.017680407,,,,,,
1677685710,1677685710,0,0,-0.001745329,0,0,0.058839899,-9.698776245,0.519752443
1677685710,1677685710,0,0,0,0,0,0.078453198,-9.688969612,0.539365709
1677685710,1677685710,0,0,0,0,0,0.078453198,-9.688969612,0.539365709
1677685710,1677685710,0,0,-0.001745329,0.003490658,0,0.078453198,-9.708582878,0.519752443
1677685710,1677685710,9.975611687,1.017680407,,,,,,
1677685710,1677685710,0,0,-0.001745329,0.001745329,0,0.078453198,-9.708582878,0.519752443
1677685710,1677685710,0,0,-0.001745329,0,0.001745329,0.078453198,-9.708582878,0.519752443
1677685710,1677685710,0,0,0,-0.005235988,0,0.078453198,-9.708582878,0.519752443
1677685710,1677685710,0,0,-0.003490658,0.001745329,0,0.078453198,-9.698776245,0.529559076
1677685710,1677685710,9.975611687,1.017680407,,,,,,
1677685710,1677685710,0,0,-0.003490658,0.003490658,0,0.078453198,-9.698776245,0.529559076
1677685710,1677685710,0,0,-0.001745329,0.003490658,0,0.06864655,-9.708582878,0.519752443
1677685710,1677685710,0,0,0.001745329,0,0,0.06864655,-9.708582878,0.519752443
1677685710,1677685710,0,0,-0.001745329,0.001745329,0.001745329,0.078453198,-9.708582878,0.50994581
1677685710,1677685710,9.975611687,1.017680407,,,,,,
1677685710,1677685710,0,0,0,0,0,0.078453198,-9.708582878,0.50994581
1677685710,1677685710,0,0,-0.001745329,0,0,0.078453198,-9.708582878,0.50994581
1677685710,1677685710,0,0,0,0.005235988,0,0.078453198,-9.708582878,0.50994581
1677685710,1677685710,0,0,-0.003490658,0,0,0.058839899,-9.708582878,0.529559076
1677685710,1677685710,9.975611687,1.017680407,,,,,,
1677685710,1677685710,0,0,-0.001745329,0,0.001745329,0.058839899,-9.708582878,0.529559076
1677685710,1677685710,0,0,-0.001745329,-0.001745329,-0.001745329,0.06864655,-9.698776245,0.519752443
1677685710,1677685710,0,0,-0.003490658,0,0.001745329,0.06864655,-9.698776245,0.519752443
1677685710,1677685710,0,0,-0.001745329,0.001745329,0,0.06864655,-9.718389511,0.529559076
1677685710,1677685710,9.975611687,1.017680407,,,,,,
1677685710,1677685710,0,0,-0.003490658,0.001745329,0,0.06864655,-9.718389511,0.529559076
1677685710,1677685710,0,0,0,0,0,0.06864655,-9.708582878,0.50994581
1677685710,1677685710,0,0,-0.001745329,0,0,0.06864655,-9.708582878,0.50994581
1677685710,1677685710,0,0,0,0,0,0.078453198,-9.708582878,0.519752443
1677685710,1677685710,9.975611687,1.017680407,,,,,,
1677685710,1677685710,0,0,-0.001745329,0.001745329,-0.001745329,0.078453198,-9.708582878,0.519752443
1677685710,1677685710,0,0,0,0,0,0.058839899,-9.708582878,0.529559076
1677685710,1677685710,0,0,-0.003490658,0,-0.001745329,0.058839899,-9.708582878,0.529559076
1677685710,1677685710,0,0,-0.003490658,0,0,0.06864655,-9.708582878,0.519752443
1677685710,1677685710,9.975611687,1.017680407,,,,,,
1677685710,1677685710,0,0,-0.003490658,0,0,0.06864655,-9.708582878,0.519752443
1677685710,1677685710,0,0,-0.001745329,0.003490658,-0.001745329,0.078453198,-9.708582878,0.529559076
1677685710,1677685710,0,0,-0.003490658,0,0,0.078453198,-9.708582878,0.529559076
1677685710,1677685710,0,0,-0.006981317,0,0,0.078453198,-9.718389511,0.519752443
1677685710,1677685710,9.975611687,1.017680407,,,,,,
1677685710,1677685710,0,0,-0.001745329,0,0,0.078453198,-9.718389511,0.519752443
1677685710,1677685710,0,0,-0.001745329,0,0.001745329,0.078453198,-9.708582878,0.529559076
1677685710,1677685710,0,0,-0.001745329,0,0,0.078453198,-9.708582878,0.529559076
1677685710,1677685710,0,0,-0.001745329,-0.001745329,0,0.06864655,-9.708582878,0.519752443
1677685710,1677685710,9.975611687,1.017680407,,,,,,
1677685710,1677685710,0,0,-0.001745329,0,0,0.06864655,-9.708582878,0.519752443
1677685710,1677685710,0,0,0.001745329,0,0.001745329,0.058839899,-9.708582878,0.50994581
1677685710,1677685710,0,0,-0.003490658,0,-0.001745329,0.058839899,-9.708582878,0.519752443
1677685710,1677685710,0,0,-0.001745329,0.001745329,0.001745329,0.058839899,-9.708582878,0.519752443
1677685710,1677685710,9.975611687,1.017680407,,,,,,
1677685710,1677685710,0,0,0,0.003490658,0,0.078453198,-9.708582878,0.519752443
1677685710,1677685710,0,0,-0.005235988,-0.001745329,-0.001745329,0.078453198,-9.708582878,0.519752443
1677685710,1677685710,0,0,-0.003490658,-0.001745329,0,0.078453198,-9.708582878,0.519752443
1677685710,1677685710,0,0,0,0,0,0.078453198,-9.708582878,0.529559076
1677685710,1677685710,9.975611687,1.017680407,,,,,,
1677685710,1677685710,0,0,-0.005235988,0,0,0.078453198,-9.708582878,0.529559076
1677685710,1677685710,0,0,-0.001745329,0,0,0.06864655,-9.698776245,0.519752443
1677685710,1677685710,0,0,0,0,0,0.06864655,-9.698776245,0.519752443
1677685710,1677685710,0,0,-0.005235988,0,0,0.06864655,-9.708582878,0.519752443
1677685710,1677685710,9.975611687,1.017680407,,,,,,
1677685710,1677685710,0,0,0,0.001745329,0,0.06864655,-9.708582878,0.519752443
1677685710,1677685710,0,0,-0.005235988,0.006981317,0,0.049033247,-9.708582878,0.519752443
1677685710,1677685710,0,0,-0.001745329,0,0,0.049033247,-9.708582878,0.519752443
1677685710,1677685710,0,0,-0.003490658,0,0,0.06864655,-9.708582878,0.519752443
1677685710,1677685710,9.975611687,1.017680407,,,,,,
1677685710,1677685710,0,0,-0.001745329,0,0,0.06864655,-9.708582878,0.539365709
1677685710,1677685710,0,0,-0.005235988,0,-0.003490658,0.06864655,-9.708582878,0.539365709
1677685710,1677685710,0,0,0,0,0,0.06864655,-9.708582878,0.539365709
1677685710,1677685710,0,0,0,0,0,0.06864655,-9.708582878,0.539365709
1677685710,1677685710,9.975611687,1.017680407,,,,,,
1677685710,1677685710,0,0,-0.001745329,0.001745329,0,0.06864655,-9.708582878,0.539365709
1677685710,1677685710,0,0,-0.003490658,0.001745329,0,0.078453198,-9.708582878,0.519752443
1677685710,1677685710,0,0,-0.005235988,0,0,0.078453198,-9.708582878,0.519752443
1677685710,1677685710,0,0,-0.001745329,-0.003490658,0,0.058839899,-9.698776245,0.50994581
1677685710,1677685710,9.975611687,1.017680407,,,,,,
1677685710,1677685710,0,0,-0.003490658,0,0,0.078453198,-9.708582878,0.50994581
1677685710,1677685710,0,0,0,0,0,0.078453198,-9.708582878,0.50994581
1677685710,1677685710,0,0,-0.005235988,0,0,0.078453198,-9.708582878,0.50994581
1677685710,1677685710,0,0,-0.005235988,-0.003490658,0,0.078453198,-9.708582878,0.50994581
1677685710,1677685710,9.975611687,1.017680407,,,,,,
1677685710,1677685710,0,0,-0.003490658,0,0,0.058839899,-9.708582878,0.529559076
1677685710,1677685710,0,0,0,0,0.001745329,0.058839899,-9.708582878,0.529559076
1677685710,1677685710,0,0,-0.003490658,0,0,0.058839899,-9.708582878,0.529559076
1677685710,1677685710,0,0,-0.001745329,0.003490658,-0.001745329,0.058839899,-9.708582878,0.529559076
1677685710,1677685710,9.975611687,1.017680407,,,,,,
1677685710,1677685710,0,0,-0.005235988,0,0,0.058839899,-9.708582878,0.539365709
1677685710,1677685710,0,0,-0.001745329,0,0,0.058839899,-9.708582878,0.539365709
1677685710,1677685710,0,0,-0.005235988,0.001745329,0,0.058839899,-9.708582878,0.539365709
1677685710,1677685710,0,0,0,-0.003490658,0.001745329,0.06864655,-9.708582878,0.529559076
1677685710,1677685710,9.975559235,1.017680407,,,,,,
1677685710,1677685710,0,0,-0.001745329,0,0,0.06864655,-9.708582878,0.529559076
1677685710,1677685710,0,0,-0.003490658,0.001745329,0,0.078453198,-9.698776245,0.50994581
1677685710,1677685710,0,0,0,0,-0.001745329,0.06864655,-9.698776245,0.519752443
1677685710,1677685710,0,0,0,0.003490658,0,0.06864655,-9.698776245,0.519752443
1677685710,1677685710,9.975666046,1.017680407,,,,,,
1677685710,1677685710,0,0,-0.005235988,0,-0.001745329,0.06864655,-9.708582878,0.529559076
1677685710,1677685710,0,0,0,0.001745329,0,0.06864655,-9.708582878,0.529559076
1677685710,1677685710,0,0,-0.003490658,0.001745329,0,0.06864655,-9.708582878,0.529559076
1677685710,1677685710,0,0,-0.003490658,0.001745329,0,0.06864655,-9.708582878,0.519752443
1677685710,1677685710,9.975507736,1.017680407,,,,,,
1677685710,1677685710,0,0,0.001745329,0,0,0.06864655,-9.728196144,0.529559076
1677685710,1677685710,0,0,-0.001745329,0,0,0.06864655,-9.728196144,0.529559076
1677685710,1677685710,0,0,0.001745329,0.003490658,0,0.06864655,-9.728196144,0.529559076
1677685710,1677685710,0,0,0,0.003490658,0,0.088259846,-9.718389511,0.519752443
1677685710,1677685710,9.972633362,1.017680407,,,,,,
1677685710,1677685710,0,0,-0.001745329,0.001745329,0,0.088259846,-9.718389511,0.519752443
1677685710,1677685710,0,0,0,0,0,0.06864655,-9.708582878,0.519752443
1677685710,1677685710,0,0,-0.001745329,-0.001745329,0,0.06864655,-9.708582878,0.519752443
1677685710,1677685710,0,0,0,0.001745329,0,0.06864655,-9.708582878,0.519752443
1677685710,1677685710,9.975437164,1.017680407,,,,,,
1677685710,1677685710,0,0,-0.001745329,0,0,0.06864655,-9.708582878,0.519752443
1677685710,1677685710,0,0,-0.005235988,0,0,0.06864655,-9.708582878,0.519752443
1677685710,1677685710,0,0,-0.001745329,-0.001745329,0.001745329,0.06864655,-9.708582878,0.519752443
1677685710,1677685710,0,0,-0.001745329,0.001745329,-0.001745329,0.058839899,-9.718389511,0.519752443
1677685710,1677685710,9.975845337,1.017680407,,,,,,
1677685710,1677685710,0,0,-0.003490658,0,0,0.058839899,-9.718389511,0.519752443
1677685710,1677685710,0,0,-0.001745329,0,0,0.06864655,-9.708582878,0.519752443
1677685710,1677685710,0,0,-0.003490658,0,0,0.06864655,-9.708582878,0.519752443
1677685710,1677685710,0,0,-0.001745329,-0.003490658,0.001745329,0.078453198,-9.698776245,0.50994581
1677685710,1677685710,9.977065086,1.017680407,,,,,,
1677685710,1677685710,0,0,-0.006981317,0,0,0.078453198,-9.698776245,0.50994581
1677685710,1677685710,0,0,-0.001745329,-0.003490658,0,0.06864655,-9.698776245,0.50994581
1677685710,1677685710,0,0,-0.003490658,0.005235988,0,0.06864655,-9.698776245,0.50994581
1677685710,1677685710,0,0,-0.001745329,0,0,0.078453198,-9.698776245,0.50994581
1677685710,1677685710,9.97469902,1.017680407,,,,,,
1677685710,1677685710,0,0,0,0,-0.005235988,0.078453198,-9.698776245,0.50994581
1677685710,1677685710,0,0,-0.003490658,0,0,0.078453198,-9.708582878,0.529559076
1677685710,1677685710,0,0,-0.001745329,0,0,0.058839899,-9.708582878,0.519752443
1677685710,1677685710,0,0,0,0,0,0.058839899,-9.708582878,0.519752443
1677685710,1677685710,9.974760056,1.017680407,,,,,,
1677685710,1677685710,0,0,-0.003490658,-0.006981317,0,0.058839899,-9.708582878,0.529559076
1677685710,1677685710,0,0,-0.001745329,0,0,0.058839899,-9.708582878,0.529559076
1677685710,1677685710,0,0,-0.003490658,0,0,0.058839899,-9.708582878,0.529559076
1677685710,1677685710,0,0,-0.005235988,0,0,0.06864655,-9.708582878,0.50994581
1677685710,1677685710,9.975399017,1.017680407,,,,,,
1677685710,1677685710,0,0,-0.003490658,0,0,0.06864655,-9.708582878,0.50994581
1677685710,1677685710,0,0,0,-0.003490658,0.001745329,0.078453198,-9.708582878,0.519752443
1677685710,1677685710,0,0,0,0.001745329,-0.001745329,0.078453198,-9.708582878,0.519752443
1677685710,1677685710,0,0,-0.001745329,0.001745329,0,0.06864655,-9.708582878,0.519752443
1677685710,1677685710,9.974811554,1.017680407,,,,,,
1677685710,1677685710,0,0,-0.001745329,0,0,0.06864655,-9.708582878,0.519752443
1677685710,1677685710,0,0,-0.001745329,0,0,0.078453198,-9.708582878,0.519752443
1677685710,1677685710,0,0,-0.001745329,0,0,0.078453198,-9.708582878,0.519752443
1677685710,1677685710,0,0,-0.005235988,0,0,0.06864655,-9.698776245,0.50994581
1677685710,1677685710,9.972841263,1.017680407,,,,,,
1677685710,1677685710,0,0,-0.001745329,0,0,0.06864655,-9.698776245,0.50994581
1677685710,1677685710,0,0,-0.001745329,0,0,0.06864655,-9.698776245,0.519752443
1677685710,1677685710,0,0,0,0,0,0.06864655,-9.698776245,0.519752443
1677685710,1677685710,0,0,0,0,0,0.06864655,-9.708582878,0.529559076
1677685710,1677685710,9.973617554,1.017680407,,,,,,
1677685710,1677685710,0,0,0,0.001745329,0.001745329,0.06864655,-9.698776245,0.519752443
1677685710,1677685710,0,0,0,0.001745329,-0.001745329,0.06864655,-9.698776245,0.519752443
1677685710,1677685710,0,0,0,0.005235988,0,0.078453198,-9.708582878,0.529559076
1677685711,1677685710,0,0,-0.001745329,0,0.001745329,0.078453198,-9.708582878,0.529559076
1677685711,1677685710,9.974187851,1.017680407,,,,,,
1677685711,1677685711,0,0,0,0,0,0.058839899,-9.718389511,0.50994581
1677685711,1677685711,0,0,0,0,0,0.058839899,-9.718389511,0.50994581
1677685711,1677685711,0,0,0,0.005235988,0,0.049033247,-9.708582878,0.519752443
1677685711,1677685711,0,0,0,0.001745329,0,0.049033247,-9.708582878,0.519752443
1677685711,1677685711,9.975623131,1.017680407,,,,,,
1677685711,1677685711,0,0,-0.003490658,0,0,0.06864655,-9.708582878,0.529559076
1677685711,1677685711,0,0,0,-0.003490658,-0.001745329,0.06864655,-9.708582878,0.529559076
1677685711,1677685711,0,0,-0.001745329,0,0,0.06864655,-9.698776245,0.519752443
1677685711,1677685711,0,0,0,0,0,0.06864655,-9.698776245,0.519752443
1677685711,1677685711,9.976801872,1.017680407,,,,,,
1677685711,1677685711,0,0,0,0,-0.001745329,0.06864655,-9.718389511,0.529559076
1677685711,1677685711,0,0,-0.001745329,0.001745329,0,0.06864655,-9.718389511,0.529559076
1677685711,1677685711,0,0,-0.005235988,0.001745329,0.001745329,0.06864655,-9.708582878,0.519752443
1677685711,1677685711,0,0,0,0,0,0.06864655,-9.708582878,0.519752443
1677685711,1677685711,9.973087311,1.017680407,,,,,,
1677685711,1677685711,0,0,0,0.001745329,0,0.06864655,-9.698776245,0.50994581
1677685711,1677685711,0,0,-0.001745329,0.003490658,0,0.06864655,-9.698776245,0.50994581
1677685711,1677685711,0,0,0.001745329,0,0,0.06864655,-9.698776245,0.529559076
1677685711,1677685711,0,0,-0.001745329,0.001745329,0,0.06864655,-9.698776245,0.529559076
1677685711,1677685711,9.975995064,1.017680407,,,,,,
1677685711,1677685711,0,0,-0.001745329,0,0,0.078453198,-9.688969612,0.529559076
1677685711,1677685711,0,0,-0.001745329,0,-0.001745329,0.078453198,-9.688969612,0.529559076
1677685711,1677685711,0,0,0,0.001745329,-0.001745329,0.078453198,-9.688969612,0.529559076
1677685711,1677685711,0,0,-0.003490658,0,0,0.078453198,-9.708582878,0.519752443
1677685711,1677685711,9.975387573,1.017680407,,,,,,
1677685711,1677685711,0,0,0,0,0.001745329,0.078453198,-9.708582878,0.519752443
1677685711,1677685711,0,0,-0.001745329,-0.003490658,0,0.078453198,-9.708582878,0.519752443
1677685711,1677685711,0,0,0,0.005235988,0,0.078453198,-9.698776245,0.519752443
1677685711,1677685711,0,0,0,0,0,0.078453198,-9.698776245,0.519752443
1677685711,1677685711,9.977910042,1.017680407,,,,,,
1677685711,1677685711,0,0,0,0,0,0.06864655,-9.708582878,0.529559076
1677685711,1677685711,0,0,0,0.005235988,-0.001745329,0.06864655,-9.708582878,0.529559076
1677685711,1677685711,0,0,-0.001745329,0,0,0.078453198,-9.718389511,0.519752443
1677685711,1677685711,0,0,-0.005235988,0.001745329,0,0.078453198,-9.718389511,0.519752443
1677685711,1677685711,9.973644257,1.017680407,,,,,,
1677685711,1677685711,0,0,-0.003490658,-0.003490658,0,0.06864655,-9.698776245,0.529559076
1677685711,1677685711,0,0,0,0.001745329,0,0.06864655,-9.698776245,0.529559076
1677685711,1677685711,0,0,-0.001745329,0,0,0.058839899,-9.698776245,0.529559076
1677685711,1677685711,0,0,-0.005235988,0,0,0.058839899,-9.698776245,0.529559076
1677685711,1677685711,9.976410866,1.017680407,,,,,,
1677685711,1677685711,0,0,-0.001745329,0.003490658,0,0.06864655,-9.708582878,0.519752443
1677685711,1677685711,0,0,-0.001745329,0.001745329,0,0.06864655,-9.708582878,0.519752443
1677685711,1677685711,0,0,-0.001745329,0.005235988,0,0.06864655,-9.708582878,0.519752443
1677685711,1677685711,0,0,-0.005235988,0,0,0.06864655,-9.708582878,0.519752443
1677685711,1677685711,9.972493172,1.017680407,,,,,,
1677685711,1677685711,0,0,-0.003490658,0,0.003490658,0.06864655,-9.708582878,0.519752443
1677685711,1677685711,0,0,-0.003490658,-0.003490658,0,0.06864655,-9.708582878,0.519752443
1677685711,1677685711,0,0,-0.003490658,-0.001745329,0,0.06864655,-9.708582878,0.519752443
1677685711,1677685711,0,0,-0.001745329,-0.003490658,0.001745329,0.06864655,-9.708582878,0.519752443
1677685711,1677685711,9.976859093,1.017680407,,,,,,
1677685711,1677685711,0,0,-0.005235988,0.006981317,0,0.078453198,-9.708582878,0.50994581
1677685711,1677685711,0,0,-0.001745329,0.012217305,0.003490658,0.078453198,-9.708582878,0.50994581
1677685711,1677685711,0,0,-0.003490658,0.001745329,-0.003490658,0.205939651,-9.806650162,0.490332484
1677685711,1677685711,0,0,0.005235988,0.022689279,-0.013962634,0.205939651,-9.806650162,0.490332484
1677685711,1677685711,9.976509094,1.017680407,,,,,,
1677685711,1677685711,0,0,0.003490658,0.036651913,-0.019198623,0.353039384,-9.708582878,0.558979034
1677685711,1677685711,0,0,0,0.041887902,-0.020943951,0.353039384,-9.708582878,0.558979034
1677685711,1677685711,0,0,-0.001745329,0.04363323,-0.027925268,0.284392834,-9.581096649,0.519752443
1677685711,1677685711,0,0,-0.006981317,0.057595864,-0.02617994,0.284392834,-9.581096649,0.519752443
1677685711,1677685711,9.990048409,1.017680407,,,,,,
1677685711,1677685711,0,0,-0.005235988,0.055850536,-0.029670596,0.313812792,-9.581096649,0.529559076
1677685711,1677685711,0,0,-0.005235988,0.059341192,-0.031415924,0.313812792,-9.581096649,0.529559076
1677685711,1677685711,0,0,-0.012217305,0.055850536,-0.033161256,0.078453198,-9.610516548,0.480525851
1677685711,1677685711,0,0,-0.017453292,0.038397245,-0.024434609,0.078453198,-9.610516548,0.480525851
1677685711,1677685711,10.06507015,1.017680407,,,,,,
1677685711,1677685711,0,0,-0.019198623,0.017453292,-0.003490658,-0.30400613,-9.718389511,0.402072638
1677685711,1677685711,0,0,-0.015707962,0.008726646,0.024434609,-0.30400613,-9.718389511,0.402072638
1677685711,1677685711,0,0,-0.006981317,-0.003490658,0.038397245,-0.382459342,-9.96355629,0.451105893
1677685711,1677685711,0,0,0.003490658,-0.019198623,0.027925268,-0.382459342,-9.96355629,0.451105893
1677685711,1677685711,10.10262394,1.017680407,,,,,,
1677685711,1677685711,0,0,0.012217305,-0.010471975,0.019198623,-0.039226599,-9.885103226,0.568785667
1677685711,1677685711,0,0,0.012217305,0,-0.005235988,-0.039226599,-9.885103226,0.568785667
1677685711,1677685711,0,0,0.010471975,-0.001745329,-0.022689279,-0.058839899,-9.620323181,0.519752443
1677685711,1677685711,0,0,0.001745329,-0.001745329,-0.019198623,-0.058839899,-9.620323181,0.519752443
1677685711,1677685711,10.09568977,1.017680407,,,,,,
1677685711,1677685711,0,0,-0.012217305,0.008726646,-0.015707962,0.049033247,-9.522256851,0.519752443
1677685711,1677685711,0,0,-0.013962634,0.012217305,-0.012217305,0.049033247,-9.522256851,0.519752443
1677685711,1677685711,0,0,-0.012217305,0.017453292,-0.022689279,0.235359594,-9.679162979,0.549172401
1677685711,1677685711,0,0,-0.006981317,0.020943951,-0.02617994,0.235359594,-9.679162979,0.549172401
1677685711,1677685711,10.09568977,1.017680407,,,,,,
1677685711,1677685711,0,0,-0.010471975,0.008726646,-0.031415924,0.088259846,-9.796843529,0.558979034
1677685711,1677685711,0,0,-0.005235988,0.001745329,-0.015707962,0.088259846,-9.796843529,0.558979034
1677685711,1677685711,0,0,0.001745329,0.003490658,0.003490658,0.078453198,-9.806650162,0.519752443
1677685711,1677685711,0,0,0,-0.006981317,0.008726646,0.078453198,-9.806650162,0.519752443
1677685711,1677685711,10.09831429,1.017680407,,,,,,
1677685711,1677685711,0,0,0,-0.015707962,0.022689279,0.06864655,-9.688969612,0.529559076
1677685711,1677685711,0,0,0,-0.017453292,0.017453292,0.06864655,-9.688969612,0.529559076
1677685711,1677685711,0,0,0.003490658,-0.006981317,0.020943951,0.205939651,-9.659549713,0.568785667
1677685711,1677685711,0,0,0.001745329,-0.001745329,0.010471975,0.205939651,-9.659549713,0.568785667
1677685711,1677685711,10.10487175,1.017680407,,,,,,
1677685711,1677685711,0,0,-0.005235988,0,0.013962634,0.1372931,-9.718389511,0.568785667
1677685711,1677685711,0,0,-0.003490658,0.008726646,0.008726646,0.1372931,-9.718389511,0.568785667
1677685711,1677685711,0,0,-0.005235988,0.017453292,0,0.0196133,-9.718389511,0.558979034
1677685711,1677685711,0,0,-0.005235988,0.013962634,-0.003490658,0.0196133,-9.718389511,0.558979034
1677685711,1677685711,10.10346031,1.017680407,,,,,,
1677685711,1677685711,0,0,-0.003490658,0.012217305,-0.013962634,-0.098066494,-9.688969612,0.519752443
1677685711,1677685711,0,0,-0.003490658,0.005235988,-0.017453292,-0.098066494,-9.688969612,0.519752443
1677685711,1677685711,0,0,-0.001745329,0.003490658,-0.015707962,-0.088259846,-9.698776245,0.50994581
1677685711,1677685711,0,0,-0.001745329,0,-0.012217305,-0.088259846,-9.698776245,0.50994581
1677685711,1677685711,10.11583805,1.017680407,,,,,,
1677685711,1677685711,0,0,-0.001745329,-0.003490658,-0.006981317,0.06864655,-9.708582878,0.539365709
1677685711,1677685711,0,0,0,0,-0.003490658,0.06864655,-9.708582878,0.539365709
1677685711,1677685711,0,0,0,-0.001745329,-0.001745329,0.215746298,-9.718389511,0.568785667
1677685711,1677685711,0,0,0,-0.003490658,0,0.215746298,-9.718389511,0.568785667
1677685711,1677685711,10.11194515,1.017680407,,,,,,
1677685711,1677685711,0,0,0,-0.001745329,0.008726646,0.245166242,-9.718389511,0.549172401
1677685711,1677685711,0,0,-0.003490658,0.005235988,0.010471975,0.245166242,-9.718389511,0.549172401
1677685711,1677685711,0,0,-0.003490658,0.003490658,0.008726646,0.117679797,-9.718389511,0.549172401
1677685711,1677685711,0,0,-0.005235988,0.003490658,0.006981317,0.117679797,-9.718389511,0.549172401
1677685711,1677685711,10.10998726,1.017680407,,,,,,
1677685711,1677685711,0,0,-0.005235988,0.001745329,0.006981317,0,-9.679162979,0.50994581
1677685711,1677685711,0,0,-0.005235988,0,0.001745329,0,-9.679162979,0.50994581
1677685711,1677685711,0,0,-0.003490658,0,0,-0.088259846,-9.688969612,0.50994581
1677685711,1677685711,0,0,0,0,-0.001745329,-0.088259846,-9.688969612,0.50994581
1677685711,1677685711,10.11136341,1.017680407,,,,,,
1677685711,1677685711,0,0,0,-0.003490658,-0.001745329,0.00980665,-9.728196144,0.50994581
1677685711,1677685711,0,0,0,-0.001745329,-0.006981317,0.00980665,-9.728196144,0.50994581
1677685711,1677685711,0,0,0,0,-0.006981317,0.098066494,-9.728196144,0.529559076
1677685711,1677685711,0,0,-0.005235988,0.001745329,-0.006981317,0.098066494,-9.728196144,0.529559076
1677685711,1677685711,10.10729885,1.017680407,,,,,,
1677685711,1677685711,0,0,-0.006981317,-0.001745329,-0.003490658,0.147099748,-9.669356346,0.529559076
1677685711,1677685711,0,0,-0.006981317,0,-0.001745329,0.147099748,-9.669356346,0.529559076
1677685711,1677685711,0,0,-0.003490658,0,-0.005235988,0.117679797,-9.698776245,0.519752443
1677685711,1677685711,0,0,-0.005235988,0,0.001745329,0.117679797,-9.698776245,0.519752443
1677685711,1677685711,10.10360813,1.017680407,,,,,,
1677685711,1677685711,0,0,-0.001745329,-0.001745329,0.005235988,0.098066494,-9.76742363,0.50994581
1677685711,1677685711,0,0,-0.001745329,-0.003490658,0.003490658,0.098066494,-9.76742363,0.50994581
1677685711,1677685711,0,0,0,-0.001745329,0.003490658,0.049033247,-9.728196144,0.500139117
1677685711,1677685711,0,0,0,-0.005235988,0.006981317,0.049033247,-9.728196144,0.500139117
1677685711,1677685711,10.10574913,1.017680407,,,,,,
1677685711,1677685711,0,0,-0.005235988,-0.005235988,0.006981317,0.039226599,-9.688969612,0.490332484
1677685711,1677685711,0,0,-0.001745329,-0.003490658,0,0.039226599,-9.688969612,0.490332484
1677685711,1677685711,0,0,0,0,0.001745329,0.039226599,-9.688969612,0.519752443
1677685711,1677685711,0,0,0,0,0,0.039226599,-9.688969612,0.519752443
1677685711,1677685711,10.10596657,1.017680407,,,,,,
1677685711,1677685711,0,0,-0.003490658,0.003490658,0,0.088259846,-9.718389511,0.519752443
1677685711,1677685711,0,0,-0.001745329,0.001745329,-0.001745329,0.088259846,-9.718389511,0.519752443
1677685711,1677685711,0,0,-0.005235988,-0.005235988,-0.005235988,0.058839899,-9.718389511,0.500139117
1677685711,1677685711,0,0,-0.003490658,0.001745329,-0.006981317,0.058839899,-9.718389511,0.500139117
1677685711,1677685711,10.10377502,1.017680407,,,,,,
1677685711,1677685711,0,0,0,0.003490658,-0.001745329,0.06864655,-9.708582878,0.519752443
1677685711,1677685711,0,0,-0.001745329,-0.005235988,-0.001745329,0.06864655,-9.708582878,0.519752443
1677685711,1677685711,0,0,0,0.003490658,-0.001745329,0.06864655,-9.718389511,0.50994581
1677685711,1677685711,0,0,0,-0.001745329,0,0.06864655,-9.718389511,0.50994581
1677685711,1677685711,10.10536098,1.017680407,,,,,,
1677685711,1677685711,0,0,-0.001745329,-0.001745329,0.003490658,0.107873149,-9.728196144,0.519752443
1677685711,1677685711,0,0,-0.003490658,-0.005235988,0,0.107873149,-9.728196144,0.519752443
1677685711,1677685711,0,0,0,-0.003490658,0.005235988,0.078453198,-9.698776245,0.50994581
1677685711,1677685711,0,0,0,0.001745329,0.006981317,0.078453198,-9.698776245,0.50994581
1677685711,1677685711,10.10461426,1.017680407,,,,,,
1677685711,1677685711,0,0,0.003490658,0.001745329,0.010471975,0.088259846,-9.777230263,0.568785667
1677685711,1677685711,0,0,0.005235988,-0.003490658,0.012217305,0.088259846,-9.777230263,0.568785667
1677685711,1677685711,0,0,0.019198623,0,0.010471975,0.06864655,-10.01258945,0.735498726
1677685711,1677685711,0,0,0.045378558,0,0.005235988,0.06864655,-10.01258945,0.735498726
1677685711,1677685711,10.1050663,1.017680407,,,,,,
1677685711,1677685711,0,0,0.068067841,-0.005235988,0.010471975,-0.147099748,-10.17930222,1.255251169
1677685711,1677685711,0,0,0.089011788,-0.015707962,0,-0.147099748,-10.17930222,1.255251169
1677685711,1677685711,0,0,0.125663698,-0.02617994,0.013962634,-0.382459342,-10.20872211,2.039783239
1677685711,1677685711,0,0,0.148352981,-0.052359879,0.020943951,-0.382459342,-10.20872211,2.039783239
1677685711,1677685711,10.10404682,1.017680407,,,,,,
1677685711,1677685711,0,0,0.169296935,-0.059341192,0.031415924,-0.627625585,-10.27736855,3.36368084
1677685711,1677685711,0,0,0.185004905,-0.094247781,0.048869219,-0.627625585,-10.27736855,3.36368084
1677685711,1677685711,0,0,0.218166158,-0.116937056,0.024434609,-0.794338644,-10.41466236,4.501252174
1677685711,1677685711,0,0,0.256563395,-0.130899698,0.057595864,-0.794338644,-10.41466236,4.501252174
1677685711,1677685711,10.07079887,1.017680407,,,,,,
1677685711,1677685711,0,0,0.261799395,-0.171042264,0.066322513,-1.206217885,-10.23814201,5.393657207
1677685711,1677685711,0,0,0.287979335,-0.233874112,0.102974422,-1.206217885,-10.23814201,5.393657207
1677685711,1677685711,0,0,0.270526022,-0.275762022,0.097738437,-1.520030737,-9.296704292,5.629016876
1677685711,1677685711,0,0,0.219911486,-0.301941961,0.181514233,-1.520030737,-9.296704292,5.629016876
1677685711,1677685711,10.03008747,1.017680407,,,,,,
1677685711,1677685711,0,0,0.226892799,-0.38048178,0.162315622,-1.716163754,-8.757338524,5.972249508
1677685711,1677685711,0,0,0.181514233,-0.394444406,0.171042264,-1.716163754,-8.757338524,5.972249508
1677685711,1677685711,0,0,0.127409041,-0.452040285,0.181514233,-1.882876754,-8.600431442,5.972249508
1677685711,1677685711,0,0,0.061086524,-0.507890821,0.157079637,-1.882876754,-8.600431442,5.972249508
1677685711,1677685711,9.413653374,1.017680407,,,,,,
1677685711,1677685711,0,0,-0.019198623,-0.509636164,0.130899698,-1.569063902,-7.962999821,5.746696949
1677685711,1677685711,0,0,-0.085521132,-0.53407073,0.078539819,-1.569063902,-7.962999821,5.746696949
1677685711,1677685711,0,0,-0.106465086,-0.53407073,0.055850536,-1.206217885,-8.227779388,5.472110748
1677685711,1677685711,0,0,-0.071558498,-0.54454273,0.022689279,-1.206217885,-8.227779388,5.472110748
1677685711,1677685711,9.201836586,1.017680407,,,,,,
1677685711,1677685711,0,0,-0.083775803,-0.558505356,0,-1.059118152,-8.825984955,5.344624043
1677685711,1677685711,0,0,-0.048869219,-0.541052043,-0.033161256,-1.059118152,-8.825984955,5.344624043
1677685711,1677685711,0,0,-0.073303826,-0.527089417,-0.064577185,-0.64723891,-7.88454628,5.119071007
1677685711,1677685711,0,0,-0.07679449,-0.532325447,-0.08726646,-0.64723891,-7.88454628,5.119071007
1677685711,1677685711,8.17678833,1.017680407,,,,,,
1677685711,1677685711,0,0,-0.064577185,-0.53930676,-0.137881011,-1.588677287,-7.913966179,4.540478706
1677685711,1677685711,0,0,-0.031415924,-0.561996043,-0.134390354,-1.588677287,-7.913966179,4.540478706
1677685711,1677685711,0,0,-0.04712389,-0.593411922,-0.134390354,-1.73577702,-8.610238075,4.638545513
1677685711,1677685711,0,0,-0.019198623,-0.52359879,-0.073303826,-1.73577702,-8.610238075,4.638545513
1677685711,1677685711,9.792531013,1.005576611,,,,,,
1677685711,1677685711,0,0,-0.176278248,-0.537561417,-0.038397245,-1.117958069,-9.610516548,4.638545513
1677685711,1677685711,0,0,-0.242600769,-0.773180842,-0.059341192,-1.117958069,-9.610516548,4.638545513
1677685711,1677685711,0,0,-0.326376557,-0.954695106,0.010471975,-3.324454308,-9.561483383,2.255529404
1677685711,1677685711,0,0,-0.394444406,-1.045452237,0.226892799,-3.324454308,-9.561483383,2.255529404
1677685711,1677685711,8.761300087,1.005576611,,,,,,
1677685711,1677685711,0,0,-0.294960648,-1.117010713,0.418879032,-0.95124501,-13.33704376,2.941994905
1677685711,1677685711,0,0,-0.214675501,-1.178097248,0.53930676,-0.95124501,-13.33704376,2.941994905
1677685711,1677685711,0,0,-0.033161256,-1.190314531,0.532325447,-0.519752443,-13.87640953,2.647795439
1677685711,1677685711,0,0,0.095993109,-1.174606562,0.541052043,-0.519752443,-13.87640953,2.647795439
1677685711,1677685711,7.699672222,1.005576611,,,,,,
1677685711,1677685711,0,0,0.275762022,-1.158898592,0.366519153,-1.147377968,-11.63068676,2.471275806
1677685711,1677685711,0,0,0.324631244,-1.080358744,0.247836754,-1.147377968,-11.63068676,2.471275806
1677685711,1677685711,0,0,0.431096315,-1.08908546,0.151843637,-1.216024518,-7.727640152,1.431770921
1677685711,1677685711,0,0,0.293215305,-1.043706894,0.005235988,-1.216024518,-7.727640152,1.431770921
1677685711,1677685711,7.179129124,1.005576611,,,,,,
1677685711,1677685711,0,0,0.212930173,-0.935496449,-0.033161256,-0.470719188,-4.491445541,2.128042936
1677685711,1677685711,0,0,-0.015707962,-0.802851439,-0.089011788,-0.470719188,-4.491445541,2.128042936
1677685711,1677685711,0,0,-0.202458188,-0.792379498,-0.176278248,-0.88259846,-4.089373112,1.637710452
1677685711,1677685711,0,0,-0.284488678,-0.895353913,-0.289724648,-0.88259846,-4.089373112,1.637710452
1677685711,1677685711,7.863883495,0.993338704,,,,,,
1677685711,1677685711,0,0,-0.396189749,-0.923279166,-0.378736436,-2.255529404,-7.168661118,1.039504886
1677685711,1677685711,0,0,-0.376991123,-0.891863227,-0.324631244,-2.255529404,-7.168661118,1.039504886
1677685711,1677685711,0,0,-0.310668617,-0.938987136,-0.268780708,-1.59848392,-12.34657192,1.794616938
1677685711,1677685711,0,0,-0.127409041,-1.054178834,-0.268780708,-1.59848392,-12.34657192,1.794616938
1677685711,1677685711,6.53108263,0.993338704,,,,,,
1677685711,1677685711,0,0,-0.010471975,-1.000073671,-0.045378558,-1.01989162,-15.04340076,1.66713047
1677685711,1677685711,0,0,0.19024089,-1.061160207,0,-1.01989162,-15.04340076,1.66713047
1677685711,1677685711,0,0,0.38048178,-1.125737309,0.083775803,-0.764918685,-14.31770897,1.941716671
1677685711,1677685711,0,0,0.373500466,-1.153662682,0.17453292,-0.843371868,-9.051537514,1.108151436
1677685711,1677685711,5.500656605,0.993338704,,,,,,
1677685711,1677685711,0,0,0.457276255,-1.206022501,0.207694173,-0.843371868,-9.051537514,1.108151436
1677685711,1677685711,0,0,0.280998021,-1.239183784,0.258308738,-0.843371868,-9.051537514,1.108151436
1677685711,1677685711,0,0,0.125663698,-1.260127664,0.286233991,-0.235359594,-5.138684273,0.725692093
1677685711,1677685711,0,0,0.013962634,-1.326450229,0.272271365,-0.235359594,-5.138684273,0.725692093
1677685711,1677685711,7.255885124,0.980950773,,,,,,
1677685711,1677685711,0,0,-0.305432618,-1.291543603,0.274016678,-0.196132988,-5.344624043,0.608012259
1677685711,1677685711,0,0,-0.376991123,-1.228711843,0.249582082,-0.196132988,-5.344624043,0.608012259
1677685711,1677685711,0,0,-0.635299861,-1.174606562,0.006981317,-0.627625585,-8.914244652,0.666852176
1677685711,1677685711,0,0,-0.493928164,-1.151917338,0.036651913,-0.95124501,-13.81756973,-0.431492597
1677685711,1677685711,4.812285423,0.980950773,,,,,,
1677685711,1677685711,0,0,-0.336848557,-1.148426652,0.008726646,-0.95124501,-13.81756973,-0.431492597
1677685711,1677685711,0,0,-0.218166158,-1.040216208,-0.274016678,-2.010363102,-15.64160633,0.529559076
1677685711,1677685711,0,0,0.158824965,-1.087340117,-0.186750233,-2.010363102,-15.64160633,0.529559076
1677685711,1677685711,0,0,0.347320527,-1.069886804,-0.356047153,-2.010363102,-15.64160633,0.529559076
1677685711,1677685711,5.284296513,0.968370199,,,,,,
1677685711,1677685711,0,0,0.527089417,-1.005309582,-0.253072739,-1.01989162,-13.29781723,0.804145277
1677685711,1677685711,0,0,0.591666639,-0.979129732,-0.125663698,-1.01989162,-13.29781723,0.804145277
1677685711,1677685711,0,0,0.651007831,-1.021017551,-0.036651913,0.147099748,-7.404020786,0.049033247
1677685711,1677685711,0,0,0.366519153,-0.982620358,0.125663698,0.147099748,-7.404020786,0.049033247
1677685711,1677685711,4.135499954,0.968370199,,,,,,
1677685711,1677685711,0,0,0.261799395,-1.024508238,0.209439516,0.902211785,-3.84420681,-0.156906396
1677685711,1677685711,0,0,-0.029670596,-0.984365702,0.268780708,0.902211785,-3.84420681,-0.156906396
1677685711,1677685711,0,0,-0.322885901,-1.001819015,0.183259577,1.549450636,-5.678050041,0.313812792
1677685711,1677685711,0,0,-0.35430184,-0.942477763,0.162315622,1.549450636,-5.678050041,0.313812792
1677685711,1677685711,2.606206894,0.968370199,,,,,,
1677685711,1677685711,0,0,-0.5497787,-0.954695106,0.066322513,1.676937103,-10.14988232,0.18632634
1677685711,1677685711,0,0,-0.415388346,-0.86742866,0.157079637,1.676937103,-10.14988232,0.18632634
1677685711,1677685711,0,0,-0.280998021,-0.825540721,0.162315622,0.990471601,-14.4157753,0.568785667
1677685711,1677685711,0,0,-0.123918377,-0.832522035,0.204203516,0.990471601,-14.4157753,0.568785667
1677685711,1677685711,4.058670521,0.955641925,,,,,,
1677685712,1677685712,0,0,0.064577185,-0.794124782,0.282743335,-1.137571335,-13.75872993,0.764918685
1677685712,1677685712,0,0,0.167551607,-0.897099257,0.209439516,-1.137571335,-13.75872993,0.764918685
1677685712,1677685712,0,0,0.300196618,-0.891863227,0.228638127,-1.52983737,-8.786758423,0.166713044
1677685712,1677685712,0,0,0.277507335,-0.822050095,0.230383456,-1.52983737,-8.786758423,0.166713044
1677685712,1677685712,4.058670521,0.955641925,,,,,,
1677685712,1677685712,0,0,0.328121901,-0.869173944,0.169296935,-0.402072638,-5.952636242,0.254972905
1677685712,1677685712,0,0,0.263544708,-0.778416812,0.191986218,-0.402072638,-5.952636242,0.254972905
1677685712,1677685712,0,0,0.089011788,-0.774926186,0.041887902,-0.421685934,-6.129156113,0.294199497
1677685712,1677685712,0,0,0.001745329,-0.691150367,-0.08726646,-0.421685934,-6.129156113,0.294199497
1677685712,1677685712,1.887046099,0.955641925,,,,,,
1677685712,1677685712,0,0,-0.280998021,-0.747000933,-0.055850536,-1.127764702,-8.629851341,-0.608012259
1677685712,1677685712,0,0,-0.366519153,-0.811578095,-0.181514233,-1.127764702,-8.629851341,-0.608012259
1677685712,1677685712,0,0,-0.53407073,-0.841248691,-0.19024089,-2.373209238,-12.30734539,-0.30400613
1677685712,1677685712,0,0,-0.546288073,-0.853465974,-0.193731546,-2.373209238,-12.30734539,-0.30400613
1677685712,1677685712,0.982205212,0.955641925,,,,,,
1677685712,1677685712,0,0,-0.329867214,-0.879645944,-0.130899698,-0.245166242,-14.36674213,0.37265268
1677685712,1677685712,0,0,-0.228638127,-0.829031408,-0.137881011,-0.245166242,-14.36674213,0.37265268
1677685712,1677685712,0,0,-0.012217305,-0.75049156,-0.090757117,2.118236303,-12.11121273,0.627625585
1677685712,1677685712,0,0,0.181514233,-0.663225114,-0.027925268,2.118236303,-12.11121273,0.627625585
1677685712,1677685712,3.052340508,0.942776024,,,,,,
1677685712,1677685712,0,0,0.294960648,-0.673697114,0.029670596,2.530115604,-8.423912048,0.764918685
1677685712,1677685712,0,0,0.366519153,-0.541052043,0.141371667,2.530115604,-8.423912048,0.764918685
1677685712,1677685712,0,0,0.37000981,-0.607374549,0.172787592,1.657323837,-5.275977612,0
1677685712,1677685712,0,0,0.279252678,-0.572467983,0.287979335,1.657323837,-5.275977612,0
1677685712,1677685712,3.052340508,0.942776024,,,,,,
1677685712,1677685712,0,0,0.146607652,-0.595157266,0.321140587,0.598205626,-5.746696949,0.529559076
1677685712,1677685712,0,0,0.010471975,-0.654498458,0.293215305,0.598205626,-5.746696949,0.529559076
1677685712,1677685712,0,0,-0.171042264,-0.516617477,0.397935063,0.843371868,-8.629851341,0.117679797
1677685712,1677685712,0,0,-0.230383456,-0.521853447,0.34906584,0.843371868,-8.629851341,0.117679797
1677685712,1677685712,3.052340508,0.942776024,,,,,,
1677685712,1677685712,0,0,-0.218166158,-0.485201538,0.202458188,-0.264779538,-12.86632442,1.000278234
1677685712,1677685712,0,0,-0.151843637,-0.486946851,0.195476875,-0.264779538,-12.86632442,1.000278234
1677685712,1677685712,0,0,-0.06981317,-0.52359879,0.055850536,-1.402350903,-13.05265045,0.078453198
1677685712,1677685712,0,0,-0.048869219,-0.504400134,-0.031415924,-1.402350903,-13.05265045,0.078453198
1677685712,1677685712,3.052340508,0.942776024,,,,,,
1677685712,1677685712,0,0,0.013962634,-0.415388346,-0.111701071,-0.912018418,-10.26756191,0.353039384
1677685712,1677685712,0,0,0.04363323,-0.431096315,-0.277507335,-0.912018418,-10.26756191,0.353039384
1677685712,1677685712,0,0,0.054105207,-0.326376557,-0.383972436,-0.098066494,-9.414383888,0.57859236
1677685712,1677685712,0,0,0.048869219,-0.249582082,-0.415388346,-0.098066494,-9.414383888,0.57859236
1677685712,1677685712,2.457628727,0.929773808,,,,,,
1677685712,1677685712,0,0,0.071558498,-0.260054052,-0.490437508,0.078453198,-8.894631386,0.107873149
1677685712,1677685712,0,0,0.02617994,-0.20071286,-0.483456194,0.078453198,-8.894631386,0.107873149
1677685712,1677685712,0,0,-0.038397245,-0.195476875,-0.417133689,0.215746298,-8.149326324,0.147099748
1677685712,1677685712,0,0,-0.062831849,-0.228638127,-0.434586972,0.215746298,-8.149326324,0.147099748
1677685712,1677685712,4.211598873,0.916640818,,,,,,
1677685712,1677685712,0,0,-0.167551607,-0.274016678,-0.326376557,0,-8.394492149,0.588398993
1677685712,1677685712,0,0,-0.247836754,-0.296705961,-0.207694173,0,-8.394492149,0.588398993
1677685712,1677685712,0,0,-0.181514233,-0.390953749,-0.141371667,0,-9.365350723,0.294199497
1677685712,1677685712,0,0,-0.249582082,-0.422369689,0.024434609,0.50994581,-10.04200935,0.176519692
1677685712,1677685712,3.800421715,0.916640818,,,,,,
1677685712,1677685712,0,0,-0.207694173,-0.445058942,0.089011788,0.50994581,-10.04200935,0.176519692
1677685712,1677685712,0,0,-0.066322513,-0.488692194,0.160570294,0.50994581,-10.04200935,0.176519692
1677685712,1677685712,0,0,-0.068067841,-0.424115002,0.235619441,1.22583127,-12.0131464,1.108151436
1677685712,1677685712,0,0,0.129154369,-0.431096315,0.178023577,1.22583127,-12.0131464,1.108151436
1677685712,1677685712,3.094320059,0.916640818,,,,,,
1677685712,1677685712,0,0,0.214675501,-0.357792497,0.225147471,1.725970387,-12.57212543,0.333426088
1677685712,1677685712,0,0,0.232128784,-0.301941961,0.211184844,1.725970387,-12.57212543,0.333426088
1677685712,1677685712,0,0,0.366519153,-0.275762022,0.169296935,0.774725318,-11.76797962,0.06864655
1677685712,1677685712,0,0,0.282743335,-0.237364769,0.242600769,0.774725318,-11.76797962,0.06864655
1677685712,1677685712,5.587700367,0.903337717,,,,,,
1677685712,1677685712,0,0,0.185004905,-0.218166158,0.205948845,-0.676658809,-9.051537514,0.245166242
1677685712,1677685712,0,0,0.075049154,-0.272271365,0.136135682,-0.676658809,-9.051537514,0.245166242
1677685712,1677685712,0,0,-0.136135682,-0.254818082,0.158824965,-1.480804086,-6.276255608,0.098066494
1677685712,1677685712,0,0,-0.277507335,-0.284488678,0.062831849,-1.480804086,-6.276255608,0.098066494
1677685712,1677685712,5.272963047,0.903337717,,,,,,
1677685712,1677685712,0,0,-0.270526022,-0.366519153,0.017453292,-1.353317618,-6.629295349,-0.294199497
1677685712,1677685712,0,0,-0.335103214,-0.312413931,0.061086524,-0.06864655,-9.120183945,0.313812792
1677685712,1677685712,0,0,-0.247836754,-0.366519153,-0.020943951,-0.06864655,-9.120183945,0.313812792
1677685712,1677685712,0,0,-0.111701071,-0.363028467,0.071558498,-0.06864655,-9.120183945,0.313812792
1677685712,1677685712,4.672422409,0.903337717,,,,,,
1677685712,1677685712,0,0,-0.045378558,-0.335103214,0.104719758,0.539365709,-11.39532661,0.64723891
1677685712,1677685712,0,0,0.08726646,-0.366519153,0.050614547,0.666852176,-11.74836636,0.421685934
1677685712,1677685712,0,0,0.151843637,-0.280998021,0.108210415,0.666852176,-11.74836636,0.421685934
1677685712,1677685712,0,0,0.226892799,-0.218166158,0.024434609,0.666852176,-11.74836636,0.421685934
1677685712,1677685712,4.486179829,0.903337717,,,,,,
1677685712,1677685712,0,0,0.347320527,-0.209439516,-0.061086524,0.1372931,-12.46425152,0.549172401
1677685712,1677685712,0,0,0.356047153,-0.204203516,-0.127409041,0.1372931,-12.46425152,0.549172401
1677685712,1677685712,0,0,0.342084527,-0.188495561,-0.195476875,-0.892405152,-11.28745365,0.451105893
1677685712,1677685712,0,0,0.301941961,-0.218166158,-0.235619441,-0.892405152,-11.28745365,0.451105893
1677685712,1677685712,7.196315289,0.889875174,,,,,,
1677685712,1677685712,0,0,0.052359879,-0.249582082,-0.167551607,-1.117958069,-7.560926914,0.049033247
1677685712,1677685712,0,0,-0.150098309,-0.277507335,-0.134390354,-0.980664968,-4.609125614,-0.127486452
1677685712,1677685712,0,0,-0.401425719,-0.371755123,-0.036651913,-0.980664968,-4.609125614,-0.127486452
1677685712,1677685712,0,0,-0.54454273,-0.397935063,0.031415924,-0.980664968,-4.609125614,-0.127486452
1677685712,1677685712,7.196315289,0.889875174,,,,,,
1677685712,1677685712,0,0,-0.54454273,-0.453785598,0.082030475,-0.205939651,-6.884268284,0.333426088
1677685712,1677685712,0,0,-0.497418821,-0.479965538,0.150098309,0.686465502,-10.84615421,0.696272135
1677685712,1677685712,0,0,-0.356047153,-0.450294942,0.150098309,0.686465502,-10.84615421,0.696272135
1677685712,1677685712,0,0,-0.062831849,-0.472984225,0.185004905,0.588398993,-14.07254219,1.01989162
1677685712,1677685712,7.196315289,0.889875174,,,,,,
1677685712,1677685712,0,0,0.099483766,-0.439822972,0.267035365,0.588398993,-14.07254219,1.01989162
1677685712,1677685712,0,0,0.328121901,-0.448549628,0.204203516,0.107873149,-13.8960228,1.059118152
1677685712,1677685712,0,0,0.513126791,-0.396189749,0.272271365,0.107873149,-13.8960228,1.059118152
1677685712,1677685712,0,0,0.492182851,-0.417133689,0.219911486,-0.71588546,-10.22833538,0.558979034
1677685712,1677685712,8.857826233,0.876220703,,,,,,
1677685712,1677685712,0,0,0.452040285,-0.424115002,0.16406095,-0.71588546,-10.22833538,0.558979034
1677685712,1677685712,0,0,0.35953781,-0.389208406,0.141371667,-0.764918685,-7.10001421,0.323619455
1677685712,1677685712,0,0,0.185004905,-0.424115002,0.085521132,-0.764918685,-7.10001421,0.323619455
1677685712,1677685712,0,0,0.08726646,-0.415388346,0.010471975,-0.764918685,-7.10001421,0.323619455
1677685712,1677685712,8.178976059,0.876220703,,,,,,
1677685712,1677685712,0,0,0,-0.37524578,0.034906585,-0.529559076,-6.580262184,0.745305359
1677685712,1677685712,0,0,-0.1134464,-0.390953749,-0.062831849,-0.274586201,-6.452775478,0.451105893
1677685712,1677685712,0,0,-0.171042264,-0.357792497,-0.102974422,-0.274586201,-6.452775478,0.451105893
1677685712,1677685712,0,0,-0.261799395,-0.314159274,-0.130899698,-0.392265975,-8.16893959,0.480525851
1677685712,1677685712,7.783922672,0.876220703,,,,,,
1677685712,1677685712,0,0,-0.322885901,-0.305432618,-0.209439516,-0.392265975,-8.16893959,0.480525851
1677685712,1677685712,0,0,-0.237364769,-0.301941961,-0.20071286,-0.392265975,-8.16893959,0.480525851
1677685712,1677685712,0,0,-0.150098309,-0.33859387,-0.19024089,-1.637710452,-12.5917387,0.696272135
1677685712,1677685712,0,0,-0.013962634,-0.389208406,-0.253072739,-2.500695705,-14.4746151,0.637432218
1677685712,1677685712,10.66035175,0.862358272,,,,,,
1677685712,1677685712,0,0,0.136135682,-0.394444406,-0.169296935,-2.500695705,-14.4746151,0.637432218
1677685712,1677685712,0,0,0.261799395,-0.495673507,-0.263544708,-2.343789339,-12.38579845,0.353039384
1677685712,1677685712,0,0,0.301941961,-0.55501467,-0.274016678,-2.343789339,-12.38579845,0.353039384
1677685712,1677685712,0,0,0.34382987,-0.619591892,-0.17453292,-1.363124371,-8.414105415,0.205939651
1677685712,1677685712,10.22772026,0.862358272,,,,,,
1677685712,1677685712,0,0,0.249582082,-0.733038306,-0.202458188,-1.363124371,-8.414105415,0.205939651
1677685712,1677685712,0,0,0.095993109,-0.741764903,-0.06981317,0.294199497,-5.109264374,0.37265268
1677685712,1677685712,0,0,-0.062831849,-0.799360812,0.019198623,0.294199497,-5.109264374,0.37265268
1677685712,1677685712,0,0,-0.258308738,-0.815068781,0.092502452,0.205939651,-4.62873888,0.470719188
1677685712,1677685712,9.034100533,0.862358272,,,,,,
1677685712,1677685712,0,0,-0.422369689,-0.862192631,0.204203516,0.205939651,-4.62873888,0.470719188
1677685712,1677685712,0,0,-0.513126791,-0.851720691,0.219911486,0.735498726,-8.571011543,0.617818952
1677685712,1677685712,0,0,-0.403171062,-0.836012721,0.256563395,0.735498726,-8.571011543,0.617818952
1677685712,1677685712,0,0,-0.373500466,-0.778416812,0.286233991,-0.049033247,-13.9254427,1.010084867
1677685712,1677685712,11.77476311,0.848427176,,,,,,
1677685712,1677685712,0,0,-0.141371667,-0.780162156,0.186750233,-0.049033247,-13.9254427,1.010084867
1677685712,1677685712,0,0,0.062831849,-0.759218216,0.150098309,-1.431770921,-15.35721397,0.57859236
1677685712,1677685712,0,0,0.144862324,-0.733038306,0.108210415,-1.431770921,-15.35721397,0.57859236
1677685712,1677685712,0,0,0.314159274,-0.757472873,0.02617994,-2.392822504,-12.64077187,0.156906396
1677685712,1677685712,11.77476311,0.848427176,,,,,,
1677685712,1677685712,0,0,0.33859387,-0.710349023,0.031415924,-2.392822504,-12.64077187,0.156906396
1677685712,1677685712,0,0,0.294960648,-0.715584993,0.029670596,-1.696550369,-9.630129814,0.215746298
1677685712,1677685712,0,0,0.315904588,-0.788888812,0.005235988,-1.696550369,-9.630129814,0.215746298
1677685712,1677685712,0,0,0.179768905,-0.771435499,0.109955743,-1.696550369,-9.630129814,0.215746298
1677685712,1677685712,9.668848038,0.848427176,,,,,,
1677685712,1677685712,0,0,0.003490658,-0.794124782,0.150098309,-0.558979034,-6.070316315,0.107873149
1677685712,1677685712,0,0,-0.082030475,-0.813323438,0.207694173,0.421685934,-4.108986378,-0.0196133
1677685712,1677685712,0,0,-0.303687274,-0.815068781,0.225147471,0.421685934,-4.108986378,-0.0196133
1677685712,1677685712,0,0,-0.401425719,-0.876155257,0.223402143,-0.81395191,-7.698220253,-0.088259846
1677685712,1677685712,12.50474072,0.834443986,,,,,,
1677685712,1677685712,0,0,-0.418879032,-0.937241793,0.209439516,-0.81395191,-7.698220253,-0.088259846
1677685712,1677685712,0,0,-0.308923274,-0.951204419,0.167551607,-1.490610719,-14.12157536,0.117679797
1677685712,1677685712,0,0,-0.172787592,-0.961676419,0.195476875,-1.490610719,-14.12157536,0.117679797
1677685712,1677685712,0,0,0.029670596,-0.949459076,0.188495561,-1.824036837,-16.31826591,0.098066494
1677685712,1677685712,11.51241112,0.834443986,,,,,,
1677685712,1677685712,0,0,0.274016678,-1.019272327,0.08726646,-1.824036837,-16.31826591,0.098066494
1677685712,1677685712,0,0,0.371755123,-1.019272327,0.085521132,-2.049589872,-12.63096523,0.166713044
1677685712,1677685712,0,0,0.441568285,-1.005309582,0.005235988,-2.049589872,-12.63096523,0.166713044
1677685712,1677685712,0,0,0.497418821,-1.036725521,-0.083775803,-0.872791827,-6.521421909,0.353039384
1677685712,1677685712,10.46677399,0.834443986,,,,,,
1677685712,1677685712,0,0,0.301941961,-0.991347015,-0.116937056,-0.872791827,-6.521421909,0.353039384
1677685712,1677685712,0,0,0.233874112,-0.926769853,-0.209439516,0.676658809,-3.108707905,0.362846047
1677685712,1677685712,0,0,0.045378558,-0.933751166,-0.202458188,0.676658809,-3.108707905,0.362846047
1677685712,1677685712,0,0,-0.150098309,-0.795870125,-0.108210415,1.363124371,-4.589511871,0.794338644
1677685712,1677685712,12.63339138,0.82048142,,,,,,
1677685712,1677685712,0,0,-0.38048178,-0.811578095,0.029670596,1.363124371,-4.589511871,0.794338644
1677685712,1677685712,0,0,-0.478220224,-0.87266463,0.16406095,-0.568785667,-9.120183945,0.362846047
1677685712,1677685712,0,0,-0.584685266,-0.947713792,0.308923274,-0.568785667,-9.120183945,0.362846047
1677685712,1677685712,0,0,-0.507890821,-1.024508238,0.467748225,-2.167269707,-14.61190796,0.254972905
1677685712,1677685712,11.16766071,0.82048142,,,,,,
1677685712,1677685712,0,0,-0.328121901,-1.120501399,0.56548667,-2.167269707,-14.61190796,0.254972905
1677685712,1677685712,0,0,-0.099483766,-1.197295904,0.492182851,-2.333982706,-16.38691139,0.568785667
1677685712,1677685712,0,0,0.125663698,-1.223475814,0.588175952,-2.333982706,-16.38691139,0.568785667
1677685712,1677685712,0,0,0.336848557,-1.321214199,0.471238881,-2.951801538,-12.81729126,0.30400613
1677685712,1677685712,9.867884636,0.82048142,,,,,,
1677685712,1677685712,0,0,0.459021598,-1.418952703,0.404916376,-2.951801538,-12.81729126,0.30400613
1677685712,1677685712,0,0,0.445058942,-1.384046078,0.408407032,-1.52983737,-6.737168312,0.058839899
1677685712,1677685712,0,0,0.352556497,-1.424188614,0.223402143,-1.52983737,-6.737168312,0.058839899
1677685712,1677685712,0,0,0.188495561,-1.403244734,0.099483766,-0.460912526,-4.167826176,-0.0196133
1677685712,1677685712,11.7744112,0.806619525,,,,,,
1677685712,1677685712,0,0,-0.068067841,-1.200786471,0,-0.460912526,-4.167826176,-0.0196133
1677685712,1677685712,0,0,-0.143116996,-1.150171995,0.017453292,-0.215746298,-7.511893749,-0.039226599
1677685712,1677685712,0,0,-0.265290052,-1.096066713,-0.064577185,-0.215746298,-7.511893749,-0.039226599
1677685712,1677685712,0,0,-0.253072739,-1.090830803,-0.205948845,-0.215746298,-7.511893749,-0.039226599
1677685712,1677685712,10.39732361,0.806619525,,,,,,
1677685712,1677685712,0,0,-0.143116996,-0.989601672,-0.148352981,-1.775003552,-12.36618519,0.30400613
1677685712,1677685712,0,0,-0.001745329,-0.966912389,-0.256563395,-1.08853817,-13.85679626,0.313812792
1677685712,1677685712,0,0,0.167551607,-1.007054925,-0.301941961,-1.08853817,-13.85679626,0.313812792
1677685712,1677685712,0,0,0.321140587,-0.963421762,-0.178023577,-0.71588546,-11.21880722,0.696272135
1677685712,1677685712,9.03844738,0.806619525,,,,,,
1677685712,1677685712,0,0,0.415388346,-1.034980297,-0.258308738,-0.71588546,-11.21880722,0.696272135
1677685712,1677685712,0,0,0.350811183,-1.012290955,-0.205948845,0.392265975,-5.795730114,0.88259846
1677685712,1677685712,0,0,0.216420829,-1.021017551,-0.17453292,0.392265975,-5.795730114,0.88259846
