__time,__datetime,__type,/hamster2/command/header.stamp,/hamster2/command/header.frame_id,/hamster2/command/drive.steering_angle,/hamster2/command/drive.steering_angle_velocity,/hamster2/command/drive.speed,/hamster2/command/drive.acceleration,/hamster2/command/drive.jerk
1677685709.4603508,2023-03-01 16:48:29.460351,ackermann_msgs/AckermannDriveStamped,1677685709.3597972,,9.972792625427246,0.0,1.0176804065704346,0.0,0.0
1677685709.460896,2023-03-01 16:48:29.460896,ackermann_msgs/AckermannDriveStamped,1677685709.378926,,9.972881317138672,0.0,1.0176804065704346,0.0,0.0
1677685709.4612772,2023-03-01 16:48:29.461277,ackermann_msgs/AckermannDriveStamped,1677685709.398925,,9.975045204162598,0.0,1.0176804065704346,0.0,0.0
1677685709.461652,2023-03-01 16:48:29.461652,ackermann_msgs/AckermannDriveStamped,1677685709.4199455,,9.974722862243652,0.0,1.0176804065704346,0.0,0.0
1677685709.4621024,2023-03-01 16:48:29.462102,ackermann_msgs/AckermannDriveStamped,1677685709.4391587,,9.974722862243652,0.0,1.0176804065704346,0.0,0.0
1677685709.4647133,2023-03-01 16:48:29.464713,ackermann_msgs/AckermannDriveStamped,1677685709.4617815,,9.973121643066406,0.0,1.0176804065704346,0.0,0.0
1677685709.4801035,2023-03-01 16:48:29.480103,ackermann_msgs/AckermannDriveStamped,1677685709.4793382,,9.973312377929688,0.0,1.0176804065704346,0.0,0.0
1677685709.4990814,2023-03-01 16:48:29.499081,ackermann_msgs/AckermannDriveStamped,1677685709.4987097,,9.978130340576172,0.0,1.0176804065704346,0.0,0.0
1677685709.5201342,2023-03-01 16:48:29.520134,ackermann_msgs/AckermannDriveStamped,1677685709.5187275,,9.972576141357422,0.0,1.0176804065704346,0.0,0.0
1677685709.540044,2023-03-01 16:48:29.540044,ackermann_msgs/AckermannDriveStamped,1677685709.5387511,,9.978262901306152,0.0,1.0176804065704346,0.0,0.0
1677685709.5592034,2023-03-01 16:48:29.559203,ackermann_msgs/AckermannDriveStamped,1677685709.558755,,9.972192764282227,0.0,1.0176804065704346,0.0,0.0
1677685709.5794902,2023-03-01 16:48:29.579490,ackermann_msgs/AckermannDriveStamped,1677685709.5788136,,9.973465919494629,0.0,1.0176804065704346,0.0,0.0
1677685709.5997791,2023-03-01 16:48:29.599779,ackermann_msgs/AckermannDriveStamped,1677685709.598709,,9.972825050354004,0.0,1.0176804065704346,0.0,0.0
1677685709.6195438,2023-03-01 16:48:29.619544,ackermann_msgs/AckermannDriveStamped,1677685709.618706,,9.971746444702148,0.0,1.0176804065704346,0.0,0.0
1677685709.6397138,2023-03-01 16:48:29.639714,ackermann_msgs/AckermannDriveStamped,1677685709.638737,,9.978119850158691,0.0,1.0176804065704346,0.0,0.0
1677685709.6593447,2023-03-01 16:48:29.659345,ackermann_msgs/AckermannDriveStamped,1677685709.6588178,,9.976032257080078,0.0,1.0176804065704346,0.0,0.0
1677685709.6796486,2023-03-01 16:48:29.679649,ackermann_msgs/AckermannDriveStamped,1677685709.678847,,9.975292205810547,0.0,1.0176804065704346,0.0,0.0
1677685709.699571,2023-03-01 16:48:29.699571,ackermann_msgs/AckermannDriveStamped,1677685709.6987321,,9.970816612243652,0.0,1.0176804065704346,0.0,0.0
1677685709.721982,2023-03-01 16:48:29.721982,ackermann_msgs/AckermannDriveStamped,1677685709.7187498,,9.973258018493652,0.0,1.0176804065704346,0.0,0.0
1677685709.7399633,2023-03-01 16:48:29.739963,ackermann_msgs/AckermannDriveStamped,1677685709.738709,,9.97502326965332,0.0,1.0176804065704346,0.0,0.0
1677685709.759329,2023-03-01 16:48:29.759329,ackermann_msgs/AckermannDriveStamped,1677685709.7587285,,9.975611686706543,0.0,1.0176804065704346,0.0,0.0
1677685709.7794158,2023-03-01 16:48:29.779416,ackermann_msgs/AckermannDriveStamped,1677685709.7788134,,9.975611686706543,0.0,1.0176804065704346,0.0,0.0
1677685709.7999055,2023-03-01 16:48:29.799906,ackermann_msgs/AckermannDriveStamped,1677685709.7987607,,9.975611686706543,0.0,1.0176804065704346,0.0,0.0
1677685709.8194516,2023-03-01 16:48:29.819452,ackermann_msgs/AckermannDriveStamped,1677685709.8187718,,9.975611686706543,0.0,1.0176804065704346,0.0,0.0
1677685709.8393316,2023-03-01 16:48:29.839332,ackermann_msgs/AckermannDriveStamped,1677685709.8387868,,9.975611686706543,0.0,1.0176804065704346,0.0,0.0
1677685709.8593743,2023-03-01 16:48:29.859374,ackermann_msgs/AckermannDriveStamped,1677685709.8587034,,9.975611686706543,0.0,1.0176804065704346,0.0,0.0
1677685709.8795414,2023-03-01 16:48:29.879541,ackermann_msgs/AckermannDriveStamped,1677685709.8787344,,9.975611686706543,0.0,1.0176804065704346,0.0,0.0
1677685709.8997633,2023-03-01 16:48:29.899763,ackermann_msgs/AckermannDriveStamped,1677685709.8987439,,9.975611686706543,0.0,1.0176804065704346,0.0,0.0
1677685709.919625,2023-03-01 16:48:29.919625,ackermann_msgs/AckermannDriveStamped,1677685709.9187436,,9.975611686706543,0.0,1.0176804065704346,0.0,0.0
1677685709.9400601,2023-03-01 16:48:29.940060,ackermann_msgs/AckermannDriveStamped,1677685709.9387293,,9.975611686706543,0.0,1.0176804065704346,0.0,0.0
1677685709.9594202,2023-03-01 16:48:29.959420,ackermann_msgs/AckermannDriveStamped,1677685709.9587407,,9.975611686706543,0.0,1.0176804065704346,0.0,0.0
1677685709.979417,2023-03-01 16:48:29.979417,ackermann_msgs/AckermannDriveStamped,1677685709.9787333,,9.975611686706543,0.0,1.0176804065704346,0.0,0.0
1677685709.999377,2023-03-01 16:48:29.999377,ackermann_msgs/AckermannDriveStamped,1677685709.9987106,,9.975611686706543,0.0,1.0176804065704346,0.0,0.0
1677685710.019694,2023-03-01 16:48:30.019694,ackermann_msgs/AckermannDriveStamped,1677685710.01876,,9.975611686706543,0.0,1.0176804065704346,0.0,0.0
1677685710.039441,2023-03-01 16:48:30.039441,ackermann_msgs/AckermannDriveStamped,1677685710.03871,,9.975611686706543,0.0,1.0176804065704346,0.0,0.0
1677685710.0619273,2023-03-01 16:48:30.061927,ackermann_msgs/AckermannDriveStamped,1677685710.0589938,,9.975611686706543,0.0,1.0176804065704346,0.0,0.0
1677685710.0819,2023-03-01 16:48:30.081900,ackermann_msgs/AckermannDriveStamped,1677685710.0792823,,9.975611686706543,0.0,1.0176804065704346,0.0,0.0
1677685710.099936,2023-03-01 16:48:30.099936,ackermann_msgs/AckermannDriveStamped,1677685710.0987809,,9.975611686706543,0.0,1.0176804065704346,0.0,0.0
1677685710.1202343,2023-03-01 16:48:30.120234,ackermann_msgs/AckermannDriveStamped,1677685710.1187065,,9.975611686706543,0.0,1.0176804065704346,0.0,0.0
1677685710.1398613,2023-03-01 16:48:30.139861,ackermann_msgs/AckermannDriveStamped,1677685710.1386938,,9.975611686706543,0.0,1.0176804065704346,0.0,0.0
1677685710.1604617,2023-03-01 16:48:30.160462,ackermann_msgs/AckermannDriveStamped,1677685710.1587565,,9.975611686706543,0.0,1.0176804065704346,0.0,0.0
1677685710.182044,2023-03-01 16:48:30.182044,ackermann_msgs/AckermannDriveStamped,1677685710.178721,,9.975611686706543,0.0,1.0176804065704346,0.0,0.0
1677685710.1994448,2023-03-01 16:48:30.199445,ackermann_msgs/AckermannDriveStamped,1677685710.1987095,,9.975611686706543,0.0,1.0176804065704346,0.0,0.0
1677685710.2199652,2023-03-01 16:48:30.219965,ackermann_msgs/AckermannDriveStamped,1677685710.2187636,,9.975611686706543,0.0,1.0176804065704346,0.0,0.0
1677685710.2404535,2023-03-01 16:48:30.240453,ackermann_msgs/AckermannDriveStamped,1677685710.238689,,9.97555923461914,0.0,1.0176804065704346,0.0,0.0
1677685710.2645023,2023-03-01 16:48:30.264502,ackermann_msgs/AckermannDriveStamped,1677685710.2586925,,9.975666046142578,0.0,1.0176804065704346,0.0,0.0
1677685710.279452,2023-03-01 16:48:30.279452,ackermann_msgs/AckermannDriveStamped,1677685710.2786965,,9.975507736206055,0.0,1.0176804065704346,0.0,0.0
1677685710.2999246,2023-03-01 16:48:30.299925,ackermann_msgs/AckermannDriveStamped,1677685710.298718,,9.972633361816406,0.0,1.0176804065704346,0.0,0.0
1677685710.3198373,2023-03-01 16:48:30.319837,ackermann_msgs/AckermannDriveStamped,1677685710.3187277,,9.97543716430664,0.0,1.0176804065704346,0.0,0.0
1677685710.3400314,2023-03-01 16:48:30.340031,ackermann_msgs/AckermannDriveStamped,1677685710.3388553,,9.975845336914062,0.0,1.0176804065704346,0.0,0.0
1677685710.359346,2023-03-01 16:48:30.359346,ackermann_msgs/AckermannDriveStamped,1677685710.3587208,,9.977065086364746,0.0,1.0176804065704346,0.0,0.0
1677685710.3795123,2023-03-01 16:48:30.379512,ackermann_msgs/AckermannDriveStamped,1677685710.3787358,,9.974699020385742,0.0,1.0176804065704346,0.0,0.0
1677685710.4007995,2023-03-01 16:48:30.400800,ackermann_msgs/AckermannDriveStamped,1677685710.3987567,,9.974760055541992,0.0,1.0176804065704346,0.0,0.0
1677685710.4197867,2023-03-01 16:48:30.419787,ackermann_msgs/AckermannDriveStamped,1677685710.4187353,,9.975399017333984,0.0,1.0176804065704346,0.0,0.0
1677685710.4396741,2023-03-01 16:48:30.439674,ackermann_msgs/AckermannDriveStamped,1677685710.4387257,,9.974811553955078,0.0,1.0176804065704346,0.0,0.0
1677685710.4594312,2023-03-01 16:48:30.459431,ackermann_msgs/AckermannDriveStamped,1677685710.4587293,,9.972841262817383,0.0,1.0176804065704346,0.0,0.0
1677685710.4795763,2023-03-01 16:48:30.479576,ackermann_msgs/AckermannDriveStamped,1677685710.4787343,,9.973617553710938,0.0,1.0176804065704346,0.0,0.0
1677685710.5020278,2023-03-01 16:48:30.502028,ackermann_msgs/AckermannDriveStamped,1677685710.4998398,,9.974187850952148,0.0,1.0176804065704346,0.0,0.0
1677685710.5206273,2023-03-01 16:48:30.520627,ackermann_msgs/AckermannDriveStamped,1677685710.5187519,,9.97562313079834,0.0,1.0176804065704346,0.0,0.0
1677685710.5399215,2023-03-01 16:48:30.539922,ackermann_msgs/AckermannDriveStamped,1677685710.5387168,,9.976801872253418,0.0,1.0176804065704346,0.0,0.0
1677685710.5615084,2023-03-01 16:48:30.561508,ackermann_msgs/AckermannDriveStamped,1677685710.5592775,,9.973087310791016,0.0,1.0176804065704346,0.0,0.0
1677685710.5813892,2023-03-01 16:48:30.581389,ackermann_msgs/AckermannDriveStamped,1677685710.5787122,,9.975995063781738,0.0,1.0176804065704346,0.0,0.0
1677685710.5996192,2023-03-01 16:48:30.599619,ackermann_msgs/AckermannDriveStamped,1677685710.5987136,,9.975387573242188,0.0,1.0176804065704346,0.0,0.0
1677685710.62,2023-03-01 16:48:30.620000,ackermann_msgs/AckermannDriveStamped,1677685710.6187487,,9.977910041809082,0.0,1.0176804065704346,0.0,0.0
1677685710.6391962,2023-03-01 16:48:30.639196,ackermann_msgs/AckermannDriveStamped,1677685710.6386907,,9.973644256591797,0.0,1.0176804065704346,0.0,0.0
1677685710.6599634,2023-03-01 16:48:30.659963,ackermann_msgs/AckermannDriveStamped,1677685710.6587338,,9.976410865783691,0.0,1.0176804065704346,0.0,0.0
1677685710.68066,2023-03-01 16:48:30.680660,ackermann_msgs/AckermannDriveStamped,1677685710.6787071,,9.972493171691895,0.0,1.0176804065704346,0.0,0.0
1677685710.6993916,2023-03-01 16:48:30.699392,ackermann_msgs/AckermannDriveStamped,1677685710.6988254,,9.976859092712402,0.0,1.0176804065704346,0.0,0.0
1677685710.7201374,2023-03-01 16:48:30.720137,ackermann_msgs/AckermannDriveStamped,1677685710.7187185,,9.976509094238281,0.0,1.0176804065704346,0.0,0.0
1677685710.7401965,2023-03-01 16:48:30.740196,ackermann_msgs/AckermannDriveStamped,1677685710.7387524,,9.9900484085083,0.0,1.0176804065704346,0.0,0.0
1677685710.75936,2023-03-01 16:48:30.759360,ackermann_msgs/AckermannDriveStamped,1677685710.7587316,,10.065070152282715,0.0,1.0176804065704346,0.0,0.0
1677685710.7793705,2023-03-01 16:48:30.779371,ackermann_msgs/AckermannDriveStamped,1677685710.7787464,,10.10262393951416,0.0,1.0176804065704346,0.0,0.0
1677685710.799656,2023-03-01 16:48:30.799656,ackermann_msgs/AckermannDriveStamped,1677685710.798737,,10.09568977355957,0.0,1.0176804065704346,0.0,0.0
1677685710.8192794,2023-03-01 16:48:30.819279,ackermann_msgs/AckermannDriveStamped,1677685710.8186917,,10.09568977355957,0.0,1.0176804065704346,0.0,0.0
1677685710.8401184,2023-03-01 16:48:30.840118,ackermann_msgs/AckermannDriveStamped,1677685710.8389432,,10.09831428527832,0.0,1.0176804065704346,0.0,0.0
1677685710.8593485,2023-03-01 16:48:30.859349,ackermann_msgs/AckermannDriveStamped,1677685710.8587124,,10.10487174987793,0.0,1.0176804065704346,0.0,0.0
1677685710.879489,2023-03-01 16:48:30.879489,ackermann_msgs/AckermannDriveStamped,1677685710.8787117,,10.103460311889648,0.0,1.0176804065704346,0.0,0.0
1677685710.8993995,2023-03-01 16:48:30.899400,ackermann_msgs/AckermannDriveStamped,1677685710.8987348,,10.115838050842285,0.0,1.0176804065704346,0.0,0.0
1677685710.922391,2023-03-01 16:48:30.922391,ackermann_msgs/AckermannDriveStamped,1677685710.9187562,,10.111945152282715,0.0,1.0176804065704346,0.0,0.0
1677685710.9398177,2023-03-01 16:48:30.939818,ackermann_msgs/AckermannDriveStamped,1677685710.9391377,,10.109987258911133,0.0,1.0176804065704346,0.0,0.0
1677685710.959398,2023-03-01 16:48:30.959398,ackermann_msgs/AckermannDriveStamped,1677685710.9587045,,10.111363410949707,0.0,1.0176804065704346,0.0,0.0
1677685710.9800854,2023-03-01 16:48:30.980085,ackermann_msgs/AckermannDriveStamped,1677685710.9790087,,10.107298851013184,0.0,1.0176804065704346,0.0,0.0
1677685710.999202,2023-03-01 16:48:30.999202,ackermann_msgs/AckermannDriveStamped,1677685710.9987128,,10.103608131408691,0.0,1.0176804065704346,0.0,0.0
1677685711.019558,2023-03-01 16:48:31.019558,ackermann_msgs/AckermannDriveStamped,1677685711.0187004,,10.105749130249023,0.0,1.0176804065704346,0.0,0.0
1677685711.0462258,2023-03-01 16:48:31.046226,ackermann_msgs/AckermannDriveStamped,1677685711.0387843,,10.105966567993164,0.0,1.0176804065704346,0.0,0.0
1677685711.0622728,2023-03-01 16:48:31.062273,ackermann_msgs/AckermannDriveStamped,1677685711.0587482,,10.103775024414062,0.0,1.0176804065704346,0.0,0.0
1677685711.0817654,2023-03-01 16:48:31.081765,ackermann_msgs/AckermannDriveStamped,1677685711.078771,,10.105360984802246,0.0,1.0176804065704346,0.0,0.0
1677685711.0991786,2023-03-01 16:48:31.099179,ackermann_msgs/AckermannDriveStamped,1677685711.0987225,,10.1046142578125,0.0,1.0176804065704346,0.0,0.0
1677685711.1195824,2023-03-01 16:48:31.119582,ackermann_msgs/AckermannDriveStamped,1677685711.1187148,,10.105066299438477,0.0,1.0176804065704346,0.0,0.0
1677685711.1413376,2023-03-01 16:48:31.141338,ackermann_msgs/AckermannDriveStamped,1677685711.1387613,,10.104046821594238,0.0,1.0176804065704346,0.0,0.0
1677685711.160409,2023-03-01 16:48:31.160409,ackermann_msgs/AckermannDriveStamped,1677685711.1587272,,10.070798873901367,0.0,1.0176804065704346,0.0,0.0
1677685711.1811917,2023-03-01 16:48:31.181192,ackermann_msgs/AckermannDriveStamped,1677685711.1793213,,10.0300874710083,0.0,1.0176804065704346,0.0,0.0
1677685711.199283,2023-03-01 16:48:31.199283,ackermann_msgs/AckermannDriveStamped,1677685711.1986938,,9.413653373718262,0.0,1.0176804065704346,0.0,0.0
1677685711.2194324,2023-03-01 16:48:31.219432,ackermann_msgs/AckermannDriveStamped,1677685711.2187455,,9.201836585998535,0.0,1.0176804065704346,0.0,0.0
1677685711.2394862,2023-03-01 16:48:31.239486,ackermann_msgs/AckermannDriveStamped,1677685711.2387335,,8.176788330078125,0.0,1.0176804065704346,0.0,0.0
1677685711.2595062,2023-03-01 16:48:31.259506,ackermann_msgs/AckermannDriveStamped,1677685711.2587411,,9.79253101348877,0.0,1.0055766105651855,0.0,0.0
1677685711.2795286,2023-03-01 16:48:31.279529,ackermann_msgs/AckermannDriveStamped,1677685711.2787154,,8.761300086975098,0.0,1.0055766105651855,0.0,0.0
1677685711.300004,2023-03-01 16:48:31.300004,ackermann_msgs/AckermannDriveStamped,1677685711.2988138,,7.699672222137451,0.0,1.0055766105651855,0.0,0.0
1677685711.3194587,2023-03-01 16:48:31.319459,ackermann_msgs/AckermannDriveStamped,1677685711.3186946,,7.179129123687744,0.0,1.0055766105651855,0.0,0.0
1677685711.3398967,2023-03-01 16:48:31.339897,ackermann_msgs/AckermannDriveStamped,1677685711.3386633,,7.8638834953308105,0.0,0.9933387041091919,0.0,0.0
1677685711.3603861,2023-03-01 16:48:31.360386,ackermann_msgs/AckermannDriveStamped,1677685711.3587391,,6.531082630157471,0.0,0.9933387041091919,0.0,0.0
1677685711.380317,2023-03-01 16:48:31.380317,ackermann_msgs/AckermannDriveStamped,1677685711.3788521,,5.500656604766846,0.0,0.9933387041091919,0.0,0.0
1677685711.4011285,2023-03-01 16:48:31.401129,ackermann_msgs/AckermannDriveStamped,1677685711.3987448,,7.255885124206543,0.0,0.9809507727622986,0.0,0.0
1677685711.4223516,2023-03-01 16:48:31.422352,ackermann_msgs/AckermannDriveStamped,1677685711.421065,,4.812285423278809,0.0,0.9809507727622986,0.0,0.0
1677685711.4394674,2023-03-01 16:48:31.439467,ackermann_msgs/AckermannDriveStamped,1677685711.4387407,,5.28429651260376,0.0,0.9683701992034912,0.0,0.0
1677685711.4598386,2023-03-01 16:48:31.459839,ackermann_msgs/AckermannDriveStamped,1677685711.4587266,,4.135499954223633,0.0,0.9683701992034912,0.0,0.0
1677685711.4795558,2023-03-01 16:48:31.479556,ackermann_msgs/AckermannDriveStamped,1677685711.478755,,2.6062068939208984,0.0,0.9683701992034912,0.0,0.0
1677685711.499591,2023-03-01 16:48:31.499591,ackermann_msgs/AckermannDriveStamped,1677685711.4987693,,4.058670520782471,0.0,0.9556419253349304,0.0,0.0
1677685711.5195038,2023-03-01 16:48:31.519504,ackermann_msgs/AckermannDriveStamped,1677685711.5187488,,4.058670520782471,0.0,0.9556419253349304,0.0,0.0
1677685711.5397089,2023-03-01 16:48:31.539709,ackermann_msgs/AckermannDriveStamped,1677685711.5387292,,1.8870460987091064,0.0,0.9556419253349304,0.0,0.0
1677685711.5598464,2023-03-01 16:48:31.559846,ackermann_msgs/AckermannDriveStamped,1677685711.5587673,,0.9822052121162415,0.0,0.9556419253349304,0.0,0.0
1677685711.5794847,2023-03-01 16:48:31.579485,ackermann_msgs/AckermannDriveStamped,1677685711.5787013,,3.052340507507324,0.0,0.9427760243415833,0.0,0.0
1677685711.599364,2023-03-01 16:48:31.599364,ackermann_msgs/AckermannDriveStamped,1677685711.5987384,,3.052340507507324,0.0,0.9427760243415833,0.0,0.0
1677685711.6204438,2023-03-01 16:48:31.620444,ackermann_msgs/AckermannDriveStamped,1677685711.6187546,,3.052340507507324,0.0,0.9427760243415833,0.0,0.0
1677685711.640303,2023-03-01 16:48:31.640303,ackermann_msgs/AckermannDriveStamped,1677685711.6387348,,3.052340507507324,0.0,0.9427760243415833,0.0,0.0
1677685711.6610284,2023-03-01 16:48:31.661028,ackermann_msgs/AckermannDriveStamped,1677685711.6587074,,2.4576287269592285,0.0,0.9297738075256348,0.0,0.0
1677685711.6800785,2023-03-01 16:48:31.680079,ackermann_msgs/AckermannDriveStamped,1677685711.678744,,4.211598873138428,0.0,0.9166408181190491,0.0,0.0
1677685711.6995883,2023-03-01 16:48:31.699588,ackermann_msgs/AckermannDriveStamped,1677685711.6987624,,3.800421714782715,0.0,0.9166408181190491,0.0,0.0
1677685711.720252,2023-03-01 16:48:31.720252,ackermann_msgs/AckermannDriveStamped,1677685711.718856,,3.094320058822632,0.0,0.9166408181190491,0.0,0.0
1677685711.739804,2023-03-01 16:48:31.739804,ackermann_msgs/AckermannDriveStamped,1677685711.7387161,,5.587700366973877,0.0,0.9033377170562744,0.0,0.0
1677685711.7603457,2023-03-01 16:48:31.760346,ackermann_msgs/AckermannDriveStamped,1677685711.758752,,5.272963047027588,0.0,0.9033377170562744,0.0,0.0
1677685711.779481,2023-03-01 16:48:31.779481,ackermann_msgs/AckermannDriveStamped,1677685711.7787344,,4.672422409057617,0.0,0.9033377170562744,0.0,0.0
1677685711.7999816,2023-03-01 16:48:31.799982,ackermann_msgs/AckermannDriveStamped,1677685711.798776,,4.486179828643799,0.0,0.9033377170562744,0.0,0.0
1677685711.8194728,2023-03-01 16:48:31.819473,ackermann_msgs/AckermannDriveStamped,1677685711.8187053,,7.196315288543701,0.0,0.8898751735687256,0.0,0.0
1677685711.8395321,2023-03-01 16:48:31.839532,ackermann_msgs/AckermannDriveStamped,1677685711.8387606,,7.196315288543701,0.0,0.8898751735687256,0.0,0.0
1677685711.8594487,2023-03-01 16:48:31.859449,ackermann_msgs/AckermannDriveStamped,1677685711.8587477,,7.196315288543701,0.0,0.8898751735687256,0.0,0.0
1677685711.8791704,2023-03-01 16:48:31.879170,ackermann_msgs/AckermannDriveStamped,1677685711.8787057,,8.857826232910156,0.0,0.876220703125,0.0,0.0
1677685711.8994336,2023-03-01 16:48:31.899434,ackermann_msgs/AckermannDriveStamped,1677685711.8987105,,8.178976058959961,0.0,0.876220703125,0.0,0.0
1677685711.9199305,2023-03-01 16:48:31.919930,ackermann_msgs/AckermannDriveStamped,1677685711.9187512,,7.7839226722717285,0.0,0.876220703125,0.0,0.0
1677685711.9398537,2023-03-01 16:48:31.939854,ackermann_msgs/AckermannDriveStamped,1677685711.9387057,,10.660351753234863,0.0,0.8623582720756531,0.0,0.0
1677685711.9592502,2023-03-01 16:48:31.959250,ackermann_msgs/AckermannDriveStamped,1677685711.958706,,10.227720260620117,0.0,0.8623582720756531,0.0,0.0
1677685711.9793663,2023-03-01 16:48:31.979366,ackermann_msgs/AckermannDriveStamped,1677685711.9787683,,9.034100532531738,0.0,0.8623582720756531,0.0,0.0
1677685711.9996226,2023-03-01 16:48:31.999623,ackermann_msgs/AckermannDriveStamped,1677685711.9987743,,11.774763107299805,0.0,0.8484271764755249,0.0,0.0
1677685712.0198147,2023-03-01 16:48:32.019815,ackermann_msgs/AckermannDriveStamped,1677685712.0187774,,11.774763107299805,0.0,0.8484271764755249,0.0,0.0
1677685712.0396218,2023-03-01 16:48:32.039622,ackermann_msgs/AckermannDriveStamped,1677685712.038681,,9.668848037719727,0.0,0.8484271764755249,0.0,0.0
1677685712.0593157,2023-03-01 16:48:32.059316,ackermann_msgs/AckermannDriveStamped,1677685712.0587382,,12.504740715026855,0.0,0.834443986415863,0.0,0.0
1677685712.079763,2023-03-01 16:48:32.079763,ackermann_msgs/AckermannDriveStamped,1677685712.0787168,,11.512411117553711,0.0,0.834443986415863,0.0,0.0
1677685712.099517,2023-03-01 16:48:32.099517,ackermann_msgs/AckermannDriveStamped,1677685712.0986943,,10.466773986816406,0.0,0.834443986415863,0.0,0.0
1677685712.1196456,2023-03-01 16:48:32.119646,ackermann_msgs/AckermannDriveStamped,1677685712.1187294,,12.633391380310059,0.0,0.8204814195632935,0.0,0.0
1677685712.139582,2023-03-01 16:48:32.139582,ackermann_msgs/AckermannDriveStamped,1677685712.1387155,,11.1676607131958,0.0,0.8204814195632935,0.0,0.0
1677685712.1597404,2023-03-01 16:48:32.159740,ackermann_msgs/AckermannDriveStamped,1677685712.1587462,,9.867884635925293,0.0,0.8204814195632935,0.0,0.0
1677685712.1792736,2023-03-01 16:48:32.179274,ackermann_msgs/AckermannDriveStamped,1677685712.1787338,,11.77441120147705,0.0,0.8066195249557495,0.0,0.0
1677685712.2005265,2023-03-01 16:48:32.200526,ackermann_msgs/AckermannDriveStamped,1677685712.1987395,,10.397323608398438,0.0,0.8066195249557495,0.0,0.0
1677685712.2200804,2023-03-01 16:48:32.220080,ackermann_msgs/AckermannDriveStamped,1677685712.2187145,,9.038447380065918,0.0,0.8066195249557495,0.0,0.0
1677685712.2392488,2023-03-01 16:48:32.239249,ackermann_msgs/AckermannDriveStamped,1677685712.238682,,11.677245140075684,0.0,0.7929679751396179,0.0,0.0
1677685712.2604609,2023-03-01 16:48:32.260461,ackermann_msgs/AckermannDriveStamped,1677685712.2587209,,11.055980682373047,0.0,0.7929679751396179,0.0,0.0
1677685712.279827,2023-03-01 16:48:32.279827,ackermann_msgs/AckermannDriveStamped,1677685712.2787375,,9.279443740844727,0.0,0.7929679751396179,0.0,0.0
1677685712.2991896,2023-03-01 16:48:32.299190,ackermann_msgs/AckermannDriveStamped,1677685712.2986836,,11.89316463470459,0.0,0.7796418070793152,0.0,0.0
1677685712.3197842,2023-03-01 16:48:32.319784,ackermann_msgs/AckermannDriveStamped,1677685712.3187146,,11.178763389587402,0.0,0.7796418070793152,0.0,0.0
1677685712.3401,2023-03-01 16:48:32.340100,ackermann_msgs/AckermannDriveStamped,1677685712.3387241,,8.298871040344238,0.0,0.7796418070793152,0.0,0.0
1677685712.3610494,2023-03-01 16:48:32.361049,ackermann_msgs/AckermannDriveStamped,1677685712.358752,,11.923318862915039,0.0,0.7668008804321289,0.0,0.0
1677685712.379659,2023-03-01 16:48:32.379659,ackermann_msgs/AckermannDriveStamped,1677685712.378703,,11.177364349365234,0.0,0.7668008804321289,0.0,0.0
1677685712.4010258,2023-03-01 16:48:32.401026,ackermann_msgs/AckermannDriveStamped,1677685712.3986964,,9.028801918029785,0.0,0.7668008804321289,0.0,0.0
1677685712.4194026,2023-03-01 16:48:32.419403,ackermann_msgs/AckermannDriveStamped,1677685712.4187021,,12.519495964050293,0.0,0.7546799182891846,0.0,0.0
1677685712.4394035,2023-03-01 16:48:32.439404,ackermann_msgs/AckermannDriveStamped,1677685712.4387274,,10.344844818115234,0.0,0.7546799182891846,0.0,0.0
1677685712.4597385,2023-03-01 16:48:32.459738,ackermann_msgs/AckermannDriveStamped,1677685712.458923,,9.633411407470703,0.0,0.7546799182891846,0.0,0.0
1677685712.4868598,2023-03-01 16:48:32.486860,ackermann_msgs/AckermannDriveStamped,1677685712.4787145,,12.287961959838867,0.0,0.7433109283447266,0.0,0.0
1677685712.499421,2023-03-01 16:48:32.499421,ackermann_msgs/AckermannDriveStamped,1677685712.4986813,,12.287961959838867,0.0,0.7433109283447266,0.0,0.0
1677685712.5196064,2023-03-01 16:48:32.519606,ackermann_msgs/AckermannDriveStamped,1677685712.5187304,,9.011736869812012,0.0,0.7433109283447266,0.0,0.0
1677685712.5396945,2023-03-01 16:48:32.539695,ackermann_msgs/AckermannDriveStamped,1677685712.538721,,13.737945556640625,0.0,0.7331842184066772,0.0,0.0
1677685712.5594237,2023-03-01 16:48:32.559424,ackermann_msgs/AckermannDriveStamped,1677685712.5587206,,11.92713451385498,0.0,0.7331842184066772,0.0,0.0
1677685712.5798967,2023-03-01 16:48:32.579897,ackermann_msgs/AckermannDriveStamped,1677685712.5787308,,10.689041137695312,0.0,0.7331842184066772,0.0,0.0
1677685712.6000867,2023-03-01 16:48:32.600087,ackermann_msgs/AckermannDriveStamped,1677685712.5987537,,15.478947639465332,0.0,0.7244219183921814,0.0,0.0
1677685712.6197007,2023-03-01 16:48:32.619701,ackermann_msgs/AckermannDriveStamped,1677685712.618875,,14.70750617980957,0.0,0.7244219183921814,0.0,0.0
1677685712.6395154,2023-03-01 16:48:32.639515,ackermann_msgs/AckermannDriveStamped,1677685712.6387398,,18.597705841064453,0.0,0.7174140214920044,0.0,0.0
1677685712.659376,2023-03-01 16:48:32.659376,ackermann_msgs/AckermannDriveStamped,1677685712.6587164,,17.757965087890625,0.0,0.7174140214920044,0.0,0.0
1677685712.6810615,2023-03-01 16:48:32.681062,ackermann_msgs/AckermannDriveStamped,1677685712.678732,,15.978446006774902,0.0,0.7174140214920044,0.0,0.0
1677685712.7010353,2023-03-01 16:48:32.701035,ackermann_msgs/AckermannDriveStamped,1677685712.698793,,19.87828254699707,0.0,0.7135691046714783,0.0,0.0
1677685712.7209444,2023-03-01 16:48:32.720944,ackermann_msgs/AckermannDriveStamped,1677685712.7187057,,19.87828254699707,0.0,0.7135691046714783,0.0,0.0
1677685712.7393143,2023-03-01 16:48:32.739314,ackermann_msgs/AckermannDriveStamped,1677685712.7387047,,17.503150939941406,0.0,0.7135691046714783,0.0,0.0
1677685712.7598102,2023-03-01 16:48:32.759810,ackermann_msgs/AckermannDriveStamped,1677685712.758727,,24.4708251953125,0.0,0.7118468880653381,0.0,0.0
1677685712.780852,2023-03-01 16:48:32.780852,ackermann_msgs/AckermannDriveStamped,1677685712.7791743,,21.982959747314453,0.0,0.7118468880653381,0.0,0.0
1677685712.7994573,2023-03-01 16:48:32.799457,ackermann_msgs/AckermannDriveStamped,1677685712.7987018,,27.054973602294922,0.0,0.7105091214179993,0.0,0.0
1677685712.8195848,2023-03-01 16:48:32.819585,ackermann_msgs/AckermannDriveStamped,1677685712.8187242,,27.054973602294922,0.0,0.7105091214179993,0.0,0.0
1677685712.8398087,2023-03-01 16:48:32.839809,ackermann_msgs/AckermannDriveStamped,1677685712.8386998,,23.386953353881836,0.0,0.7105091214179993,0.0,0.0
1677685712.859409,2023-03-01 16:48:32.859409,ackermann_msgs/AckermannDriveStamped,1677685712.8587406,,22.649568557739258,0.0,0.7105091214179993,0.0,0.0
1677685712.8802724,2023-03-01 16:48:32.880272,ackermann_msgs/AckermannDriveStamped,1677685712.8787384,,29.427934646606445,0.0,0.7091696262359619,0.0,0.0
1677685712.8994935,2023-03-01 16:48:32.899493,ackermann_msgs/AckermannDriveStamped,1677685712.8986897,,25.092065811157227,0.0,0.7091696262359619,0.0,0.0
1677685712.9194999,2023-03-01 16:48:32.919500,ackermann_msgs/AckermannDriveStamped,1677685712.9186957,,24.286060333251953,0.0,0.7091696262359619,0.0,0.0
1677685712.9402742,2023-03-01 16:48:32.940274,ackermann_msgs/AckermannDriveStamped,1677685712.9387803,,28.25279998779297,0.0,0.7078965902328491,0.0,0.0
1677685712.95959,2023-03-01 16:48:32.959590,ackermann_msgs/AckermannDriveStamped,1677685712.9587274,,28.25279998779297,0.0,0.7078965902328491,0.0,0.0
1677685712.9794102,2023-03-01 16:48:32.979410,ackermann_msgs/AckermannDriveStamped,1677685712.978717,,32.43195343017578,0.0,0.7067428827285767,0.0,0.0
1677685713.0006402,2023-03-01 16:48:33.000640,ackermann_msgs/AckermannDriveStamped,1677685712.9987366,,29.3447265625,0.0,0.7067428827285767,0.0,0.0
1677685713.01983,2023-03-01 16:48:33.019830,ackermann_msgs/AckermannDriveStamped,1677685713.0187166,,34.42462158203125,0.0,0.7057632207870483,0.0,0.0
1677685713.0398028,2023-03-01 16:48:33.039803,ackermann_msgs/AckermannDriveStamped,1677685713.0387092,,33.742977142333984,0.0,0.7057632207870483,0.0,0.0
1677685713.0598834,2023-03-01 16:48:33.059883,ackermann_msgs/AckermannDriveStamped,1677685713.0587404,,31.439146041870117,0.0,0.7057632207870483,0.0,0.0
1677685713.0809,2023-03-01 16:48:33.080900,ackermann_msgs/AckermannDriveStamped,1677685713.0798159,,37.69572067260742,0.0,0.7050418853759766,0.0,0.0
1677685713.0995665,2023-03-01 16:48:33.099566,ackermann_msgs/AckermannDriveStamped,1677685713.0987012,,35.46916961669922,0.0,0.7050418853759766,0.0,0.0
1677685713.1192303,2023-03-01 16:48:33.119230,ackermann_msgs/AckermannDriveStamped,1677685713.1186984,,35.46916961669922,0.0,0.7050418853759766,0.0,0.0
1677685713.1397712,2023-03-01 16:48:33.139771,ackermann_msgs/AckermannDriveStamped,1677685713.139143,,39.182220458984375,0.0,0.7045115232467651,0.0,0.0
1677685713.159334,2023-03-01 16:48:33.159334,ackermann_msgs/AckermannDriveStamped,1677685713.1587224,,37.59378433227539,0.0,0.7045115232467651,0.0,0.0
1677685713.1796143,2023-03-01 16:48:33.179614,ackermann_msgs/AckermannDriveStamped,1677685713.1787164,,36.12862014770508,0.0,0.7045115232467651,0.0,0.0
1677685713.199326,2023-03-01 16:48:33.199326,ackermann_msgs/AckermannDriveStamped,1677685713.1987033,,43.13932418823242,0.0,0.7042081952095032,0.0,0.0
1677685713.2202919,2023-03-01 16:48:33.220292,ackermann_msgs/AckermannDriveStamped,1677685713.2187014,,40.137794494628906,0.0,0.7042081952095032,0.0,0.0
1677685713.2394574,2023-03-01 16:48:33.239457,ackermann_msgs/AckermannDriveStamped,1677685713.238673,,39.35380554199219,0.0,0.7042081952095032,0.0,0.0
1677685713.2597148,2023-03-01 16:48:33.259715,ackermann_msgs/AckermannDriveStamped,1677685713.2587345,,43.461090087890625,0.0,0.7041147947311401,0.0,0.0
1677685713.2818286,2023-03-01 16:48:33.281829,ackermann_msgs/AckermannDriveStamped,1677685713.2787547,,41.791812896728516,0.0,0.7041147947311401,0.0,0.0
1677685713.299463,2023-03-01 16:48:33.299463,ackermann_msgs/AckermannDriveStamped,1677685713.2987084,,40.26875305175781,0.0,0.7041147947311401,0.0,0.0
1677685713.3200314,2023-03-01 16:48:33.320031,ackermann_msgs/AckermannDriveStamped,1677685713.318787,,46.675296783447266,0.0,0.7041147947311401,0.0,0.0
1677685713.3409836,2023-03-01 16:48:33.340984,ackermann_msgs/AckermannDriveStamped,1677685713.339096,,45.24459457397461,0.0,0.7041147947311401,0.0,0.0
1677685713.359689,2023-03-01 16:48:33.359689,ackermann_msgs/AckermannDriveStamped,1677685713.3587544,,42.09459686279297,0.0,0.7041147947311401,0.0,0.0
1677685713.379731,2023-03-01 16:48:33.379731,ackermann_msgs/AckermannDriveStamped,1677685713.3788056,,48.057762145996094,0.0,0.7041147947311401,0.0,0.0
1677685713.3994708,2023-03-01 16:48:33.399471,ackermann_msgs/AckermannDriveStamped,1677685713.3987095,,46.79331970214844,0.0,0.7041147947311401,0.0,0.0
1677685713.4196694,2023-03-01 16:48:33.419669,ackermann_msgs/AckermannDriveStamped,1677685713.418744,,45.367034912109375,0.0,0.7041147947311401,0.0,0.0
1677685713.4399319,2023-03-01 16:48:33.439932,ackermann_msgs/AckermannDriveStamped,1677685713.438729,,47.21845626831055,0.0,0.7054110169410706,0.0,0.0
1677685713.4593892,2023-03-01 16:48:33.459389,ackermann_msgs/AckermannDriveStamped,1677685713.4587154,,45.71315002441406,0.0,0.7054110169410706,0.0,0.0
1677685713.4795473,2023-03-01 16:48:33.479547,ackermann_msgs/AckermannDriveStamped,1677685713.4786909,,43.512332916259766,0.0,0.7054110169410706,0.0,0.0
1677685713.4998019,2023-03-01 16:48:33.499802,ackermann_msgs/AckermannDriveStamped,1677685713.4987073,,45.62287521362305,0.0,0.7154737114906311,0.0,0.0
1677685713.5195334,2023-03-01 16:48:33.519533,ackermann_msgs/AckermannDriveStamped,1677685713.5186958,,43.65744400024414,0.0,0.7154737114906311,0.0,0.0
1677685713.5400047,2023-03-01 16:48:33.540005,ackermann_msgs/AckermannDriveStamped,1677685713.5387058,,42.89838409423828,0.0,0.7154737114906311,0.0,0.0
1677685713.559665,2023-03-01 16:48:33.559665,ackermann_msgs/AckermannDriveStamped,1677685713.5587232,,41.35352325439453,0.0,0.7154737114906311,0.0,0.0
1677685713.5797694,2023-03-01 16:48:33.579769,ackermann_msgs/AckermannDriveStamped,1677685713.5787714,,39.32609176635742,0.0,0.7363801002502441,0.0,0.0
1677685713.5995781,2023-03-01 16:48:33.599578,ackermann_msgs/AckermannDriveStamped,1677685713.5988045,,37.030887603759766,0.0,0.7363801002502441,0.0,0.0
1677685713.619743,2023-03-01 16:48:33.619743,ackermann_msgs/AckermannDriveStamped,1677685713.618717,,35.460140228271484,0.0,0.7363801002502441,0.0,0.0
1677685713.6428895,2023-03-01 16:48:33.642889,ackermann_msgs/AckermannDriveStamped,1677685713.638701,,33.355045318603516,0.0,0.7667669057846069,0.0,0.0
1677685713.6630862,2023-03-01 16:48:33.663086,ackermann_msgs/AckermannDriveStamped,1677685713.6587338,,31.370609283447266,0.0,0.7667669057846069,0.0,0.0
1677685713.6829886,2023-03-01 16:48:33.682989,ackermann_msgs/AckermannDriveStamped,1677685713.6786997,,30.638540267944336,0.0,0.7667669057846069,0.0,0.0
1677685713.7008033,2023-03-01 16:48:33.700803,ackermann_msgs/AckermannDriveStamped,1677685713.698692,,26.206090927124023,0.0,0.8061630725860596,0.0,0.0
1677685713.7192535,2023-03-01 16:48:33.719254,ackermann_msgs/AckermannDriveStamped,1677685713.718688,,26.206090927124023,0.0,0.8061630725860596,0.0,0.0
1677685713.7408829,2023-03-01 16:48:33.740883,ackermann_msgs/AckermannDriveStamped,1677685713.7387931,,22.064403533935547,0.0,0.8061630725860596,0.0,0.0
1677685713.7636023,2023-03-01 16:48:33.763602,ackermann_msgs/AckermannDriveStamped,1677685713.7586985,,17.543048858642578,0.0,0.8310313820838928,0.0,0.0
1677685713.779832,2023-03-01 16:48:33.779832,ackermann_msgs/AckermannDriveStamped,1677685713.778696,,15.342123985290527,0.0,0.8310313820838928,0.0,0.0
1677685713.7996213,2023-03-01 16:48:33.799621,ackermann_msgs/AckermannDriveStamped,1677685713.7987142,,14.691325187683105,0.0,0.8310313820838928,0.0,0.0
1677685713.8193953,2023-03-01 16:48:33.819395,ackermann_msgs/AckermannDriveStamped,1677685713.818717,,13.39916706085205,0.0,0.8310313820838928,0.0,0.0
1677685713.840655,2023-03-01 16:48:33.840655,ackermann_msgs/AckermannDriveStamped,1677685713.8387148,,8.46061897277832,0.0,0.78563392162323,0.0,0.0
1677685713.8610008,2023-03-01 16:48:33.861001,ackermann_msgs/AckermannDriveStamped,1677685713.8586955,,6.756738662719727,0.0,0.78563392162323,0.0,0.0
1677685713.8799875,2023-03-01 16:48:33.879987,ackermann_msgs/AckermannDriveStamped,1677685713.8786821,,4.108914852142334,0.0,0.78563392162323,0.0,0.0
1677685713.8995106,2023-03-01 16:48:33.899511,ackermann_msgs/AckermannDriveStamped,1677685713.898703,,-2.983109951019287,0.0,0.7494090795516968,0.0,0.0
1677685713.9220984,2023-03-01 16:48:33.922098,ackermann_msgs/AckermannDriveStamped,1677685713.9190657,,-3.9553258419036865,0.0,0.7494090795516968,0.0,0.0
1677685713.9404697,2023-03-01 16:48:33.940470,ackermann_msgs/AckermannDriveStamped,1677685713.9392564,,-7.921989917755127,0.0,0.7494090795516968,0.0,0.0
1677685713.9638455,2023-03-01 16:48:33.963845,ackermann_msgs/AckermannDriveStamped,1677685713.958731,,-16.22327423095703,0.0,0.7225614786148071,0.0,0.0
1677685713.9798434,2023-03-01 16:48:33.979843,ackermann_msgs/AckermannDriveStamped,1677685713.978688,,-18.79099464416504,0.0,0.7225614786148071,0.0,0.0
1677685714.0004346,2023-03-01 16:48:34.000435,ackermann_msgs/AckermannDriveStamped,1677685713.998768,,-20.030019760131836,0.0,0.7225614786148071,0.0,0.0
1677685714.0200849,2023-03-01 16:48:34.020085,ackermann_msgs/AckermannDriveStamped,1677685714.0187483,,-20.499666213989258,0.0,0.7225614786148071,0.0,0.0
1677685714.0419972,2023-03-01 16:48:34.041997,ackermann_msgs/AckermannDriveStamped,1677685714.0396435,,-29.293663024902344,0.0,0.7064058780670166,0.0,0.0
1677685714.060742,2023-03-01 16:48:34.060742,ackermann_msgs/AckermannDriveStamped,1677685714.0587943,,-29.87952995300293,0.0,0.7064058780670166,0.0,0.0
1677685714.0804005,2023-03-01 16:48:34.080400,ackermann_msgs/AckermannDriveStamped,1677685714.0790417,,-29.484214782714844,0.0,0.7064058780670166,0.0,0.0
1677685714.0994458,2023-03-01 16:48:34.099446,ackermann_msgs/AckermannDriveStamped,1677685714.098732,,-37.01884078979492,0.0,0.7015205025672913,0.0,0.0
1677685714.1197224,2023-03-01 16:48:34.119722,ackermann_msgs/AckermannDriveStamped,1677685714.1187563,,-35.32367706298828,0.0,0.7015205025672913,0.0,0.0
1677685714.1407259,2023-03-01 16:48:34.140726,ackermann_msgs/AckermannDriveStamped,1677685714.1387513,,-32.67179489135742,0.0,0.7015205025672913,0.0,0.0
1677685714.1591618,2023-03-01 16:48:34.159162,ackermann_msgs/AckermannDriveStamped,1677685714.1586974,,-39.478660583496094,0.0,0.7006943225860596,0.0,0.0
1677685714.179326,2023-03-01 16:48:34.179326,ackermann_msgs/AckermannDriveStamped,1677685714.178728,,-37.95619583129883,0.0,0.7006943225860596,0.0,0.0
1677685714.1993673,2023-03-01 16:48:34.199367,ackermann_msgs/AckermannDriveStamped,1677685714.1987753,,-35.646461486816406,0.0,0.7006943225860596,0.0,0.0
1677685714.2199326,2023-03-01 16:48:34.219933,ackermann_msgs/AckermannDriveStamped,1677685714.2188213,,-33.9613151550293,0.0,0.7006943225860596,0.0,0.0
1677685714.2397811,2023-03-01 16:48:34.239781,ackermann_msgs/AckermannDriveStamped,1677685714.2387311,,-39.36928176879883,0.0,0.7001386880874634,0.0,0.0
1677685714.2595456,2023-03-01 16:48:34.259546,ackermann_msgs/AckermannDriveStamped,1677685714.258743,,-39.36928176879883,0.0,0.7001386880874634,0.0,0.0
1677685714.279749,2023-03-01 16:48:34.279749,ackermann_msgs/AckermannDriveStamped,1677685714.2788477,,-37.0107307434082,0.0,0.7001386880874634,0.0,0.0
1677685714.300273,2023-03-01 16:48:34.300273,ackermann_msgs/AckermannDriveStamped,1677685714.2987878,,-41.559234619140625,0.0,0.6998022794723511,0.0,0.0
1677685714.3192258,2023-03-01 16:48:34.319226,ackermann_msgs/AckermannDriveStamped,1677685714.3187065,,-40.86113357543945,0.0,0.6998022794723511,0.0,0.0
1677685714.3399684,2023-03-01 16:48:34.339968,ackermann_msgs/AckermannDriveStamped,1677685714.33871,,-38.56825637817383,0.0,0.6998022794723511,0.0,0.0
1677685714.3592944,2023-03-01 16:48:34.359294,ackermann_msgs/AckermannDriveStamped,1677685714.3587224,,-35.81832504272461,0.0,0.6998022794723511,0.0,0.0
1677685714.3794339,2023-03-01 16:48:34.379434,ackermann_msgs/AckermannDriveStamped,1677685714.378712,,-42.2025032043457,0.0,0.6998022794723511,0.0,0.0
1677685714.400631,2023-03-01 16:48:34.400631,ackermann_msgs/AckermannDriveStamped,1677685714.3994658,,-40.63973617553711,0.0,0.6998022794723511,0.0,0.0
1677685714.4197161,2023-03-01 16:48:34.419716,ackermann_msgs/AckermannDriveStamped,1677685714.418713,,-38.17690658569336,0.0,0.6998022794723511,0.0,0.0
1677685714.4396083,2023-03-01 16:48:34.439608,ackermann_msgs/AckermannDriveStamped,1677685714.4387128,,-43.7021598815918,0.0,0.6998022794723511,0.0,0.0
1677685714.4591954,2023-03-01 16:48:34.459195,ackermann_msgs/AckermannDriveStamped,1677685714.4587123,,-41.49765396118164,0.0,0.6998022794723511,0.0,0.0
1677685714.4795136,2023-03-01 16:48:34.479514,ackermann_msgs/AckermannDriveStamped,1677685714.478771,,-39.11116409301758,0.0,0.6998022794723511,0.0,0.0
1677685714.499628,2023-03-01 16:48:34.499628,ackermann_msgs/AckermannDriveStamped,1677685714.4987645,,-38.359004974365234,0.0,0.6998022794723511,0.0,0.0
1677685714.5201762,2023-03-01 16:48:34.520176,ackermann_msgs/AckermannDriveStamped,1677685714.5187178,,-41.363555908203125,0.0,0.7031329870223999,0.0,0.0
1677685714.5406404,2023-03-01 16:48:34.540640,ackermann_msgs/AckermannDriveStamped,1677685714.538979,,-40.65468978881836,0.0,0.7031329870223999,0.0,0.0
1677685714.5602455,2023-03-01 16:48:34.560246,ackermann_msgs/AckermannDriveStamped,1677685714.5591276,,-37.113525390625,0.0,0.7031329870223999,0.0,0.0
1677685714.5796096,2023-03-01 16:48:34.579610,ackermann_msgs/AckermannDriveStamped,1677685714.578707,,-37.729042053222656,0.0,0.7168288826942444,0.0,0.0
1677685714.6002014,2023-03-01 16:48:34.600201,ackermann_msgs/AckermannDriveStamped,1677685714.5989468,,-36.22821044921875,0.0,0.7168288826942444,0.0,0.0
1677685714.6201646,2023-03-01 16:48:34.620165,ackermann_msgs/AckermannDriveStamped,1677685714.6187575,,-34.62260437011719,0.0,0.7168288826942444,0.0,0.0
1677685714.639666,2023-03-01 16:48:34.639666,ackermann_msgs/AckermannDriveStamped,1677685714.6386964,,-32.17401123046875,0.0,0.7168288826942444,0.0,0.0
1677685714.6592915,2023-03-01 16:48:34.659292,ackermann_msgs/AckermannDriveStamped,1677685714.6587124,,-32.559329986572266,0.0,0.7390279769897461,0.0,0.0
1677685714.6797101,2023-03-01 16:48:34.679710,ackermann_msgs/AckermannDriveStamped,1677685714.6787448,,-30.578271865844727,0.0,0.7390279769897461,0.0,0.0
1677685714.699925,2023-03-01 16:48:34.699925,ackermann_msgs/AckermannDriveStamped,1677685714.698869,,-29.004913330078125,0.0,0.7390279769897461,0.0,0.0
1677685714.7193816,2023-03-01 16:48:34.719382,ackermann_msgs/AckermannDriveStamped,1677685714.7187443,,-28.026927947998047,0.0,0.7390279769897461,0.0,0.0
1677685714.739318,2023-03-01 16:48:34.739318,ackermann_msgs/AckermannDriveStamped,1677685714.7387419,,-25.323938369750977,0.0,0.7672631740570068,0.0,0.0
1677685714.7597332,2023-03-01 16:48:34.759733,ackermann_msgs/AckermannDriveStamped,1677685714.7586865,,-24.676013946533203,0.0,0.7672631740570068,0.0,0.0
1677685714.7793705,2023-03-01 16:48:34.779371,ackermann_msgs/AckermannDriveStamped,1677685714.7787132,,-22.40410614013672,0.0,0.7672631740570068,0.0,0.0
1677685714.7999473,2023-03-01 16:48:34.799947,ackermann_msgs/AckermannDriveStamped,1677685714.798707,,-22.40410614013672,0.0,0.7672631740570068,0.0,0.0
1677685714.819596,2023-03-01 16:48:34.819596,ackermann_msgs/AckermannDriveStamped,1677685714.8187869,,-17.58556365966797,0.0,0.8009579181671143,0.0,0.0
1677685714.8396862,2023-03-01 16:48:34.839686,ackermann_msgs/AckermannDriveStamped,1677685714.8387017,,-17.58556365966797,0.0,0.8009579181671143,0.0,0.0
1677685714.8598874,2023-03-01 16:48:34.859887,ackermann_msgs/AckermannDriveStamped,1677685714.8587222,,-15.2808256149292,0.0,0.8009579181671143,0.0,0.0
1677685714.8793752,2023-03-01 16:48:34.879375,ackermann_msgs/AckermannDriveStamped,1677685714.878696,,-11.847075462341309,0.0,0.8400657773017883,0.0,0.0
1677685714.8996217,2023-03-01 16:48:34.899622,ackermann_msgs/AckermannDriveStamped,1677685714.8987162,,-9.472394943237305,0.0,0.8400657773017883,0.0,0.0
1677685714.9199913,2023-03-01 16:48:34.919991,ackermann_msgs/AckermannDriveStamped,1677685714.9187686,,-7.942366123199463,0.0,0.8400657773017883,0.0,0.0
1677685714.9418433,2023-03-01 16:48:34.941843,ackermann_msgs/AckermannDriveStamped,1677685714.9390638,,-4.315316200256348,0.0,0.8849411010742188,0.0,0.0
1677685714.9615786,2023-03-01 16:48:34.961579,ackermann_msgs/AckermannDriveStamped,1677685714.958855,,-4.315316200256348,0.0,0.8849411010742188,0.0,0.0
1677685714.9802003,2023-03-01 16:48:34.980200,ackermann_msgs/AckermannDriveStamped,1677685714.9787414,,-0.4306213855743408,0.0,0.8849411010742188,0.0,0.0
1677685714.9993138,2023-03-01 16:48:34.999314,ackermann_msgs/AckermannDriveStamped,1677685714.998675,,0.2634456157684326,0.0,0.8849411010742188,0.0,0.0
1677685715.0194252,2023-03-01 16:48:35.019425,ackermann_msgs/AckermannDriveStamped,1677685715.0187354,,3.763530969619751,0.0,0.8809006214141846,0.0,0.0
1677685715.0394244,2023-03-01 16:48:35.039424,ackermann_msgs/AckermannDriveStamped,1677685715.0387642,,4.951023578643799,0.0,0.8809006214141846,0.0,0.0
1677685715.0652494,2023-03-01 16:48:35.065249,ackermann_msgs/AckermannDriveStamped,1677685715.0587103,,5.771426200866699,0.0,0.8809006214141846,0.0,0.0
1677685715.0799308,2023-03-01 16:48:35.079931,ackermann_msgs/AckermannDriveStamped,1677685715.0787086,,5.771426200866699,0.0,0.8809006214141846,0.0,0.0
1677685715.100204,2023-03-01 16:48:35.100204,ackermann_msgs/AckermannDriveStamped,1677685715.0987234,,10.218981742858887,0.0,0.83871990442276,0.0,0.0
1677685715.119695,2023-03-01 16:48:35.119695,ackermann_msgs/AckermannDriveStamped,1677685715.11873,,10.412827491760254,0.0,0.83871990442276,0.0,0.0
1677685715.1400714,2023-03-01 16:48:35.140071,ackermann_msgs/AckermannDriveStamped,1677685715.1387107,,10.749951362609863,0.0,0.83871990442276,0.0,0.0
1677685715.159349,2023-03-01 16:48:35.159349,ackermann_msgs/AckermannDriveStamped,1677685715.1587,,14.837244987487793,0.0,0.8024023771286011,0.0,0.0
1677685715.1799655,2023-03-01 16:48:35.179965,ackermann_msgs/AckermannDriveStamped,1677685715.1787498,,14.834736824035645,0.0,0.8024023771286011,0.0,0.0
1677685715.2015638,2023-03-01 16:48:35.201564,ackermann_msgs/AckermannDriveStamped,1677685715.1987092,,14.033525466918945,0.0,0.8024023771286011,0.0,0.0
1677685715.219531,2023-03-01 16:48:35.219531,ackermann_msgs/AckermannDriveStamped,1677685715.2186935,,17.985994338989258,0.0,0.7716879844665527,0.0,0.0
1677685715.239906,2023-03-01 16:48:35.239906,ackermann_msgs/AckermannDriveStamped,1677685715.2387018,,17.596416473388672,0.0,0.7716879844665527,0.0,0.0
1677685715.260265,2023-03-01 16:48:35.260265,ackermann_msgs/AckermannDriveStamped,1677685715.2588027,,15.49760913848877,0.0,0.7716879844665527,0.0,0.0
1677685715.2800486,2023-03-01 16:48:35.280049,ackermann_msgs/AckermannDriveStamped,1677685715.2789414,,15.49760913848877,0.0,0.7716879844665527,0.0,0.0
1677685715.2997952,2023-03-01 16:48:35.299795,ackermann_msgs/AckermannDriveStamped,1677685715.298764,,17.11796760559082,0.0,0.7470018863677979,0.0,0.0
1677685715.3225458,2023-03-01 16:48:35.322546,ackermann_msgs/AckermannDriveStamped,1677685715.3186996,,16.3840389251709,0.0,0.7470018863677979,0.0,0.0
1677685715.339749,2023-03-01 16:48:35.339749,ackermann_msgs/AckermannDriveStamped,1677685715.3386998,,15.646312713623047,0.0,0.7470018863677979,0.0,0.0
1677685715.3593585,2023-03-01 16:48:35.359359,ackermann_msgs/AckermannDriveStamped,1677685715.3587012,,17.511505126953125,0.0,0.728117823600769,0.0,0.0
1677685715.379793,2023-03-01 16:48:35.379793,ackermann_msgs/AckermannDriveStamped,1677685715.378728,,16.599584579467773,0.0,0.728117823600769,0.0,0.0
1677685715.3995402,2023-03-01 16:48:35.399540,ackermann_msgs/AckermannDriveStamped,1677685715.398724,,13.368812561035156,0.0,0.728117823600769,0.0,0.0
1677685715.419668,2023-03-01 16:48:35.419668,ackermann_msgs/AckermannDriveStamped,1677685715.418685,,12.479024887084961,0.0,0.728117823600769,0.0,0.0
1677685715.4396582,2023-03-01 16:48:35.439658,ackermann_msgs/AckermannDriveStamped,1677685715.4387212,,18.24871063232422,0.0,0.7197226285934448,0.0,0.0
1677685715.4598863,2023-03-01 16:48:35.459886,ackermann_msgs/AckermannDriveStamped,1677685715.4586873,,15.39898681640625,0.0,0.7197226285934448,0.0,0.0
1677685715.4797893,2023-03-01 16:48:35.479789,ackermann_msgs/AckermannDriveStamped,1677685715.4787273,,21.548912048339844,0.0,0.7183603048324585,0.0,0.0
1677685715.4994042,2023-03-01 16:48:35.499404,ackermann_msgs/AckermannDriveStamped,1677685715.4986947,,21.548912048339844,0.0,0.7183603048324585,0.0,0.0
1677685715.5196502,2023-03-01 16:48:35.519650,ackermann_msgs/AckermannDriveStamped,1677685715.518714,,16.588069915771484,0.0,0.7183603048324585,0.0,0.0
1677685715.5400758,2023-03-01 16:48:35.540076,ackermann_msgs/AckermannDriveStamped,1677685715.5387337,,14.6517333984375,0.0,0.7183603048324585,0.0,0.0
1677685715.5597067,2023-03-01 16:48:35.559707,ackermann_msgs/AckermannDriveStamped,1677685715.558737,,19.46976661682129,0.0,0.7183603048324585,0.0,0.0
1677685715.5798683,2023-03-01 16:48:35.579868,ackermann_msgs/AckermannDriveStamped,1677685715.5787232,,18.617666244506836,0.0,0.7183603048324585,0.0,0.0
1677685715.5994449,2023-03-01 16:48:35.599445,ackermann_msgs/AckermannDriveStamped,1677685715.5987005,,15.802803039550781,0.0,0.7183603048324585,0.0,0.0
1677685715.6197243,2023-03-01 16:48:35.619724,ackermann_msgs/AckermannDriveStamped,1677685715.6187031,,21.370689392089844,0.0,0.7183603048324585,0.0,0.0
1677685715.639484,2023-03-01 16:48:35.639484,ackermann_msgs/AckermannDriveStamped,1677685715.6387088,,20.48712158203125,0.0,0.7183603048324585,0.0,0.0
1677685715.6592176,2023-03-01 16:48:35.659218,ackermann_msgs/AckermannDriveStamped,1677685715.6586916,,22.249094009399414,0.0,0.7183731198310852,0.0,0.0
1677685715.679443,2023-03-01 16:48:35.679443,ackermann_msgs/AckermannDriveStamped,1677685715.6787512,,21.318071365356445,0.0,0.7183731198310852,0.0,0.0
1677685715.7000637,2023-03-01 16:48:35.700064,ackermann_msgs/AckermannDriveStamped,1677685715.6987557,,18.55418586730957,0.0,0.7183731198310852,0.0,0.0
1677685715.7194715,2023-03-01 16:48:35.719471,ackermann_msgs/AckermannDriveStamped,1677685715.718689,,17.591896057128906,0.0,0.7183731198310852,0.0,0.0
1677685715.7407815,2023-03-01 16:48:35.740782,ackermann_msgs/AckermannDriveStamped,1677685715.7388175,,17.591896057128906,0.0,0.7183731198310852,0.0,0.0
1677685715.7594476,2023-03-01 16:48:35.759448,ackermann_msgs/AckermannDriveStamped,1677685715.7586935,,17.37401580810547,0.0,0.7218018174171448,0.0,0.0
1677685715.7800353,2023-03-01 16:48:35.780035,ackermann_msgs/AckermannDriveStamped,1677685715.7786982,,15.548523902893066,0.0,0.7218018174171448,0.0,0.0
1677685715.799578,2023-03-01 16:48:35.799578,ackermann_msgs/AckermannDriveStamped,1677685715.7986858,,19.59493064880371,0.0,0.7281922101974487,0.0,0.0
1677685715.8197315,2023-03-01 16:48:35.819731,ackermann_msgs/AckermannDriveStamped,1677685715.818744,,17.774396896362305,0.0,0.7281922101974487,0.0,0.0
1677685715.8398302,2023-03-01 16:48:35.839830,ackermann_msgs/AckermannDriveStamped,1677685715.8387072,,14.778526306152344,0.0,0.7281922101974487,0.0,0.0
1677685715.8594444,2023-03-01 16:48:35.859444,ackermann_msgs/AckermannDriveStamped,1677685715.8587127,,18.315994262695312,0.0,0.7366104125976562,0.0,0.0
1677685715.8801053,2023-03-01 16:48:35.880105,ackermann_msgs/AckermannDriveStamped,1677685715.87874,,15.87247085571289,0.0,0.7366104125976562,0.0,0.0
1677685715.8992991,2023-03-01 16:48:35.899299,ackermann_msgs/AckermannDriveStamped,1677685715.8986974,,15.87247085571289,0.0,0.7366104125976562,0.0,0.0
1677685715.9199252,2023-03-01 16:48:35.919925,ackermann_msgs/AckermannDriveStamped,1677685715.9187303,,16.759185791015625,0.0,0.7467492818832397,0.0,0.0
1677685715.93997,2023-03-01 16:48:35.939970,ackermann_msgs/AckermannDriveStamped,1677685715.9387019,,14.155828475952148,0.0,0.7467492818832397,0.0,0.0
1677685715.9595582,2023-03-01 16:48:35.959558,ackermann_msgs/AckermannDriveStamped,1677685715.9587102,,12.417265892028809,0.0,0.7467492818832397,0.0,0.0
1677685715.9796433,2023-03-01 16:48:35.979643,ackermann_msgs/AckermannDriveStamped,1677685715.978755,,15.738767623901367,0.0,0.7579262256622314,0.0,0.0
1677685715.99938,2023-03-01 16:48:35.999380,ackermann_msgs/AckermannDriveStamped,1677685715.9986854,,14.109126091003418,0.0,0.7579262256622314,0.0,0.0
1677685716.0198061,2023-03-01 16:48:36.019806,ackermann_msgs/AckermannDriveStamped,1677685716.018701,,11.491666793823242,0.0,0.7579262256622314,0.0,0.0
1677685716.0398273,2023-03-01 16:48:36.039827,ackermann_msgs/AckermannDriveStamped,1677685716.0389898,,13.94677734375,0.0,0.7696712017059326,0.0,0.0
1677685716.0592759,2023-03-01 16:48:36.059276,ackermann_msgs/AckermannDriveStamped,1677685716.0586853,,12.733901977539062,0.0,0.7696712017059326,0.0,0.0
1677685716.079472,2023-03-01 16:48:36.079472,ackermann_msgs/AckermannDriveStamped,1677685716.0787354,,12.037690162658691,0.0,0.7696712017059326,0.0,0.0
1677685716.1000903,2023-03-01 16:48:36.100090,ackermann_msgs/AckermannDriveStamped,1677685716.0987318,,13.433732032775879,0.0,0.7815970182418823,0.0,0.0
1677685716.1197717,2023-03-01 16:48:36.119772,ackermann_msgs/AckermannDriveStamped,1677685716.1187057,,12.677318572998047,0.0,0.7815970182418823,0.0,0.0
1677685716.1399434,2023-03-01 16:48:36.139943,ackermann_msgs/AckermannDriveStamped,1677685716.1387374,,13.696895599365234,0.0,0.7934107780456543,0.0,0.0
1677685716.1591985,2023-03-01 16:48:36.159199,ackermann_msgs/AckermannDriveStamped,1677685716.1586838,,12.039884567260742,0.0,0.7934107780456543,0.0,0.0
1677685716.1791062,2023-03-01 16:48:36.179106,ackermann_msgs/AckermannDriveStamped,1677685716.1786973,,11.29979133605957,0.0,0.7934107780456543,0.0,0.0
1677685716.1995654,2023-03-01 16:48:36.199565,ackermann_msgs/AckermannDriveStamped,1677685716.1987867,,9.09190845489502,0.0,0.7934107780456543,0.0,0.0
1677685716.2192814,2023-03-01 16:48:36.219281,ackermann_msgs/AckermannDriveStamped,1677685716.2187104,,10.90610408782959,0.0,0.8050544857978821,0.0,0.0
1677685716.2425363,2023-03-01 16:48:36.242536,ackermann_msgs/AckermannDriveStamped,1677685716.2386925,,10.90610408782959,0.0,0.8050544857978821,0.0,0.0
1677685716.26169,2023-03-01 16:48:36.261690,ackermann_msgs/AckermannDriveStamped,1677685716.2586975,,7.70155143737793,0.0,0.8050544857978821,0.0,0.0
1677685716.2794318,2023-03-01 16:48:36.279432,ackermann_msgs/AckermannDriveStamped,1677685716.2786922,,8.930259704589844,0.0,0.8163771033287048,0.0,0.0
1677685716.2993827,2023-03-01 16:48:36.299383,ackermann_msgs/AckermannDriveStamped,1677685716.2986858,,7.4125590324401855,0.0,0.8163771033287048,0.0,0.0
1677685716.3195293,2023-03-01 16:48:36.319529,ackermann_msgs/AckermannDriveStamped,1677685716.3186858,,6.6930084228515625,0.0,0.8163771033287048,0.0,0.0
1677685716.3399303,2023-03-01 16:48:36.339930,ackermann_msgs/AckermannDriveStamped,1677685716.338696,,7.741522312164307,0.0,0.8273109197616577,0.0,0.0
1677685716.3597333,2023-03-01 16:48:36.359733,ackermann_msgs/AckermannDriveStamped,1677685716.3587012,,7.158507347106934,0.0,0.8273109197616577,0.0,0.0
1677685716.3795574,2023-03-01 16:48:36.379557,ackermann_msgs/AckermannDriveStamped,1677685716.3786998,,5.690942764282227,0.0,0.8273109197616577,0.0,0.0
1677685716.402747,2023-03-01 16:48:36.402747,ackermann_msgs/AckermannDriveStamped,1677685716.3991022,,8.734931945800781,0.0,0.8376703262329102,0.0,0.0
1677685716.419454,2023-03-01 16:48:36.419454,ackermann_msgs/AckermannDriveStamped,1677685716.4186978,,6.879901885986328,0.0,0.8376703262329102,0.0,0.0
1677685716.4402063,2023-03-01 16:48:36.440206,ackermann_msgs/AckermannDriveStamped,1677685716.4387803,,6.348698139190674,0.0,0.8376703262329102,0.0,0.0
1677685716.4593356,2023-03-01 16:48:36.459336,ackermann_msgs/AckermannDriveStamped,1677685716.4587011,,8.50645637512207,0.0,0.8473231196403503,0.0,0.0
1677685716.4822648,2023-03-01 16:48:36.482265,ackermann_msgs/AckermannDriveStamped,1677685716.4786956,,7.923691749572754,0.0,0.8473231196403503,0.0,0.0
1677685716.4998274,2023-03-01 16:48:36.499827,ackermann_msgs/AckermannDriveStamped,1677685716.4987087,,6.4093546867370605,0.0,0.8473231196403503,0.0,0.0
1677685716.5196044,2023-03-01 16:48:36.519604,ackermann_msgs/AckermannDriveStamped,1677685716.5187492,,9.144404411315918,0.0,0.8561215996742249,0.0,0.0
1677685716.5399745,2023-03-01 16:48:36.539974,ackermann_msgs/AckermannDriveStamped,1677685716.5388274,,8.269187927246094,0.0,0.8561215996742249,0.0,0.0
1677685716.560711,2023-03-01 16:48:36.560711,ackermann_msgs/AckermannDriveStamped,1677685716.5589654,,7.306229114532471,0.0,0.8561215996742249,0.0,0.0
1677685716.580143,2023-03-01 16:48:36.580143,ackermann_msgs/AckermannDriveStamped,1677685716.5789464,,9.832456588745117,0.0,0.8639299869537354,0.0,0.0
1677685716.6042008,2023-03-01 16:48:36.604201,ackermann_msgs/AckermannDriveStamped,1677685716.5991511,,8.473053932189941,0.0,0.8639299869537354,0.0,0.0
1677685716.6236768,2023-03-01 16:48:36.623677,ackermann_msgs/AckermannDriveStamped,1677685716.6188586,,11.75312328338623,0.0,0.8707062005996704,0.0,0.0
1677685716.6392083,2023-03-01 16:48:36.639208,ackermann_msgs/AckermannDriveStamped,1677685716.6386867,,10.208744049072266,0.0,0.8707062005996704,0.0,0.0
1677685716.6597056,2023-03-01 16:48:36.659706,ackermann_msgs/AckermannDriveStamped,1677685716.658706,,9.416685104370117,0.0,0.8707062005996704,0.0,0.0
1677685716.6801405,2023-03-01 16:48:36.680140,ackermann_msgs/AckermannDriveStamped,1677685716.6792495,,9.020672798156738,0.0,0.8707062005996704,0.0,0.0
1677685716.6996198,2023-03-01 16:48:36.699620,ackermann_msgs/AckermannDriveStamped,1677685716.6987183,,11.682212829589844,0.0,0.8765004873275757,0.0,0.0
1677685716.7198665,2023-03-01 16:48:36.719867,ackermann_msgs/AckermannDriveStamped,1677685716.718767,,11.682212829589844,0.0,0.8765004873275757,0.0,0.0
1677685716.7409458,2023-03-01 16:48:36.740946,ackermann_msgs/AckermannDriveStamped,1677685716.7386966,,12.655303955078125,0.0,0.8814061880111694,0.0,0.0
1677685716.7640429,2023-03-01 16:48:36.764043,ackermann_msgs/AckermannDriveStamped,1677685716.7595873,,12.145127296447754,0.0,0.8814061880111694,0.0,0.0
1677685716.780209,2023-03-01 16:48:36.780209,ackermann_msgs/AckermannDriveStamped,1677685716.7787154,,11.669533729553223,0.0,0.8814061880111694,0.0,0.0
1677685716.799875,2023-03-01 16:48:36.799875,ackermann_msgs/AckermannDriveStamped,1677685716.798737,,13.14184856414795,0.0,0.8795164227485657,0.0,0.0
1677685716.820125,2023-03-01 16:48:36.820125,ackermann_msgs/AckermannDriveStamped,1677685716.8187215,,12.309205055236816,0.0,0.8795164227485657,0.0,0.0
1677685716.8410192,2023-03-01 16:48:36.841019,ackermann_msgs/AckermannDriveStamped,1677685716.8387015,,14.692203521728516,0.0,0.8764271140098572,0.0,0.0
1677685716.8597395,2023-03-01 16:48:36.859740,ackermann_msgs/AckermannDriveStamped,1677685716.8588357,,13.539471626281738,0.0,0.8764271140098572,0.0,0.0
1677685716.8797631,2023-03-01 16:48:36.879763,ackermann_msgs/AckermannDriveStamped,1677685716.878751,,13.009603500366211,0.0,0.8764271140098572,0.0,0.0
1677685716.9003932,2023-03-01 16:48:36.900393,ackermann_msgs/AckermannDriveStamped,1677685716.8988898,,11.349427223205566,0.0,0.8764271140098572,0.0,0.0
1677685716.919962,2023-03-01 16:48:36.919962,ackermann_msgs/AckermannDriveStamped,1677685716.9187338,,13.95175552368164,0.0,0.8741840720176697,0.0,0.0
1677685716.9394104,2023-03-01 16:48:36.939410,ackermann_msgs/AckermannDriveStamped,1677685716.938713,,11.251319885253906,0.0,0.8741840720176697,0.0,0.0
1677685716.9596725,2023-03-01 16:48:36.959672,ackermann_msgs/AckermannDriveStamped,1677685716.9587228,,10.01041316986084,0.0,0.8741840720176697,0.0,0.0
1677685716.9801373,2023-03-01 16:48:36.980137,ackermann_msgs/AckermannDriveStamped,1677685716.9786837,,12.848029136657715,0.0,0.8732625842094421,0.0,0.0
1677685717.0023098,2023-03-01 16:48:37.002310,ackermann_msgs/AckermannDriveStamped,1677685716.9991329,,11.500513076782227,0.0,0.8732625842094421,0.0,0.0
1677685717.02078,2023-03-01 16:48:37.020780,ackermann_msgs/AckermannDriveStamped,1677685717.0186968,,9.543228149414062,0.0,0.8732625842094421,0.0,0.0
1677685717.04058,2023-03-01 16:48:37.040580,ackermann_msgs/AckermannDriveStamped,1677685717.0387855,,12.450222969055176,0.0,0.8732625842094421,0.0,0.0
1677685717.0597646,2023-03-01 16:48:37.059765,ackermann_msgs/AckermannDriveStamped,1677685717.0587015,,11.116783142089844,0.0,0.8732625842094421,0.0,0.0
1677685717.0828345,2023-03-01 16:48:37.082834,ackermann_msgs/AckermannDriveStamped,1677685717.0786877,,12.440361022949219,0.0,0.8732625842094421,0.0,0.0
1677685717.0995398,2023-03-01 16:48:37.099540,ackermann_msgs/AckermannDriveStamped,1677685717.0986905,,12.440361022949219,0.0,0.8732625842094421,0.0,0.0
1677685717.1208954,2023-03-01 16:48:37.120895,ackermann_msgs/AckermannDriveStamped,1677685717.1192558,,11.071815490722656,0.0,0.8732625842094421,0.0,0.0
1677685717.140664,2023-03-01 16:48:37.140664,ackermann_msgs/AckermannDriveStamped,1677685717.1387572,,11.940582275390625,0.0,0.8752362132072449,0.0,0.0
1677685717.159835,2023-03-01 16:48:37.159835,ackermann_msgs/AckermannDriveStamped,1677685717.1586943,,11.158069610595703,0.0,0.8752362132072449,0.0,0.0
1677685717.1796782,2023-03-01 16:48:37.179678,ackermann_msgs/AckermannDriveStamped,1677685717.1787422,,8.57892894744873,0.0,0.8752362132072449,0.0,0.0
1677685717.2001667,2023-03-01 16:48:37.200167,ackermann_msgs/AckermannDriveStamped,1677685717.1987267,,10.633376121520996,0.0,0.8798910975456238,0.0,0.0
