__time,/hamster2/imu/angular_velocity/x,/hamster2/imu/angular_velocity/y,/hamster2/imu/angular_velocity/z,/hamster2/imu/angular_velocity_covariance[0;0],/hamster2/imu/angular_velocity_covariance[0;1],/hamster2/imu/angular_velocity_covariance[0;2],/hamster2/imu/angular_velocity_covariance[1;1],/hamster2/imu/angular_velocity_covariance[1;2],/hamster2/imu/angular_velocity_covariance[2;2],/hamster2/imu/header/stamp,/hamster2/imu/linear_acceleration/x,/hamster2/imu/linear_acceleration/y,/hamster2/imu/linear_acceleration/z,/hamster2/imu/linear_acceleration_covariance[0;0],/hamster2/imu/linear_acceleration_covariance[0;1],/hamster2/imu/linear_acceleration_covariance[0;2],/hamster2/imu/linear_acceleration_covariance[1;1],/hamster2/imu/linear_acceleration_covariance[1;2],/hamster2/imu/linear_acceleration_covariance[2;2],/hamster2/imu/orientation/w,/hamster2/imu/orientation/x,/hamster2/imu/orientation/y,/hamster2/imu/orientation/z,/hamster2/imu/orientation_covariance[0;0],/hamster2/imu/orientation_covariance[0;1],/hamster2/imu/orientation_covariance[0;2],/hamster2/imu/orientation_covariance[1;1],/hamster2/imu/orientation_covariance[1;2],/hamster2/imu/orientation_covariance[2;2],/hamster2/velocity/data,/hamster2/voltage/data,/tf/world/hamster2/base_link/header/stamp,/tf/world/hamster2/base_link/rotation/w,/tf/world/hamster2/base_link/rotation/x,/tf/world/hamster2/base_link/rotation/y,/tf/world/hamster2/base_link/rotation/z,/tf/world/hamster2/base_link/translation/x,/tf/world/hamster2/base_link/translation/y,/tf/world/hamster2/base_link/translation/z,/tf_static/hamster2/base_link/hamster2/camera_link/header/stamp,/tf_static/hamster2/base_link/hamster2/camera_link/rotation/w,/tf_static/hamster2/base_link/hamster2/camera_link/rotation/x,/tf_static/hamster2/base_link/hamster2/camera_link/rotation/y,/tf_static/hamster2/base_link/hamster2/camera_link/rotation/z,/tf_static/hamster2/base_link/hamster2/camera_link/translation/x,/tf_static/hamster2/base_link/hamster2/camera_link/translation/y,/tf_static/hamster2/base_link/hamster2/camera_link/translation/z,/tf_static/hamster2/camera_accel_frame/hamster2/camera_accel_optical_frame/header/stamp,/tf_static/hamster2/camera_accel_frame/hamster2/camera_accel_optical_frame/rotation/w,/tf_static/hamster2/camera_accel_frame/hamster2/camera_accel_optical_frame/rotation/x,/tf_static/hamster2/camera_accel_frame/hamster2/camera_accel_optical_frame/rotation/y,/tf_static/hamster2/camera_accel_frame/hamster2/camera_accel_optical_frame/rotation/z,/tf_static/hamster2/camera_accel_frame/hamster2/camera_accel_optical_frame/translation/x,/tf_static/hamster2/camera_accel_frame/hamster2/camera_accel_optical_frame/translation/y,/tf_static/hamster2/camera_accel_frame/hamster2/camera_accel_optical_frame/translation/z,/tf_static/hamster2/camera_gyro_frame/hamster2/camera_gyro_optical_frame/header/stamp,/tf_static/hamster2/camera_gyro_frame/hamster2/camera_gyro_optical_frame/rotation/w,/tf_static/hamster2/camera_gyro_frame/hamster2/camera_gyro_optical_frame/rotation/x,/tf_static/hamster2/camera_gyro_frame/hamster2/camera_gyro_optical_frame/rotation/y,/tf_static/hamster2/camera_gyro_frame/hamster2/camera_gyro_optical_frame/rotation/z,/tf_static/hamster2/camera_gyro_frame/hamster2/camera_gyro_optical_frame/translation/x,/tf_static/hamster2/camera_gyro_frame/hamster2/camera_gyro_optical_frame/translation/y,/tf_static/hamster2/camera_gyro_frame/hamster2/camera_gyro_optical_frame/translation/z,/tf_static/hamster2/camera_link/hamster2/camera_accel_frame/header/stamp,/tf_static/hamster2/camera_link/hamster2/camera_accel_frame/rotation/w,/tf_static/hamster2/camera_link/hamster2/camera_accel_frame/rotation/x,/tf_static/hamster2/camera_link/hamster2/camera_accel_frame/rotation/y,/tf_static/hamster2/camera_link/hamster2/camera_accel_frame/rotation/z,/tf_static/hamster2/camera_link/hamster2/camera_accel_frame/translation/x,/tf_static/hamster2/camera_link/hamster2/camera_accel_frame/translation/y,/tf_static/hamster2/camera_link/hamster2/camera_accel_frame/translation/z,/tf_static/hamster2/camera_link/hamster2/camera_gyro_frame/header/stamp,/tf_static/hamster2/camera_link/hamster2/camera_gyro_frame/rotation/w,/tf_static/hamster2/camera_link/hamster2/camera_gyro_frame/rotation/x,/tf_static/hamster2/camera_link/hamster2/camera_gyro_frame/rotation/y,/tf_static/hamster2/camera_link/hamster2/camera_gyro_frame/rotation/z,/tf_static/hamster2/camera_link/hamster2/camera_gyro_frame/translation/x,/tf_static/hamster2/camera_link/hamster2/camera_gyro_frame/translation/y,/tf_static/hamster2/camera_link/hamster2/camera_gyro_frame/translation/z,/tf_static/hamster2/map/hamster2/odom/header/stamp,/tf_static/hamster2/map/hamster2/odom/rotation/w,/tf_static/hamster2/map/hamster2/odom/rotation/x,/tf_static/hamster2/map/hamster2/odom/rotation/y,/tf_static/hamster2/map/hamster2/odom/rotation/z,/tf_static/hamster2/map/hamster2/odom/translation/x,/tf_static/hamster2/map/hamster2/odom/translation/y,/tf_static/hamster2/map/hamster2/odom/translation/z,/tf_static/world/hamster2/map/header/stamp,/tf_static/world/hamster2/map/rotation/w,/tf_static/world/hamster2/map/rotation/x,/tf_static/world/hamster2/map/rotation/y,/tf_static/world/hamster2/map/rotation/z,/tf_static/world/hamster2/map/translation/x,/tf_static/world/hamster2/map/translation/y,/tf_static/world/hamster2/map/translation/z
1682357881.715509,,,,,,,,,,,,,,,,,,,,,,,,,,,,,,,,1682356749.584424,-0.999256,0.005043,0.000976,0.038217,2.668912,-3.346767,0.137522,,,,,,,,,,,,,,,,,,,,,,,,,,,,,,,,,,,,,,,,,,,,,,,,,,,,,,,,
1682357881.715906,0.000000,0.000000,0.001745,0.010000,0.000000,0.000000,0.010000,0.000000,0.010000,1677685709.437541,0.058840,-9.698776,0.519752,0.010000,0.000000,0.000000,0.010000,0.000000,0.010000,0.000000,0.000000,0.000000,0.000000,-1.000000,0.000000,0.000000,0.000000,0.000000,0.000000,,,,,,,,,,,,,,,,,,,,,,,,,,,,,,,,,,,,,,,,,,,,,,,,,,,,,,,,,,,,,,,,,,
1682357881.716655,,,,,,,,,,,,,,,,,,,,,,,,,,,,,,,,1682356749.597524,-0.999256,0.005023,0.000957,0.038228,2.668927,-3.346781,0.137543,,,,,,,,,,,,,,,,,,,,,,,,,,,,,,,,,,,,,,,,,,,,,,,,,,,,,,,,
1682357881.717034,-0.001745,0.000000,0.000000,0.010000,0.000000,0.000000,0.010000,0.000000,0.010000,1677685709.442539,0.058840,-9.698776,0.519752,0.010000,0.000000,0.000000,0.010000,0.000000,0.010000,0.000000,0.000000,0.000000,0.000000,-1.000000,0.000000,0.000000,0.000000,0.000000,0.000000,,,,,,,,,,,,,,,,,,,,,,,,,,,,,,,,,,,,,,,,,,,,,,,,,,,,,,,,,,,,,,,,,,
1682357881.717737,,,,,,,,,,,,,,,,,,,,,,,,,,,,,,,,1682356749.599398,-0.999257,0.004925,0.000978,0.038208,2.668931,-3.346791,0.137557,,,,,,,,,,,,,,,,,,,,,,,,,,,,,,,,,,,,,,,,,,,,,,,,,,,,,,,,
1682357881.717941,-0.003491,0.001745,0.000000,0.010000,0.000000,0.000000,0.010000,0.000000,0.010000,1677685709.447536,0.058840,-9.708583,0.519752,0.010000,0.000000,0.000000,0.010000,0.000000,0.010000,0.000000,0.000000,0.000000,0.000000,-1.000000,0.000000,0.000000,0.000000,0.000000,0.000000,,,,,,,,,,,,,,,,,,,,,,,,,,,,,,,,,,,,,,,,,,,,,,,,,,,,,,,,,,,,,,,,,,
1682357881.718358,,,,,,,,,,,,,,,,,,,,,,,,,,,,,,,,1682356749.604315,-0.999255,0.005029,0.000927,0.038248,2.668944,-3.346789,0.137548,,,,,,,,,,,,,,,,,,,,,,,,,,,,,,,,,,,,,,,,,,,,,,,,,,,,,,,,
1682357881.718857,-0.003491,0.003491,-0.001745,0.010000,0.000000,0.000000,0.010000,0.000000,0.010000,1677685709.452535,0.058840,-9.708583,0.519752,0.010000,0.000000,0.000000,0.010000,0.000000,0.010000,0.000000,0.000000,0.000000,0.000000,-1.000000,0.000000,0.000000,0.000000,0.000000,0.000000,,,,,,,,,,,,,,,,,,,,,,,,,,,,,,,,,,,,,,,,,,,,,,,,,,,,,,,,,,,,,,,,,,
1682357881.720606,,,,,,,,,,,,,,,,,,,,,,,,,,,,,,0.000000,,,,,,,,,,,,,,,,,,,,,,,,,,,,,,,,,,,,,,,,,,,,,,,,,,,,,,,,,,,,,,,,,
1682357881.720809,-0.001745,0.001745,0.000000,0.010000,0.000000,0.000000,0.010000,0.000000,0.010000,1677685709.457532,0.068647,-9.718390,0.519752,0.010000,0.000000,0.000000,0.010000,0.000000,0.010000,0.000000,0.000000,0.000000,0.000000,-1.000000,0.000000,0.000000,0.000000,0.000000,0.000000,,,,,,,,,,,,,,,,,,,,,,,,,,,,,,,,,,,,,,,,,,,,,,,,,,,,,,,,,,,,,,,,,,
1682357881.721007,,,,,,,,,,,,,,,,,,,,,,,,,,,,,,,,1682356749.612233,-0.999257,0.004983,0.000956,0.038214,2.668938,-3.346780,0.137527,,,,,,,,,,,,,,,,,,,,,,,,,,,,,,,,,,,,,,,,,,,,,,,,,,,,,,,,
1682357881.721209,-0.001745,0.000000,0.000000,0.010000,0.000000,0.000000,0.010000,0.000000,0.010000,1677685709.462530,0.068647,-9.718390,0.519752,0.010000,0.000000,0.000000,0.010000,0.000000,0.010000,0.000000,0.000000,0.000000,0.000000,-1.000000,0.000000,0.000000,0.000000,0.000000,0.000000,,,,,,,,,,,,,,,,,,,,,,,,,,,,,,,,,,,,,,,,,,,,,,,,,,,,,,,,,,,,,,,,,,
1682357881.721443,0.000000,0.000000,0.000000,0.010000,0.000000,0.000000,0.010000,0.000000,0.010000,1677685709.467528,0.068647,-9.718390,0.519752,0.010000,0.000000,0.000000,0.010000,0.000000,0.010000,0.000000,0.000000,0.000000,0.000000,-1.000000,0.000000,0.000000,0.000000,0.000000,0.000000,,,,,,,,,,,,,,,,,,,,,,,,,,,,,,,,,,,,,,,,,,,,,,,,,,,,,,,,,,,,,,,,,,
1682357881.721702,0.000000,0.003491,0.000000,0.010000,0.000000,0.000000,0.010000,0.000000,0.010000,1677685709.472526,0.068647,-9.718390,0.519752,0.010000,0.000000,0.000000,0.010000,0.000000,0.010000,0.000000,0.000000,0.000000,0.000000,-1.000000,0.000000,0.000000,0.000000,0.000000,0.000000,,,,,,,,,,,,,,,,,,,,,,,,,,,,,,,,,,,,,,,,,,,,,,,,,,,,,,,,,,,,,,,,,,
1682357881.722013,,,,,,,,,,,,,,,,,,,,,,,,,,,,,,,,1682356749.620625,-0.999256,0.005080,0.000979,0.038216,2.668934,-3.346768,0.137497,,,,,,,,,,,,,,,,,,,,,,,,,,,,,,,,,,,,,,,,,,,,,,,,,,,,,,,,
1682357881.722571,-0.003491,0.005236,-0.001745,0.010000,0.000000,0.000000,0.010000,0.000000,0.010000,1677685709.477523,0.068647,-9.708583,0.529559,0.010000,0.000000,0.000000,0.010000,0.000000,0.010000,0.000000,0.000000,0.000000,0.000000,-1.000000,0.000000,0.000000,0.000000,0.000000,0.000000,,,,,,,,,,,,,,,,,,,,,,,,,,,,,,,,,,,,,,,,,,,,,,,,,,,,,,,,,,,,,,,,,,
1682357881.722783,,,,,,,,,,,,,,,,,,,,,,,,,,,,,,0.000000,,,,,,,,,,,,,,,,,,,,,,,,,,,,,,,,,,,,,,,,,,,,,,,,,,,,,,,,,,,,,,,,,
1682357881.723099,0.000000,0.003491,0.000000,0.010000,0.000000,0.000000,0.010000,0.000000,0.010000,1677685709.482522,0.068647,-9.708583,0.529559,0.010000,0.000000,0.000000,0.010000,0.000000,0.010000,0.000000,0.000000,0.000000,0.000000,-1.000000,0.000000,0.000000,0.000000,0.000000,0.000000,,,,,,,,,,,,,,,,,,,,,,,,,,,,,,,,,,,,,,,,,,,,,,,,,,,,,,,,,,,,,,,,,,
1682357881.723512,,,,,,,,,,,,,,,,,,,,,,,,,,,,,,,,1682356749.629309,-0.999254,0.005045,0.000953,0.038268,2.668925,-3.346757,0.137475,,,,,,,,,,,,,,,,,,,,,,,,,,,,,,,,,,,,,,,,,,,,,,,,,,,,,,,,
1682357881.723917,0.000000,0.000000,0.000000,0.010000,0.000000,0.000000,0.010000,0.000000,0.010000,1677685709.487520,0.068647,-9.698776,0.519752,0.010000,0.000000,0.000000,0.010000,0.000000,0.010000,0.000000,0.000000,0.000000,0.000000,-1.000000,0.000000,0.000000,0.000000,0.000000,0.000000,,,,,,,,,,,,,,,,,,,,,,,,,,,,,,,,,,,,,,,,,,,,,,,,,,,,,,,,,,,,,,,,,,
1682357881.724111,-0.001745,0.001745,0.000000,0.010000,0.000000,0.000000,0.010000,0.000000,0.010000,1677685709.492517,0.068647,-9.698776,0.519752,0.010000,0.000000,0.000000,0.010000,0.000000,0.010000,0.000000,0.000000,0.000000,0.000000,-1.000000,0.000000,0.000000,0.000000,0.000000,0.000000,,,,,,,,,,,,,,,,,,,,,,,,,,,,,,,,,,,,,,,,,,,,,,,,,,,,,,,,,,,,,,,,,,
1682357881.724680,,,,,,,,,,,,,,,,,,,,,,,,,,,,,,,,1682356749.639771,-0.999255,0.005124,0.000999,0.038237,2.668913,-3.346751,0.137460,,,,,,,,,,,,,,,,,,,,,,,,,,,,,,,,,,,,,,,,,,,,,,,,,,,,,,,,
1682357881.725039,-0.003491,0.000000,0.000000,0.010000,0.000000,0.000000,0.010000,0.000000,0.010000,1677685709.497515,0.078453,-9.698776,0.519752,0.010000,0.000000,0.000000,0.010000,0.000000,0.010000,0.000000,0.000000,0.000000,0.000000,-1.000000,0.000000,0.000000,0.000000,0.000000,0.000000,,,,,,,,,,,,,,,,,,,,,,,,,,,,,,,,,,,,,,,,,,,,,,,,,,,,,,,,,,,,,,,,,,
1682357881.725339,,,,,,,,,,,,,,,,,,,,,,,,,,,,,,0.000000,,,,,,,,,,,,,,,,,,,,,,,,,,,,,,,,,,,,,,,,,,,,,,,,,,,,,,,,,,,,,,,,,
1682357881.725530,-0.001745,0.000000,0.000000,0.010000,0.000000,0.000000,0.010000,0.000000,0.010000,1677685709.502513,0.078453,-9.698776,0.519752,0.010000,0.000000,0.000000,0.010000,0.000000,0.010000,0.000000,0.000000,0.000000,0.000000,-1.000000,0.000000,0.000000,0.000000,0.000000,0.000000,,,,,,,,,,,,,,,,,,,,,,,,,,,,,,,,,,,,,,,,,,,,,,,,,,,,,,,,,,,,,,,,,,
1682357881.731303,-0.001745,0.001745,0.000000,0.010000,0.000000,0.000000,0.010000,0.000000,0.010000,1677685709.507511,0.078453,-9.718390,0.509946,0.010000,0.000000,0.000000,0.010000,0.000000,0.010000,0.000000,0.000000,0.000000,0.000000,-1.000000,0.000000,0.000000,0.000000,0.000000,0.000000,,,,,,,,,,,,,,,,,,,,,,,,,,,,,,,,,,,,,,,,,,,,,,,,,,,,,,,,,,,,,,,,,,
1682357881.731346,-0.005236,0.001745,0.000000,0.010000,0.000000,0.000000,0.010000,0.000000,0.010000,1677685709.512509,0.078453,-9.718390,0.509946,0.010000,0.000000,0.000000,0.010000,0.000000,0.010000,0.000000,0.000000,0.000000,0.000000,-1.000000,0.000000,0.000000,0.000000,0.000000,0.000000,,,,,,,,,,,,,,,,,,,,,,,,,,,,,,,,,,,,,,,,,,,,,,,,,,,,,,,,,,,,,,,,,,
1682357881.731361,,,,,,,,,,,,,,,,,,,,,,,,,,,,,,0.000000,,,,,,,,,,,,,,,,,,,,,,,,,,,,,,,,,,,,,,,,,,,,,,,,,,,,,,,,,,,,,,,,,
1682357881.731370,,,,,,,,,,,,,,,,,,,,,,,,,,,,,,0.000000,,,,,,,,,,,,,,,,,,,,,,,,,,,,,,,,,,,,,,,,,,,,,,,,,,,,,,,,,,,,,,,,,
1682357881.731377,,,,,,,,,,,,,,,,,,,,,,,,,,,,,,,,1682356749.648097,-0.999255,0.005100,0.001029,0.038231,2.668907,-3.346747,0.137465,,,,,,,,,,,,,,,,,,,,,,,,,,,,,,,,,,,,,,,,,,,,,,,,,,,,,,,,
1682357881.731396,,,,,,,,,,,,,,,,,,,,,,,,,,,,,,,,1682356749.654932,-0.999256,0.005099,0.000980,0.038222,2.668902,-3.346746,0.137480,,,,,,,,,,,,,,,,,,,,,,,,,,,,,,,,,,,,,,,,,,,,,,,,,,,,,,,,
1682357881.731436,0.000000,0.003491,-0.001745,0.010000,0.000000,0.000000,0.010000,0.000000,0.010000,1677685709.517507,0.058840,-9.718390,0.519752,0.010000,0.000000,0.000000,0.010000,0.000000,0.010000,0.000000,0.000000,0.000000,0.000000,-1.000000,0.000000,0.000000,0.000000,0.000000,0.000000,,,,,,,,,,,,,,,,,,,,,,,,,,,,,,,,,,,,,,,,,,,,,,,,,,,,,,,,,,,,,,,,,,
1682357881.731454,-0.001745,0.005236,0.000000,0.010000,0.000000,0.000000,0.010000,0.000000,0.010000,1677685709.522504,0.058840,-9.718390,0.519752,0.010000,0.000000,0.000000,0.010000,0.000000,0.010000,0.000000,0.000000,0.000000,0.000000,-1.000000,0.000000,0.000000,0.000000,0.000000,0.000000,,,,,,,,,,,,,,,,,,,,,,,,,,,,,,,,,,,,,,,,,,,,,,,,,,,,,,,,,,,,,,,,,,
1682357881.731467,,,,,,,,,,,,,,,,,,,,,,,,,,,,,,,,1682356749.662903,-0.999256,0.005077,0.000951,0.038231,2.668914,-3.346764,0.137501,,,,,,,,,,,,,,,,,,,,,,,,,,,,,,,,,,,,,,,,,,,,,,,,,,,,,,,,
1682357881.731481,,,,,,,,,,,,,,,,,,,,,,,,,,,,,,,,1682356749.671745,-0.999257,0.005004,0.001006,0.038209,2.668924,-3.346769,0.137533,,,,,,,,,,,,,,,,,,,,,,,,,,,,,,,,,,,,,,,,,,,,,,,,,,,,,,,,
1682357881.731513,0.000000,0.000000,-0.001745,0.010000,0.000000,0.000000,0.010000,0.000000,0.010000,1677685709.527502,0.068647,-9.718390,0.519752,0.010000,0.000000,0.000000,0.010000,0.000000,0.010000,0.000000,0.000000,0.000000,0.000000,-1.000000,0.000000,0.000000,0.000000,0.000000,0.000000,,,,,,,,,,,,,,,,,,,,,,,,,,,,,,,,,,,,,,,,,,,,,,,,,,,,,,,,,,,,,,,,,,
1682357881.731530,-0.001745,-0.001745,0.001745,0.010000,0.000000,0.000000,0.010000,0.000000,0.010000,1677685709.532501,0.068647,-9.718390,0.519752,0.010000,0.000000,0.000000,0.010000,0.000000,0.010000,0.000000,0.000000,0.000000,0.000000,-1.000000,0.000000,0.000000,0.000000,0.000000,0.000000,,,,,,,,,,,,,,,,,,,,,,,,,,,,,,,,,,,,,,,,,,,,,,,,,,,,,,,,,,,,,,,,,,
1682357881.731543,,,,,,,,,,,,,,,,,,,,,,,,,,,,,,,,1682356749.678925,-0.999255,0.004983,0.000972,0.038259,2.668932,-3.346782,0.137547,,,,,,,,,,,,,,,,,,,,,,,,,,,,,,,,,,,,,,,,,,,,,,,,,,,,,,,,
1682357881.731577,-0.006981,-0.005236,0.000000,0.010000,0.000000,0.000000,0.010000,0.000000,0.010000,1677685709.537498,0.078453,-9.708583,0.529559,0.010000,0.000000,0.000000,0.010000,0.000000,0.010000,0.000000,0.000000,0.000000,0.000000,-1.000000,0.000000,0.000000,0.000000,0.000000,0.000000,,,,,,,,,,,,,,,,,,,,,,,,,,,,,,,,,,,,,,,,,,,,,,,,,,,,,,,,,,,,,,,,,,
1682357881.731594,-0.003491,0.000000,-0.001745,0.010000,0.000000,0.000000,0.010000,0.000000,0.010000,1677685709.542496,0.078453,-9.708583,0.529559,0.010000,0.000000,0.000000,0.010000,0.000000,0.010000,0.000000,0.000000,0.000000,0.000000,-1.000000,0.000000,0.000000,0.000000,0.000000,0.000000,,,,,,,,,,,,,,,,,,,,,,,,,,,,,,,,,,,,,,,,,,,,,,,,,,,,,,,,,,,,,,,,,,
1682357881.731625,,,,,,,,,,,,,,,,,,,,,,,,,,,,,,,,1682356749.688203,-0.999256,0.004974,0.000958,0.038227,2.668932,-3.346795,0.137554,,,,,,,,,,,,,,,,,,,,,,,,,,,,,,,,,,,,,,,,,,,,,,,,,,,,,,,,
1682357881.732092,-0.001745,0.000000,0.001745,0.010000,0.000000,0.000000,0.010000,0.000000,0.010000,1677685709.547494,0.078453,-9.698776,0.519752,0.010000,0.000000,0.000000,0.010000,0.000000,0.010000,0.000000,0.000000,0.000000,0.000000,-1.000000,0.000000,0.000000,0.000000,0.000000,0.000000,,,,,,,,,,,,,,,,,,,,,,,,,,,,,,,,,,,,,,,,,,,,,,,,,,,,,,,,,,,,,,,,,,
1682357881.732116,0.000000,0.000000,0.000000,0.010000,0.000000,0.000000,0.010000,0.000000,0.010000,1677685709.552492,0.078453,-9.698776,0.519752,0.010000,0.000000,0.000000,0.010000,0.000000,0.010000,0.000000,0.000000,0.000000,0.000000,-1.000000,0.000000,0.000000,0.000000,0.000000,0.000000,,,,,,,,,,,,,,,,,,,,,,,,,,,,,,,,,,,,,,,,,,,,,,,,,,,,,,,,,,,,,,,,,,
1682357881.732130,,,,,,,,,,,,,,,,,,,,,,,,,,,,,,,,1682356749.699100,-0.999257,0.004965,0.000945,0.038203,2.668937,-3.346782,0.137558,,,,,,,,,,,,,,,,,,,,,,,,,,,,,,,,,,,,,,,,,,,,,,,,,,,,,,,,
1682357881.732201,0.000000,0.000000,0.000000,0.010000,0.000000,0.000000,0.010000,0.000000,0.010000,1677685709.557489,0.058840,-9.708583,0.529559,0.010000,0.000000,0.000000,0.010000,0.000000,0.010000,0.000000,0.000000,0.000000,0.000000,-1.000000,0.000000,0.000000,0.000000,0.000000,0.000000,,,,,,,,,,,,,,,,,,,,,,,,,,,,,,,,,,,,,,,,,,,,,,,,,,,,,,,,,,,,,,,,,,
1682357881.732221,0.000000,-0.001745,0.000000,0.010000,0.000000,0.000000,0.010000,0.000000,0.010000,1677685709.562487,0.058840,-9.708583,0.529559,0.010000,0.000000,0.000000,0.010000,0.000000,0.010000,0.000000,0.000000,0.000000,0.000000,-1.000000,0.000000,0.000000,0.000000,0.000000,0.000000,,,,,,,,,,,,,,,,,,,,,,,,,,,,,,,,,,,,,,,,,,,,,,,,,,,,,,,,,,,,,,,,,,
1682357881.732491,,,,,,,,,,,,,,,,,,,,,,,,,,,,,,,,1682356749.706615,-0.999257,0.005003,0.000967,0.038207,2.668929,-3.346782,0.137526,,,,,,,,,,,,,,,,,,,,,,,,,,,,,,,,,,,,,,,,,,,,,,,,,,,,,,,,
1682357881.732647,,,,,,,,,,,,,,,,,,,,,,,,,,,,,,0.000000,,,,,,,,,,,,,,,,,,,,,,,,,,,,,,,,,,,,,,,,,,,,,,,,,,,,,,,,,,,,,,,,,
1682357881.732829,-0.003491,-0.001745,-0.001745,0.010000,0.000000,0.000000,0.010000,0.000000,0.010000,1677685709.567485,0.068647,-9.708583,0.519752,0.010000,0.000000,0.000000,0.010000,0.000000,0.010000,0.000000,0.000000,0.000000,0.000000,-1.000000,0.000000,0.000000,0.000000,0.000000,0.000000,,,,,,,,,,,,,,,,,,,,,,,,,,,,,,,,,,,,,,,,,,,,,,,,,,,,,,,,,,,,,,,,,,
1682357881.732849,,,,,,,,,,,,,,,,,,,,,,,,,,,,,,,,1682356749.712675,-0.999256,0.005026,0.000956,0.038223,2.668927,-3.346764,0.137501,,,,,,,,,,,,,,,,,,,,,,,,,,,,,,,,,,,,,,,,,,,,,,,,,,,,,,,,
1682357881.733075,0.000000,0.000000,0.001745,0.010000,0.000000,0.000000,0.010000,0.000000,0.010000,1677685709.572483,0.068647,-9.708583,0.519752,0.010000,0.000000,0.000000,0.010000,0.000000,0.010000,0.000000,0.000000,0.000000,0.000000,-1.000000,0.000000,0.000000,0.000000,0.000000,0.000000,,,,,,,,,,,,,,,,,,,,,,,,,,,,,,,,,,,,,,,,,,,,,,,,,,,,,,,,,,,,,,,,,,
1682357881.733278,-0.001745,0.001745,0.000000,0.010000,0.000000,0.000000,0.010000,0.000000,0.010000,1677685709.577481,0.058840,-9.708583,0.509946,0.010000,0.000000,0.000000,0.010000,0.000000,0.010000,0.000000,0.000000,0.000000,0.000000,-1.000000,0.000000,0.000000,0.000000,0.000000,0.000000,,,,,,,,,,,,,,,,,,,,,,,,,,,,,,,,,,,,,,,,,,,,,,,,,,,,,,,,,,,,,,,,,,
1682357881.736609,0.000000,0.001745,0.000000,0.010000,0.000000,0.000000,0.010000,0.000000,0.010000,1677685709.582479,0.058840,-9.708583,0.509946,0.010000,0.000000,0.000000,0.010000,0.000000,0.010000,0.000000,0.000000,0.000000,0.000000,-1.000000,0.000000,0.000000,0.000000,0.000000,0.000000,,,,,,,,,,,,,,,,,,,,,,,,,,,,,,,,,,,,,,,,,,,,,,,,,,,,,,,,,,,,,,,,,,
1682357881.742440,-0.003491,0.000000,0.000000,0.010000,0.000000,0.000000,0.010000,0.000000,0.010000,1677685709.587477,0.068647,-9.718390,0.509946,0.010000,0.000000,0.000000,0.010000,0.000000,0.010000,0.000000,0.000000,0.000000,0.000000,-1.000000,0.000000,0.000000,0.000000,0.000000,0.000000,,,,,,,,,,,,,,,,,,,,,,,,,,,,,,,,,,,,,,,,,,,,,,,,,,,,,,,,,,,,,,,,,,
1682357881.742700,,,,,,,,,,,,,,,,,,,,,,,,,,,,,,0.000000,,,,,,,,,,,,,,,,,,,,,,,,,,,,,,,,,,,,,,,,,,,,,,,,,,,,,,,,,,,,,,,,,
1682357881.742716,,,,,,,,,,,,,,,,,,,,,,,,,,,,,,,,1682356749.723406,-0.999255,0.005084,0.000999,0.038243,2.668920,-3.346752,0.137474,,,,,,,,,,,,,,,,,,,,,,,,,,,,,,,,,,,,,,,,,,,,,,,,,,,,,,,,
1682357881.745188,,,,,,,,,,,,,,,,,,,,,,,,,,,,,,,,1682356749.729770,-0.999255,0.005154,0.001046,0.038241,2.668906,-3.346745,0.137453,,,,,,,,,,,,,,,,,,,,,,,,,,,,,,,,,,,,,,,,,,,,,,,,,,,,,,,,
1682357881.751071,-0.001745,0.000000,0.000000,0.010000,0.000000,0.000000,0.010000,0.000000,0.010000,1677685709.592474,0.068647,-9.718390,0.509946,0.010000,0.000000,0.000000,0.010000,0.000000,0.010000,0.000000,0.000000,0.000000,0.000000,-1.000000,0.000000,0.000000,0.000000,0.000000,0.000000,,,,,,,,,,,,,,,,,,,,,,,,,,,,,,,,,,,,,,,,,,,,,,,,,,,,,,,,,,,,,,,,,,
1682357881.751122,,,,,,,,,,,,,,,,,,,,,,,,,,,,,,,,1682356749.737101,-0.999256,0.005041,0.000989,0.038223,2.668905,-3.346748,0.137461,,,,,,,,,,,,,,,,,,,,,,,,,,,,,,,,,,,,,,,,,,,,,,,,,,,,,,,,
1682357881.754282,-0.003491,0.000000,0.000000,0.010000,0.000000,0.000000,0.010000,0.000000,0.010000,1677685709.597472,0.068647,-9.708583,0.529559,0.010000,0.000000,0.000000,0.010000,0.000000,0.010000,0.000000,0.000000,0.000000,0.000000,-1.000000,0.000000,0.000000,0.000000,0.000000,0.000000,,,,,,,,,,,,,,,,,,,,,,,,,,,,,,,,,,,,,,,,,,,,,,,,,,,,,,,,,,,,,,,,,,
1682357881.756955,0.000000,0.001745,0.000000,0.010000,0.000000,0.000000,0.010000,0.000000,0.010000,1677685709.602471,0.068647,-9.708583,0.529559,0.010000,0.000000,0.000000,0.010000,0.000000,0.010000,0.000000,0.000000,0.000000,0.000000,-1.000000,0.000000,0.000000,0.000000,0.000000,0.000000,,,,,,,,,,,,,,,,,,,,,,,,,,,,,,,,,,,,,,,,,,,,,,,,,,,,,,,,,,,,,,,,,,
1682357881.758106,,,,,,,,,,,,,,,,,,,,,,,,,,,,,,,,1682356749.745855,-0.999256,0.005085,0.000999,0.038224,2.668910,-3.346754,0.137477,,,,,,,,,,,,,,,,,,,,,,,,,,,,,,,,,,,,,,,,,,,,,,,,,,,,,,,,
1682357881.763593,-0.003491,0.001745,0.000000,0.010000,0.000000,0.000000,0.010000,0.000000,0.010000,1677685709.607468,0.049033,-9.708583,0.519752,0.010000,0.000000,0.000000,0.010000,0.000000,0.010000,0.000000,0.000000,0.000000,0.000000,-1.000000,0.000000,0.000000,0.000000,0.000000,0.000000,,,,,,,,,,,,,,,,,,,,,,,,,,,,,,,,,,,,,,,,,,,,,,,,,,,,,,,,,,,,,,,,,,
1682357881.763767,,,,,,,,,,,,,,,,,,,,,,,,,,,,,,0.000000,,,,,,,,,,,,,,,,,,,,,,,,,,,,,,,,,,,,,,,,,,,,,,,,,,,,,,,,,,,,,,,,,
1682357881.764892,,,,,,,,,,,,,,,,,,,,,,,,,,,,,,,,1682356749.753958,-0.999257,0.005049,0.000974,0.038205,2.668918,-3.346767,0.137504,,,,,,,,,,,,,,,,,,,,,,,,,,,,,,,,,,,,,,,,,,,,,,,,,,,,,,,,
1682357881.766549,0.000000,0.001745,0.000000,0.010000,0.000000,0.000000,0.010000,0.000000,0.010000,1677685709.612466,0.049033,-9.708583,0.519752,0.010000,0.000000,0.000000,0.010000,0.000000,0.010000,0.000000,0.000000,0.000000,0.000000,-1.000000,0.000000,0.000000,0.000000,0.000000,0.000000,,,,,,,,,,,,,,,,,,,,,,,,,,,,,,,,,,,,,,,,,,,,,,,,,,,,,,,,,,,,,,,,,,
1682357881.772133,-0.003491,0.000000,0.000000,0.010000,0.000000,0.000000,0.010000,0.000000,0.010000,1677685709.617464,0.068647,-9.728196,0.509946,0.010000,0.000000,0.000000,0.010000,0.000000,0.010000,0.000000,0.000000,0.000000,0.000000,-1.000000,0.000000,0.000000,0.000000,0.000000,0.000000,,,,,,,,,,,,,,,,,,,,,,,,,,,,,,,,,,,,,,,,,,,,,,,,,,,,,,,,,,,,,,,,,,
1682357881.774736,,,,,,,,,,,,,,,,,,,,,,,,,,,,,,,,1682356749.762688,-0.999256,0.004984,0.000933,0.038222,2.668926,-3.346784,0.137533,,,,,,,,,,,,,,,,,,,,,,,,,,,,,,,,,,,,,,,,,,,,,,,,,,,,,,,,
1682357881.776118,-0.001745,0.003491,0.000000,0.010000,0.000000,0.000000,0.010000,0.000000,0.010000,1677685709.622462,0.068647,-9.728196,0.509946,0.010000,0.000000,0.000000,0.010000,0.000000,0.010000,0.000000,0.000000,0.000000,0.000000,-1.000000,0.000000,0.000000,0.000000,0.000000,0.000000,,,,,,,,,,,,,,,,,,,,,,,,,,,,,,,,,,,,,,,,,,,,,,,,,,,,,,,,,,,,,,,,,,
1682357881.781235,0.000000,0.000000,0.000000,0.010000,0.000000,0.000000,0.010000,0.000000,0.010000,1677685709.627459,0.068647,-9.708583,0.509946,0.010000,0.000000,0.000000,0.010000,0.000000,0.010000,0.000000,0.000000,0.000000,0.000000,-1.000000,0.000000,0.000000,0.000000,0.000000,0.000000,,,,,,,,,,,,,,,,,,,,,,,,,,,,,,,,,,,,,,,,,,,,,,,,,,,,,,,,,,,,,,,,,,
1682357881.783328,,,,,,,,,,,,,,,,,,,,,,,,,,,,,,,,1682356749.770793,-0.999256,0.005018,0.000932,0.038233,2.668933,-3.346792,0.137547,,,,,,,,,,,,,,,,,,,,,,,,,,,,,,,,,,,,,,,,,,,,,,,,,,,,,,,,
1682357881.784464,,,,,,,,,,,,,,,,,,,,,,,,,,,,,,0.000000,,,,,,,,,,,,,,,,,,,,,,,,,,,,,,,,,,,,,,,,,,,,,,,,,,,,,,,,,,,,,,,,,
1682357881.786476,0.000000,0.001745,0.001745,0.010000,0.000000,0.000000,0.010000,0.000000,0.010000,1677685709.632457,0.068647,-9.708583,0.509946,0.010000,0.000000,0.000000,0.010000,0.000000,0.010000,0.000000,0.000000,0.000000,0.000000,-1.000000,0.000000,0.000000,0.000000,0.000000,0.000000,,,,,,,,,,,,,,,,,,,,,,,,,,,,,,,,,,,,,,,,,,,,,,,,,,,,,,,,,,,,,,,,,,
1682357881.791478,,,,,,,,,,,,,,,,,,,,,,,,,,,,,,,,1682356749.779330,-0.999255,0.004988,0.000938,0.038255,2.668937,-3.346790,0.137550,,,,,,,,,,,,,,,,,,,,,,,,,,,,,,,,,,,,,,,,,,,,,,,,,,,,,,,,
1682357881.791770,0.000000,0.000000,0.000000,0.010000,0.000000,0.000000,0.010000,0.000000,0.010000,1677685709.637455,0.078453,-9.718390,0.529559,0.010000,0.000000,0.000000,0.010000,0.000000,0.010000,0.000000,0.000000,0.000000,0.000000,-1.000000,0.000000,0.000000,0.000000,0.000000,0.000000,,,,,,,,,,,,,,,,,,,,,,,,,,,,,,,,,,,,,,,,,,,,,,,,,,,,,,,,,,,,,,,,,,
1682357881.797020,0.000000,0.000000,0.000000,0.010000,0.000000,0.000000,0.010000,0.000000,0.010000,1677685709.642453,0.078453,-9.718390,0.529559,0.010000,0.000000,0.000000,0.010000,0.000000,0.010000,0.000000,0.000000,0.000000,0.000000,-1.000000,0.000000,0.000000,0.000000,0.000000,0.000000,,,,,,,,,,,,,,,,,,,,,,,,,,,,,,,,,,,,,,,,,,,,,,,,,,,,,,,,,,,,,,,,,,
1682357881.800471,,,,,,,,,,,,,,,,,,,,,,,,,,,,,,,,1682356749.789897,-0.999256,0.005023,0.000922,0.038221,2.668944,-3.346786,0.137540,,,,,,,,,,,,,,,,,,,,,,,,,,,,,,,,,,,,,,,,,,,,,,,,,,,,,,,,
1682357881.801511,0.001745,0.000000,0.000000,0.010000,0.000000,0.000000,0.010000,0.000000,0.010000,1677685709.647451,0.078453,-9.708583,0.529559,0.010000,0.000000,0.000000,0.010000,0.000000,0.010000,0.000000,0.000000,0.000000,0.000000,-1.000000,0.000000,0.000000,0.000000,0.000000,0.000000,,,,,,,,,,,,,,,,,,,,,,,,,,,,,,,,,,,,,,,,,,,,,,,,,,,,,,,,,,,,,,,,,,
1682357881.813143,0.000000,0.001745,0.000000,0.010000,0.000000,0.000000,0.010000,0.000000,0.010000,1677685709.652449,0.078453,-9.708583,0.529559,0.010000,0.000000,0.000000,0.010000,0.000000,0.010000,0.000000,0.000000,0.000000,0.000000,-1.000000,0.000000,0.000000,0.000000,0.000000,0.000000,,,,,,,,,,,,,,,,,,,,,,,,,,,,,,,,,,,,,,,,,,,,,,,,,,,,,,,,,,,,,,,,,,
1682357881.813180,-0.001745,0.008727,0.000000,0.010000,0.000000,0.000000,0.010000,0.000000,0.010000,1677685709.657447,0.058840,-9.698776,0.519752,0.010000,0.000000,0.000000,0.010000,0.000000,0.010000,0.000000,0.000000,0.000000,0.000000,-1.000000,0.000000,0.000000,0.000000,0.000000,0.000000,,,,,,,,,,,,,,,,,,,,,,,,,,,,,,,,,,,,,,,,,,,,,,,,,,,,,,,,,,,,,,,,,,
1682357881.813195,,,,,,,,,,,,,,,,,,,,,,,,,,,,,,0.000000,,,,,,,,,,,,,,,,,,,,,,,,,,,,,,,,,,,,,,,,,,,,,,,,,,,,,,,,,,,,,,,,,
1682357881.813207,,,,,,,,,,,,,,,,,,,,,,,,,,,,,,,,1682356749.796038,-0.999255,0.005062,0.000978,0.038240,2.668930,-3.346778,0.137509,,,,,,,,,,,,,,,,,,,,,,,,,,,,,,,,,,,,,,,,,,,,,,,,,,,,,,,,
1682357881.817097,0.000000,0.003491,0.000000,0.010000,0.000000,0.000000,0.010000,0.000000,0.010000,1677685709.662444,0.058840,-9.698776,0.519752,0.010000,0.000000,0.000000,0.010000,0.000000,0.010000,0.000000,0.000000,0.000000,0.000000,-1.000000,0.000000,0.000000,0.000000,0.000000,0.000000,,,,,,,,,,,,,,,,,,,,,,,,,,,,,,,,,,,,,,,,,,,,,,,,,,,,,,,,,,,,,,,,,,
1682357881.817144,,,,,,,,,,,,,,,,,,,,,,,,,,,,,,,,1682356749.805228,-0.999256,0.005041,0.000945,0.038239,2.668923,-3.346761,0.137481,,,,,,,,,,,,,,,,,,,,,,,,,,,,,,,,,,,,,,,,,,,,,,,,,,,,,,,,
1682357881.823249,-0.001745,-0.005236,0.001745,0.010000,0.000000,0.000000,0.010000,0.000000,0.010000,1677685709.667442,0.058840,-9.698776,0.509946,0.010000,0.000000,0.000000,0.010000,0.000000,0.010000,0.000000,0.000000,0.000000,0.000000,-1.000000,0.000000,0.000000,0.000000,0.000000,0.000000,,,,,,,,,,,,,,,,,,,,,,,,,,,,,,,,,,,,,,,,,,,,,,,,,,,,,,,,,,,,,,,,,,
1682357881.824883,,,,,,,,,,,,,,,,,,,,,,,,,,,,,,,,1682356749.812890,-0.999256,0.005108,0.001013,0.038228,2.668909,-3.346750,0.137462,,,,,,,,,,,,,,,,,,,,,,,,,,,,,,,,,,,,,,,,,,,,,,,,,,,,,,,,
1682357881.826512,0.000000,0.000000,0.000000,0.010000,0.000000,0.000000,0.010000,0.000000,0.010000,1677685709.672440,0.058840,-9.698776,0.509946,0.010000,0.000000,0.000000,0.010000,0.000000,0.010000,0.000000,0.000000,0.000000,0.000000,-1.000000,0.000000,0.000000,0.000000,0.000000,0.000000,,,,,,,,,,,,,,,,,,,,,,,,,,,,,,,,,,,,,,,,,,,,,,,,,,,,,,,,,,,,,,,,,,
1682357881.828507,,,,,,,,,,,,,,,,,,,,,,,,,,,,,,0.000000,,,,,,,,,,,,,,,,,,,,,,,,,,,,,,,,,,,,,,,,,,,,,,,,,,,,,,,,,,,,,,,,,
1682357881.831846,-0.001745,0.000000,0.000000,0.010000,0.000000,0.000000,0.010000,0.000000,0.010000,1677685709.677438,0.078453,-9.718390,0.519752,0.010000,0.000000,0.000000,0.010000,0.000000,0.010000,0.000000,0.000000,0.000000,0.000000,-1.000000,0.000000,0.000000,0.000000,0.000000,0.000000,,,,,,,,,,,,,,,,,,,,,,,,,,,,,,,,,,,,,,,,,,,,,,,,,,,,,,,,,,,,,,,,,,
1682357881.841859,-0.001745,0.001745,0.001745,0.010000,0.000000,0.000000,0.010000,0.000000,0.010000,1677685709.682435,0.078453,-9.718390,0.519752,0.010000,0.000000,0.000000,0.010000,0.000000,0.010000,0.000000,0.000000,0.000000,0.000000,-1.000000,0.000000,0.000000,0.000000,0.000000,0.000000,,,,,,,,,,,,,,,,,,,,,,,,,,,,,,,,,,,,,,,,,,,,,,,,,,,,,,,,,,,,,,,,,,
1682357881.841898,-0.001745,-0.001745,0.000000,0.010000,0.000000,0.000000,0.010000,0.000000,0.010000,1677685709.687433,0.068647,-9.708583,0.509946,0.010000,0.000000,0.000000,0.010000,0.000000,0.010000,0.000000,0.000000,0.000000,0.000000,-1.000000,0.000000,0.000000,0.000000,0.000000,0.000000,,,,,,,,,,,,,,,,,,,,,,,,,,,,,,,,,,,,,,,,,,,,,,,,,,,,,,,,,,,,,,,,,,
1682357881.841913,,,,,,,,,,,,,,,,,,,,,,,,,,,,,,,,1682356749.821158,-0.999255,0.005051,0.001034,0.038246,2.668902,-3.346747,0.137461,,,,,,,,,,,,,,,,,,,,,,,,,,,,,,,,,,,,,,,,,,,,,,,,,,,,,,,,
1682357881.841932,,,,,,,,,,,,,,,,,,,,,,,,,,,,,,,,1682356749.828802,-0.999255,0.005007,0.001001,0.038249,2.668904,-3.346751,0.137471,,,,,,,,,,,,,,,,,,,,,,,,,,,,,,,,,,,,,,,,,,,,,,,,,,,,,,,,
1682357881.848323,-0.001745,-0.003491,0.000000,0.010000,0.000000,0.000000,0.010000,0.000000,0.010000,1677685709.692431,0.068647,-9.708583,0.509946,0.010000,0.000000,0.000000,0.010000,0.000000,0.010000,0.000000,0.000000,0.000000,0.000000,-1.000000,0.000000,0.000000,0.000000,0.000000,0.000000,,,,,,,,,,,,,,,,,,,,,,,,,,,,,,,,,,,,,,,,,,,,,,,,,,,,,,,,,,,,,,,,,,
1682357881.848362,,,,,,,,,,,,,,,,,,,,,,,,,,,,,,0.000000,,,,,,,,,,,,,,,,,,,,,,,,,,,,,,,,,,,,,,,,,,,,,,,,,,,,,,,,,,,,,,,,,
1682357881.849716,,,,,,,,,,,,,,,,,,,,,,,,,,,,,,,,1682356749.837185,-0.999257,0.005095,0.000980,0.038199,2.668907,-3.346761,0.137499,,,,,,,,,,,,,,,,,,,,,,,,,,,,,,,,,,,,,,,,,,,,,,,,,,,,,,,,
1682357881.851414,0.000000,-0.001745,-0.001745,0.010000,0.000000,0.000000,0.010000,0.000000,0.010000,1677685709.697429,0.068647,-9.698776,0.509946,0.010000,0.000000,0.000000,0.010000,0.000000,0.010000,0.000000,0.000000,0.000000,0.000000,-1.000000,0.000000,0.000000,0.000000,0.000000,0.000000,,,,,,,,,,,,,,,,,,,,,,,,,,,,,,,,,,,,,,,,,,,,,,,,,,,,,,,,,,,,,,,,,,
1682357881.856186,-0.003491,0.005236,0.000000,0.010000,0.000000,0.000000,0.010000,0.000000,0.010000,1677685709.702427,0.068647,-9.698776,0.509946,0.010000,0.000000,0.000000,0.010000,0.000000,0.010000,0.000000,0.000000,0.000000,0.000000,-1.000000,0.000000,0.000000,0.000000,0.000000,0.000000,,,,,,,,,,,,,,,,,,,,,,,,,,,,,,,,,,,,,,,,,,,,,,,,,,,,,,,,,,,,,,,,,,
1682357881.861940,,,,,,,,,,,,,,,,,,,,,,,,,,,,,,,,1682356749.849743,-0.999256,0.005032,0.000972,0.038222,2.668913,-3.346775,0.137519,,,,,,,,,,,,,,,,,,,,,,,,,,,,,,,,,,,,,,,,,,,,,,,,,,,,,,,,
1682357881.862282,-0.003491,0.001745,0.000000,0.010000,0.000000,0.000000,0.010000,0.000000,0.010000,1677685709.707425,0.068647,-9.698776,0.519752,0.010000,0.000000,0.000000,0.010000,0.000000,0.010000,0.000000,0.000000,0.000000,0.000000,-1.000000,0.000000,0.000000,0.000000,0.000000,0.000000,,,,,,,,,,,,,,,,,,,,,,,,,,,,,,,,,,,,,,,,,,,,,,,,,,,,,,,,,,,,,,,,,,
1682357881.866904,0.000000,0.000000,0.000000,0.010000,0.000000,0.000000,0.010000,0.000000,0.010000,1677685709.712423,0.068647,-9.698776,0.519752,0.010000,0.000000,0.000000,0.010000,0.000000,0.010000,0.000000,0.000000,0.000000,0.000000,-1.000000,0.000000,0.000000,0.000000,0.000000,0.000000,,,,,,,,,,,,,,,,,,,,,,,,,,,,,,,,,,,,,,,,,,,,,,,,,,,,,,,,,,,,,,,,,,
1682357881.873252,,,,,,,,,,,,,,,,,,,,,,,,,,,,,,0.000000,,,,,,,,,,,,,,,,,,,,,,,,,,,,,,,,,,,,,,,,,,,,,,,,,,,,,,,,,,,,,,,,,
1682357881.873279,,,,,,,,,,,,,,,,,,,,,,,,,,,,,,,,1682356749.856270,-0.999257,0.004959,0.000943,0.038213,2.668924,-3.346781,0.137537,,,,,,,,,,,,,,,,,,,,,,,,,,,,,,,,,,,,,,,,,,,,,,,,,,,,,,,,
1682357881.873338,-0.001745,0.001745,0.000000,0.010000,0.000000,0.000000,0.010000,0.000000,0.010000,1677685709.717420,0.058840,-9.708583,0.509946,0.010000,0.000000,0.000000,0.010000,0.000000,0.010000,0.000000,0.000000,0.000000,0.000000,-1.000000,0.000000,0.000000,0.000000,0.000000,0.000000,,,,,,,,,,,,,,,,,,,,,,,,,,,,,,,,,,,,,,,,,,,,,,,,,,,,,,,,,,,,,,,,,,
1682357881.879043,-0.003491,0.001745,0.000000,0.010000,0.000000,0.000000,0.010000,0.000000,0.010000,1677685709.722419,0.058840,-9.708583,0.509946,0.010000,0.000000,0.000000,0.010000,0.000000,0.010000,0.000000,0.000000,0.000000,0.000000,-1.000000,0.000000,0.000000,0.000000,0.000000,0.000000,,,,,,,,,,,,,,,,,,,,,,,,,,,,,,,,,,,,,,,,,,,,,,,,,,,,,,,,,,,,,,,,,,
1682357881.879098,,,,,,,,,,,,,,,,,,,,,,,,,,,,,,,,1682356749.862588,-0.999256,0.004930,0.000997,0.038227,2.668936,-3.346785,0.137556,,,,,,,,,,,,,,,,,,,,,,,,,,,,,,,,,,,,,,,,,,,,,,,,,,,,,,,,
1682357881.881824,-0.003491,0.000000,0.000000,0.010000,0.000000,0.000000,0.010000,0.000000,0.010000,1677685709.727416,0.078453,-9.708583,0.519752,0.010000,0.000000,0.000000,0.010000,0.000000,0.010000,0.000000,0.000000,0.000000,0.000000,-1.000000,0.000000,0.000000,0.000000,0.000000,0.000000,,,,,,,,,,,,,,,,,,,,,,,,,,,,,,,,,,,,,,,,,,,,,,,,,,,,,,,,,,,,,,,,,,
1682357881.890663,-0.001745,0.000000,0.000000,0.010000,0.000000,0.000000,0.010000,0.000000,0.010000,1677685709.732414,0.078453,-9.708583,0.519752,0.010000,0.000000,0.000000,0.010000,0.000000,0.010000,0.000000,0.000000,0.000000,0.000000,-1.000000,0.000000,0.000000,0.000000,0.000000,0.000000,,,,,,,,,,,,,,,,,,,,,,,,,,,,,,,,,,,,,,,,,,,,,,,,,,,,,,,,,,,,,,,,,,
1682357881.890717,,,,,,,,,,,,,,,,,,,,,,,,,,,,,,,,1682356749.873250,-0.999256,0.005026,0.000948,0.038231,2.668938,-3.346790,0.137536,,,,,,,,,,,,,,,,,,,,,,,,,,,,,,,,,,,,,,,,,,,,,,,,,,,,,,,,
1682357881.891490,0.000000,0.000000,0.001745,0.010000,0.000000,0.000000,0.010000,0.000000,0.010000,1677685709.737411,0.058840,-9.708583,0.519752,0.010000,0.000000,0.000000,0.010000,0.000000,0.010000,0.000000,0.000000,0.000000,0.000000,-1.000000,0.000000,0.000000,0.000000,0.000000,0.000000,,,,,,,,,,,,,,,,,,,,,,,,,,,,,,,,,,,,,,,,,,,,,,,,,,,,,,,,,,,,,,,,,,
1682357881.893017,,,,,,,,,,,,,,,,,,,,,,,,,,,,,,0.000000,,,,,,,,,,,,,,,,,,,,,,,,,,,,,,,,,,,,,,,,,,,,,,,,,,,,,,,,,,,,,,,,,
1682357881.893035,,,,,,,,,,,,,,,,,,,,,,,,,,,,,,,,1682356749.879909,-0.999256,0.004998,0.000962,0.038231,2.668935,-3.346779,0.137517,,,,,,,,,,,,,,,,,,,,,,,,,,,,,,,,,,,,,,,,,,,,,,,,,,,,,,,,
1682357881.896121,0.000000,0.003491,0.000000,0.010000,0.000000,0.000000,0.010000,0.000000,0.010000,1677685709.742410,0.058840,-9.708583,0.519752,0.010000,0.000000,0.000000,0.010000,0.000000,0.010000,0.000000,0.000000,0.000000,0.000000,-1.000000,0.000000,0.000000,0.000000,0.000000,0.000000,,,,,,,,,,,,,,,,,,,,,,,,,,,,,,,,,,,,,,,,,,,,,,,,,,,,,,,,,,,,,,,,,,
1682357881.903013,0.000000,0.001745,-0.001745,0.010000,0.000000,0.000000,0.010000,0.000000,0.010000,1677685709.747407,0.058840,-9.708583,0.509946,0.010000,0.000000,0.000000,0.010000,0.000000,0.010000,0.000000,0.000000,0.000000,0.000000,-1.000000,0.000000,0.000000,0.000000,0.000000,0.000000,,,,,,,,,,,,,,,,,,,,,,,,,,,,,,,,,,,,,,,,,,,,,,,,,,,,,,,,,,,,,,,,,,
1682357881.903060,,,,,,,,,,,,,,,,,,,,,,,,,,,,,,,,1682356749.889982,-0.999255,0.005037,0.001010,0.038241,2.668930,-3.346766,0.137489,,,,,,,,,,,,,,,,,,,,,,,,,,,,,,,,,,,,,,,,,,,,,,,,,,,,,,,,
1682357881.906319,-0.003491,0.000000,0.000000,0.010000,0.000000,0.000000,0.010000,0.000000,0.010000,1677685709.752405,0.058840,-9.708583,0.509946,0.010000,0.000000,0.000000,0.010000,0.000000,0.010000,0.000000,0.000000,0.000000,0.000000,-1.000000,0.000000,0.000000,0.000000,0.000000,0.000000,,,,,,,,,,,,,,,,,,,,,,,,,,,,,,,,,,,,,,,,,,,,,,,,,,,,,,,,,,,,,,,,,,
1682357881.912138,-0.001745,-0.001745,0.000000,0.010000,0.000000,0.000000,0.010000,0.000000,0.010000,1677685709.757404,0.068647,-9.698776,0.519752,0.010000,0.000000,0.000000,0.010000,0.000000,0.010000,0.000000,0.000000,0.000000,0.000000,-1.000000,0.000000,0.000000,0.000000,0.000000,0.000000,,,,,,,,,,,,,,,,,,,,,,,,,,,,,,,,,,,,,,,,,,,,,,,,,,,,,,,,,,,,,,,,,,
1682357881.912332,,,,,,,,,,,,,,,,,,,,,,,,,,,,,,0.000000,,,,,,,,,,,,,,,,,,,,,,,,,,,,,,,,,,,,,,,,,,,,,,,,,,,,,,,,,,,,,,,,,
1682357881.916191,-0.005236,-0.001745,0.000000,0.010000,0.000000,0.000000,0.010000,0.000000,0.010000,1677685709.762401,0.068647,-9.698776,0.519752,0.010000,0.000000,0.000000,0.010000,0.000000,0.010000,0.000000,0.000000,0.000000,0.000000,-1.000000,0.000000,0.000000,0.000000,0.000000,0.000000,,,,,,,,,,,,,,,,,,,,,,,,,,,,,,,,,,,,,,,,,,,,,,,,,,,,,,,,,,,,,,,,,,
1682357881.921412,-0.005236,0.003491,0.000000,0.010000,0.000000,0.000000,0.010000,0.000000,0.010000,1677685709.767399,0.068647,-9.708583,0.529559,0.010000,0.000000,0.000000,0.010000,0.000000,0.010000,0.000000,0.000000,0.000000,0.000000,-1.000000,0.000000,0.000000,0.000000,0.000000,0.000000,,,,,,,,,,,,,,,,,,,,,,,,,,,,,,,,,,,,,,,,,,,,,,,,,,,,,,,,,,,,,,,,,,
1682357881.926335,0.000000,0.000000,0.000000,0.010000,0.000000,0.000000,0.010000,0.000000,0.010000,1677685709.772398,0.068647,-9.708583,0.529559,0.010000,0.000000,0.000000,0.010000,0.000000,0.010000,0.000000,0.000000,0.000000,0.000000,-1.000000,0.000000,0.000000,0.000000,0.000000,0.000000,,,,,,,,,,,,,,,,,,,,,,,,,,,,,,,,,,,,,,,,,,,,,,,,,,,,,,,,,,,,,,,,,,
1682357881.931686,-0.005236,0.000000,0.000000,0.010000,0.000000,0.000000,0.010000,0.000000,0.010000,1677685709.777395,0.078453,-9.708583,0.519752,0.010000,0.000000,0.000000,0.010000,0.000000,0.010000,0.000000,0.000000,0.000000,0.000000,-1.000000,0.000000,0.000000,0.000000,0.000000,0.000000,,,,,,,,,,,,,,,,,,,,,,,,,,,,,,,,,,,,,,,,,,,,,,,,,,,,,,,,,,,,,,,,,,
1682357881.936326,,,,,,,,,,,,,,,,,,,,,,,,,,,,,,0.000000,,,,,,,,,,,,,,,,,,,,,,,,,,,,,,,,,,,,,,,,,,,,,,,,,,,,,,,,,,,,,,,,,
1682357881.936926,-0.001745,0.000000,0.000000,0.010000,0.000000,0.000000,0.010000,0.000000,0.010000,1677685709.782393,0.078453,-9.708583,0.519752,0.010000,0.000000,0.000000,0.010000,0.000000,0.010000,0.000000,0.000000,0.000000,0.000000,-1.000000,0.000000,0.000000,0.000000,0.000000,0.000000,,,,,,,,,,,,,,,,,,,,,,,,,,,,,,,,,,,,,,,,,,,,,,,,,,,,,,,,,,,,,,,,,,
1682357881.941512,-0.001745,-0.003491,0.003491,0.010000,0.000000,0.000000,0.010000,0.000000,0.010000,1677685709.787390,0.068647,-9.718390,0.519752,0.010000,0.000000,0.000000,0.010000,0.000000,0.010000,0.000000,0.000000,0.000000,0.000000,-1.000000,0.000000,0.000000,0.000000,0.000000,0.000000,,,,,,,,,,,,,,,,,,,,,,,,,,,,,,,,,,,,,,,,,,,,,,,,,,,,,,,,,,,,,,,,,,
1682357881.946518,-0.003491,0.000000,0.000000,0.010000,0.000000,0.000000,0.010000,0.000000,0.010000,1677685709.792389,0.068647,-9.718390,0.519752,0.010000,0.000000,0.000000,0.010000,0.000000,0.010000,0.000000,0.000000,0.000000,0.000000,-1.000000,0.000000,0.000000,0.000000,0.000000,0.000000,,,,,,,,,,,,,,,,,,,,,,,,,,,,,,,,,,,,,,,,,,,,,,,,,,,,,,,,,,,,,,,,,,
1682357881.953026,0.000000,0.000000,0.000000,0.010000,0.000000,0.000000,0.010000,0.000000,0.010000,1677685709.797386,0.078453,-9.708583,0.509946,0.010000,0.000000,0.000000,0.010000,0.000000,0.010000,0.000000,0.000000,0.000000,0.000000,-1.000000,0.000000,0.000000,0.000000,0.000000,0.000000,,,,,,,,,,,,,,,,,,,,,,,,,,,,,,,,,,,,,,,,,,,,,,,,,,,,,,,,,,,,,,,,,,
1682357881.954175,,,,,,,,,,,,,,,,,,,,,,,,,,,,,,0.000000,,,,,,,,,,,,,,,,,,,,,,,,,,,,,,,,,,,,,,,,,,,,,,,,,,,,,,,,,,,,,,,,,
1682357881.956683,0.000000,0.003491,0.000000,0.010000,0.000000,0.000000,0.010000,0.000000,0.010000,1677685709.802384,0.078453,-9.708583,0.509946,0.010000,0.000000,0.000000,0.010000,0.000000,0.010000,0.000000,0.000000,0.000000,0.000000,-1.000000,0.000000,0.000000,0.000000,0.000000,0.000000,,,,,,,,,,,,,,,,,,,,,,,,,,,,,,,,,,,,,,,,,,,,,,,,,,,,,,,,,,,,,,,,,,
1682357881.961461,0.000000,0.005236,0.000000,0.010000,0.000000,0.000000,0.010000,0.000000,0.010000,1677685709.807381,0.078453,-9.698776,0.519752,0.010000,0.000000,0.000000,0.010000,0.000000,0.010000,0.000000,0.000000,0.000000,0.000000,-1.000000,0.000000,0.000000,0.000000,0.000000,0.000000,,,,,,,,,,,,,,,,,,,,,,,,,,,,,,,,,,,,,,,,,,,,,,,,,,,,,,,,,,,,,,,,,,
1682357881.966073,0.000000,0.000000,0.000000,0.010000,0.000000,0.000000,0.010000,0.000000,0.010000,1677685709.812380,0.078453,-9.698776,0.519752,0.010000,0.000000,0.000000,0.010000,0.000000,0.010000,0.000000,0.000000,0.000000,0.000000,-1.000000,0.000000,0.000000,0.000000,0.000000,0.000000,,,,,,,,,,,,,,,,,,,,,,,,,,,,,,,,,,,,,,,,,,,,,,,,,,,,,,,,,,,,,,,,,,
1682357881.971776,0.000000,0.003491,0.000000,0.010000,0.000000,0.000000,0.010000,0.000000,0.010000,1677685709.817377,0.068647,-9.708583,0.519752,0.010000,0.000000,0.000000,0.010000,0.000000,0.010000,0.000000,0.000000,0.000000,0.000000,-1.000000,0.000000,0.000000,0.000000,0.000000,0.000000,,,,,,,,,,,,,,,,,,,,,,,,,,,,,,,,,,,,,,,,,,,,,,,,,,,,,,,,,,,,,,,,,,
1682357881.976509,-0.005236,0.000000,0.000000,0.010000,0.000000,0.000000,0.010000,0.000000,0.010000,1677685709.822376,0.068647,-9.708583,0.519752,0.010000,0.000000,0.000000,0.010000,0.000000,0.010000,0.000000,0.000000,0.000000,0.000000,-1.000000,0.000000,0.000000,0.000000,0.000000,0.000000,,,,,,,,,,,,,,,,,,,,,,,,,,,,,,,,,,,,,,,,,,,,,,,,,,,,,,,,,,,,,,,,,,
1682357881.976662,,,,,,,,,,,,,,,,,,,,,,,,,,,,,,0.000000,,,,,,,,,,,,,,,,,,,,,,,,,,,,,,,,,,,,,,,,,,,,,,,,,,,,,,,,,,,,,,,,,
1682357881.981836,0.000000,0.001745,-0.001745,0.010000,0.000000,0.000000,0.010000,0.000000,0.010000,1677685709.827374,0.068647,-9.708583,0.519752,0.010000,0.000000,0.000000,0.010000,0.000000,0.010000,0.000000,0.000000,0.000000,0.000000,-1.000000,0.000000,0.000000,0.000000,0.000000,0.000000,,,,,,,,,,,,,,,,,,,,,,,,,,,,,,,,,,,,,,,,,,,,,,,,,,,,,,,,,,,,,,,,,,
1682357881.986362,-0.001745,0.000000,0.000000,0.010000,0.000000,0.000000,0.010000,0.000000,0.010000,1677685709.832371,0.068647,-9.708583,0.519752,0.010000,0.000000,0.000000,0.010000,0.000000,0.010000,0.000000,0.000000,0.000000,0.000000,-1.000000,0.000000,0.000000,0.000000,0.000000,0.000000,,,,,,,,,,,,,,,,,,,,,,,,,,,,,,,,,,,,,,,,,,,,,,,,,,,,,,,,,,,,,,,,,,
1682357881.991527,-0.001745,0.000000,0.000000,0.010000,0.000000,0.000000,0.010000,0.000000,0.010000,1677685709.837369,0.058840,-9.708583,0.519752,0.010000,0.000000,0.000000,0.010000,0.000000,0.010000,0.000000,0.000000,0.000000,0.000000,-1.000000,0.000000,0.000000,0.000000,0.000000,0.000000,,,,,,,,,,,,,,,,,,,,,,,,,,,,,,,,,,,,,,,,,,,,,,,,,,,,,,,,,,,,,,,,,,
1682357881.997540,0.000000,-0.001745,0.000000,0.010000,0.000000,0.000000,0.010000,0.000000,0.010000,1677685709.842366,0.058840,-9.708583,0.519752,0.010000,0.000000,0.000000,0.010000,0.000000,0.010000,0.000000,0.000000,0.000000,0.000000,-1.000000,0.000000,0.000000,0.000000,0.000000,0.000000,,,,,,,,,,,,,,,,,,,,,,,,,,,,,,,,,,,,,,,,,,,,,,,,,,,,,,,,,,,,,,,,,,
1682357881.997591,,,,,,,,,,,,,,,,,,,,,,,,,,,,,,0.000000,,,,,,,,,,,,,,,,,,,,,,,,,,,,,,,,,,,,,,,,,,,,,,,,,,,,,,,,,,,,,,,,,
1682357882.001707,0.000000,0.001745,0.000000,0.010000,0.000000,0.000000,0.010000,0.000000,0.010000,1677685709.847365,0.068647,-9.708583,0.519752,0.010000,0.000000,0.000000,0.010000,0.000000,0.010000,0.000000,0.000000,0.000000,0.000000,-1.000000,0.000000,0.000000,0.000000,0.000000,0.000000,,,,,,,,,,,,,,,,,,,,,,,,,,,,,,,,,,,,,,,,,,,,,,,,,,,,,,,,,,,,,,,,,,
1682357882.010334,-0.001745,0.000000,0.000000,0.010000,0.000000,0.000000,0.010000,0.000000,0.010000,1677685709.852362,0.068647,-9.708583,0.519752,0.010000,0.000000,0.000000,0.010000,0.000000,0.010000,0.000000,0.000000,0.000000,0.000000,-1.000000,0.000000,0.000000,0.000000,0.000000,0.000000,,,,,,,,,,,,,,,,,,,,,,,,,,,,,,,,,,,,,,,,,,,,,,,,,,,,,,,,,,,,,,,,,,
1682357882.015346,-0.003491,0.001745,0.003491,0.010000,0.000000,0.000000,0.010000,0.000000,0.010000,1677685709.857360,0.068647,-9.708583,0.529559,0.010000,0.000000,0.000000,0.010000,0.000000,0.010000,0.000000,0.000000,0.000000,0.000000,-1.000000,0.000000,0.000000,0.000000,0.000000,0.000000,,,,,,,,,,,,,,,,,,,,,,,,,,,,,,,,,,,,,,,,,,,,,,,,,,,,,,,,,,,,,,,,,,
1682357882.016143,0.000000,0.005236,-0.001745,0.010000,0.000000,0.000000,0.010000,0.000000,0.010000,1677685709.862358,0.068647,-9.708583,0.529559,0.010000,0.000000,0.000000,0.010000,0.000000,0.010000,0.000000,0.000000,0.000000,0.000000,-1.000000,0.000000,0.000000,0.000000,0.000000,0.000000,,,,,,,,,,,,,,,,,,,,,,,,,,,,,,,,,,,,,,,,,,,,,,,,,,,,,,,,,,,,,,,,,,
1682357882.020446,,,,,,,,,,,,,,,,,,,,,,,,,,,,,,0.000000,,,,,,,,,,,,,,,,,,,,,,,,,,,,,,,,,,,,,,,,,,,,,,,,,,,,,,,,,,,,,,,,,
1682357882.021183,-0.001745,0.001745,0.000000,0.010000,0.000000,0.000000,0.010000,0.000000,0.010000,1677685709.867356,0.068647,-9.708583,0.519752,0.010000,0.000000,0.000000,0.010000,0.000000,0.010000,0.000000,0.000000,0.000000,0.000000,-1.000000,0.000000,0.000000,0.000000,0.000000,0.000000,,,,,,,,,,,,,,,,,,,,,,,,,,,,,,,,,,,,,,,,,,,,,,,,,,,,,,,,,,,,,,,,,,
1682357882.026299,0.000000,0.005236,-0.001745,0.010000,0.000000,0.000000,0.010000,0.000000,0.010000,1677685709.872353,0.068647,-9.708583,0.519752,0.010000,0.000000,0.000000,0.010000,0.000000,0.010000,0.000000,0.000000,0.000000,0.000000,-1.000000,0.000000,0.000000,0.000000,0.000000,0.000000,,,,,,,,,,,,,,,,,,,,,,,,,,,,,,,,,,,,,,,,,,,,,,,,,,,,,,,,,,,,,,,,,,
1682357882.038525,0.000000,0.003491,0.000000,0.010000,0.000000,0.000000,0.010000,0.000000,0.010000,1677685709.877352,0.058840,-9.698776,0.519752,0.010000,0.000000,0.000000,0.010000,0.000000,0.010000,0.000000,0.000000,0.000000,0.000000,-1.000000,0.000000,0.000000,0.000000,0.000000,0.000000,,,,,,,,,,,,,,,,,,,,,,,,,,,,,,,,,,,,,,,,,,,,,,,,,,,,,,,,,,,,,,,,,,
1682357882.038596,-0.001745,0.000000,0.000000,0.010000,0.000000,0.000000,0.010000,0.000000,0.010000,1677685709.882349,0.058840,-9.698776,0.519752,0.010000,0.000000,0.000000,0.010000,0.000000,0.010000,0.000000,0.000000,0.000000,0.000000,-1.000000,0.000000,0.000000,0.000000,0.000000,0.000000,,,,,,,,,,,,,,,,,,,,,,,,,,,,,,,,,,,,,,,,,,,,,,,,,,,,,,,,,,,,,,,,,,
1682357882.045538,0.000000,0.000000,0.000000,0.010000,0.000000,0.000000,0.010000,0.000000,0.010000,1677685709.887347,0.078453,-9.688970,0.539366,0.010000,0.000000,0.000000,0.010000,0.000000,0.010000,0.000000,0.000000,0.000000,0.000000,-1.000000,0.000000,0.000000,0.000000,0.000000,0.000000,,,,,,,,,,,,,,,,,,,,,,,,,,,,,,,,,,,,,,,,,,,,,,,,,,,,,,,,,,,,,,,,,,
1682357882.045596,,,,,,,,,,,,,,,,,,,,,,,,,,,,,,0.000000,,,,,,,,,,,,,,,,,,,,,,,,,,,,,,,,,,,,,,,,,,,,,,,,,,,,,,,,,,,,,,,,,
1682357882.046547,0.000000,0.000000,0.000000,0.010000,0.000000,0.000000,0.010000,0.000000,0.010000,1677685709.892345,0.078453,-9.688970,0.539366,0.010000,0.000000,0.000000,0.010000,0.000000,0.010000,0.000000,0.000000,0.000000,0.000000,-1.000000,0.000000,0.000000,0.000000,0.000000,0.000000,,,,,,,,,,,,,,,,,,,,,,,,,,,,,,,,,,,,,,,,,,,,,,,,,,,,,,,,,,,,,,,,,,
1682357882.051158,-0.001745,0.003491,0.000000,0.010000,0.000000,0.000000,0.010000,0.000000,0.010000,1677685709.897342,0.078453,-9.708583,0.519752,0.010000,0.000000,0.000000,0.010000,0.000000,0.010000,0.000000,0.000000,0.000000,0.000000,-1.000000,0.000000,0.000000,0.000000,0.000000,0.000000,,,,,,,,,,,,,,,,,,,,,,,,,,,,,,,,,,,,,,,,,,,,,,,,,,,,,,,,,,,,,,,,,,
1682357882.056107,-0.001745,0.001745,0.000000,0.010000,0.000000,0.000000,0.010000,0.000000,0.010000,1677685709.902341,0.078453,-9.708583,0.519752,0.010000,0.000000,0.000000,0.010000,0.000000,0.010000,0.000000,0.000000,0.000000,0.000000,-1.000000,0.000000,0.000000,0.000000,0.000000,0.000000,,,,,,,,,,,,,,,,,,,,,,,,,,,,,,,,,,,,,,,,,,,,,,,,,,,,,,,,,,,,,,,,,,
1682357882.061553,-0.001745,0.000000,0.001745,0.010000,0.000000,0.000000,0.010000,0.000000,0.010000,1677685709.907338,0.078453,-9.708583,0.519752,0.010000,0.000000,0.000000,0.010000,0.000000,0.010000,0.000000,0.000000,0.000000,0.000000,-1.000000,0.000000,0.000000,0.000000,0.000000,0.000000,,,,,,,,,,,,,,,,,,,,,,,,,,,,,,,,,,,,,,,,,,,,,,,,,,,,,,,,,,,,,,,,,,
1682357882.062156,,,,,,,,,,,,,,,,,,,,,,,,,,,,,,0.000000,,,,,,,,,,,,,,,,,,,,,,,,,,,,,,,,,,,,,,,,,,,,,,,,,,,,,,,,,,,,,,,,,
1682357882.066421,0.000000,-0.005236,0.000000,0.010000,0.000000,0.000000,0.010000,0.000000,0.010000,1677685709.912336,0.078453,-9.708583,0.519752,0.010000,0.000000,0.000000,0.010000,0.000000,0.010000,0.000000,0.000000,0.000000,0.000000,-1.000000,0.000000,0.000000,0.000000,0.000000,0.000000,,,,,,,,,,,,,,,,,,,,,,,,,,,,,,,,,,,,,,,,,,,,,,,,,,,,,,,,,,,,,,,,,,
1682357882.071403,-0.003491,0.001745,0.000000,0.010000,0.000000,0.000000,0.010000,0.000000,0.010000,1677685709.917334,0.078453,-9.698776,0.529559,0.010000,0.000000,0.000000,0.010000,0.000000,0.010000,0.000000,0.000000,0.000000,0.000000,-1.000000,0.000000,0.000000,0.000000,0.000000,0.000000,,,,,,,,,,,,,,,,,,,,,,,,,,,,,,,,,,,,,,,,,,,,,,,,,,,,,,,,,,,,,,,,,,
1682357882.080658,-0.003491,0.003491,0.000000,0.010000,0.000000,0.000000,0.010000,0.000000,0.010000,1677685709.922332,0.078453,-9.698776,0.529559,0.010000,0.000000,0.000000,0.010000,0.000000,0.010000,0.000000,0.000000,0.000000,0.000000,-1.000000,0.000000,0.000000,0.000000,0.000000,0.000000,,,,,,,,,,,,,,,,,,,,,,,,,,,,,,,,,,,,,,,,,,,,,,,,,,,,,,,,,,,,,,,,,,
1682357882.081168,-0.001745,0.003491,0.000000,0.010000,0.000000,0.000000,0.010000,0.000000,0.010000,1677685709.927329,0.068647,-9.708583,0.519752,0.010000,0.000000,0.000000,0.010000,0.000000,0.010000,0.000000,0.000000,0.000000,0.000000,-1.000000,0.000000,0.000000,0.000000,0.000000,0.000000,,,,,,,,,,,,,,,,,,,,,,,,,,,,,,,,,,,,,,,,,,,,,,,,,,,,,,,,,,,,,,,,,,
1682357882.082112,,,,,,,,,,,,,,,,,,,,,,,,,,,,,,0.000000,,,,,,,,,,,,,,,,,,,,,,,,,,,,,,,,,,,,,,,,,,,,,,,,,,,,,,,,,,,,,,,,,
1682357882.086223,0.001745,0.000000,0.000000,0.010000,0.000000,0.000000,0.010000,0.000000,0.010000,1677685709.932328,0.068647,-9.708583,0.519752,0.010000,0.000000,0.000000,0.010000,0.000000,0.010000,0.000000,0.000000,0.000000,0.000000,-1.000000,0.000000,0.000000,0.000000,0.000000,0.000000,,,,,,,,,,,,,,,,,,,,,,,,,,,,,,,,,,,,,,,,,,,,,,,,,,,,,,,,,,,,,,,,,,
1682357882.095333,-0.001745,0.001745,0.001745,0.010000,0.000000,0.000000,0.010000,0.000000,0.010000,1677685709.937325,0.078453,-9.708583,0.509946,0.010000,0.000000,0.000000,0.010000,0.000000,0.010000,0.000000,0.000000,0.000000,0.000000,-1.000000,0.000000,0.000000,0.000000,0.000000,0.000000,,,,,,,,,,,,,,,,,,,,,,,,,,,,,,,,,,,,,,,,,,,,,,,,,,,,,,,,,,,,,,,,,,
1682357882.096219,0.000000,0.000000,0.000000,0.010000,0.000000,0.000000,0.010000,0.000000,0.010000,1677685709.942323,0.078453,-9.708583,0.509946,0.010000,0.000000,0.000000,0.010000,0.000000,0.010000,0.000000,0.000000,0.000000,0.000000,-1.000000,0.000000,0.000000,0.000000,0.000000,0.000000,,,,,,,,,,,,,,,,,,,,,,,,,,,,,,,,,,,,,,,,,,,,,,,,,,,,,,,,,,,,,,,,,,
1682357882.101187,-0.001745,0.000000,0.000000,0.010000,0.000000,0.000000,0.010000,0.000000,0.010000,1677685709.947321,0.078453,-9.708583,0.509946,0.010000,0.000000,0.000000,0.010000,0.000000,0.010000,0.000000,0.000000,0.000000,0.000000,-1.000000,0.000000,0.000000,0.000000,0.000000,0.000000,,,,,,,,,,,,,,,,,,,,,,,,,,,,,,,,,,,,,,,,,,,,,,,,,,,,,,,,,,,,,,,,,,
1682357882.103651,,,,,,,,,,,,,,,,,,,,,,,,,,,,,,0.000000,,,,,,,,,,,,,,,,,,,,,,,,,,,,,,,,,,,,,,,,,,,,,,,,,,,,,,,,,,,,,,,,,
1682357882.106406,0.000000,0.005236,0.000000,0.010000,0.000000,0.000000,0.010000,0.000000,0.010000,1677685709.952319,0.078453,-9.708583,0.509946,0.010000,0.000000,0.000000,0.010000,0.000000,0.010000,0.000000,0.000000,0.000000,0.000000,-1.000000,0.000000,0.000000,0.000000,0.000000,0.000000,,,,,,,,,,,,,,,,,,,,,,,,,,,,,,,,,,,,,,,,,,,,,,,,,,,,,,,,,,,,,,,,,,
1682357882.112051,-0.003491,0.000000,0.000000,0.010000,0.000000,0.000000,0.010000,0.000000,0.010000,1677685709.957317,0.058840,-9.708583,0.529559,0.010000,0.000000,0.000000,0.010000,0.000000,0.010000,0.000000,0.000000,0.000000,0.000000,-1.000000,0.000000,0.000000,0.000000,0.000000,0.000000,,,,,,,,,,,,,,,,,,,,,,,,,,,,,,,,,,,,,,,,,,,,,,,,,,,,,,,,,,,,,,,,,,
1682357882.117984,-0.001745,0.000000,0.001745,0.010000,0.000000,0.000000,0.010000,0.000000,0.010000,1677685709.962315,0.058840,-9.708583,0.529559,0.010000,0.000000,0.000000,0.010000,0.000000,0.010000,0.000000,0.000000,0.000000,0.000000,-1.000000,0.000000,0.000000,0.000000,0.000000,0.000000,,,,,,,,,,,,,,,,,,,,,,,,,,,,,,,,,,,,,,,,,,,,,,,,,,,,,,,,,,,,,,,,,,
1682357882.121122,-0.001745,-0.001745,-0.001745,0.010000,0.000000,0.000000,0.010000,0.000000,0.010000,1677685709.967312,0.068647,-9.698776,0.519752,0.010000,0.000000,0.000000,0.010000,0.000000,0.010000,0.000000,0.000000,0.000000,0.000000,-1.000000,0.000000,0.000000,0.000000,0.000000,0.000000,,,,,,,,,,,,,,,,,,,,,,,,,,,,,,,,,,,,,,,,,,,,,,,,,,,,,,,,,,,,,,,,,,
1682357882.125255,,,,,,,,,,,,,,,,,,,,,,,,,,,,,,0.000000,,,,,,,,,,,,,,,,,,,,,,,,,,,,,,,,,,,,,,,,,,,,,,,,,,,,,,,,,,,,,,,,,
1682357882.126389,-0.003491,0.000000,0.001745,0.010000,0.000000,0.000000,0.010000,0.000000,0.010000,1677685709.972311,0.068647,-9.698776,0.519752,0.010000,0.000000,0.000000,0.010000,0.000000,0.010000,0.000000,0.000000,0.000000,0.000000,-1.000000,0.000000,0.000000,0.000000,0.000000,0.000000,,,,,,,,,,,,,,,,,,,,,,,,,,,,,,,,,,,,,,,,,,,,,,,,,,,,,,,,,,,,,,,,,,
1682357882.132478,-0.001745,0.001745,0.000000,0.010000,0.000000,0.000000,0.010000,0.000000,0.010000,1677685709.977308,0.068647,-9.718390,0.529559,0.010000,0.000000,0.000000,0.010000,0.000000,0.010000,0.000000,0.000000,0.000000,0.000000,-1.000000,0.000000,0.000000,0.000000,0.000000,0.000000,,,,,,,,,,,,,,,,,,,,,,,,,,,,,,,,,,,,,,,,,,,,,,,,,,,,,,,,,,,,,,,,,,
1682357882.141709,-0.003491,0.001745,0.000000,0.010000,0.000000,0.000000,0.010000,0.000000,0.010000,1677685709.982306,0.068647,-9.718390,0.529559,0.010000,0.000000,0.000000,0.010000,0.000000,0.010000,0.000000,0.000000,0.000000,0.000000,-1.000000,0.000000,0.000000,0.000000,0.000000,0.000000,,,,,,,,,,,,,,,,,,,,,,,,,,,,,,,,,,,,,,,,,,,,,,,,,,,,,,,,,,,,,,,,,,
1682357882.141762,0.000000,0.000000,0.000000,0.010000,0.000000,0.000000,0.010000,0.000000,0.010000,1677685709.987303,0.068647,-9.708583,0.509946,0.010000,0.000000,0.000000,0.010000,0.000000,0.010000,0.000000,0.000000,0.000000,0.000000,-1.000000,0.000000,0.000000,0.000000,0.000000,0.000000,,,,,,,,,,,,,,,,,,,,,,,,,,,,,,,,,,,,,,,,,,,,,,,,,,,,,,,,,,,,,,,,,,
1682357882.157880,-0.001745,0.000000,0.000000,0.010000,0.000000,0.000000,0.010000,0.000000,0.010000,1677685709.992302,0.068647,-9.708583,0.509946,0.010000,0.000000,0.000000,0.010000,0.000000,0.010000,0.000000,0.000000,0.000000,0.000000,-1.000000,0.000000,0.000000,0.000000,0.000000,0.000000,,,,,,,,,,,,,,,,,,,,,,,,,,,,,,,,,,,,,,,,,,,,,,,,,,,,,,,,,,,,,,,,,,
1682357882.157939,0.000000,0.000000,0.000000,0.010000,0.000000,0.000000,0.010000,0.000000,0.010000,1677685709.997299,0.078453,-9.708583,0.519752,0.010000,0.000000,0.000000,0.010000,0.000000,0.010000,0.000000,0.000000,0.000000,0.000000,-1.000000,0.000000,0.000000,0.000000,0.000000,0.000000,,,,,,,,,,,,,,,,,,,,,,,,,,,,,,,,,,,,,,,,,,,,,,,,,,,,,,,,,,,,,,,,,,
1682357882.157957,,,,,,,,,,,,,,,,,,,,,,,,,,,,,,0.000000,,,,,,,,,,,,,,,,,,,,,,,,,,,,,,,,,,,,,,,,,,,,,,,,,,,,,,,,,,,,,,,,,
1682357882.157999,-0.001745,0.001745,-0.001745,0.010000,0.000000,0.000000,0.010000,0.000000,0.010000,1677685710.002297,0.078453,-9.708583,0.519752,0.010000,0.000000,0.000000,0.010000,0.000000,0.010000,0.000000,0.000000,0.000000,0.000000,-1.000000,0.000000,0.000000,0.000000,0.000000,0.000000,,,,,,,,,,,,,,,,,,,,,,,,,,,,,,,,,,,,,,,,,,,,,,,,,,,,,,,,,,,,,,,,,,
1682357882.162955,0.000000,0.000000,0.000000,0.010000,0.000000,0.000000,0.010000,0.000000,0.010000,1677685710.007294,0.058840,-9.708583,0.529559,0.010000,0.000000,0.000000,0.010000,0.000000,0.010000,0.000000,0.000000,0.000000,0.000000,-1.000000,0.000000,0.000000,0.000000,0.000000,0.000000,,,,,,,,,,,,,,,,,,,,,,,,,,,,,,,,,,,,,,,,,,,,,,,,,,,,,,,,,,,,,,,,,,
1682357882.166514,-0.003491,0.000000,-0.001745,0.010000,0.000000,0.000000,0.010000,0.000000,0.010000,1677685710.012293,0.058840,-9.708583,0.529559,0.010000,0.000000,0.000000,0.010000,0.000000,0.010000,0.000000,0.000000,0.000000,0.000000,-1.000000,0.000000,0.000000,0.000000,0.000000,0.000000,,,,,,,,,,,,,,,,,,,,,,,,,,,,,,,,,,,,,,,,,,,,,,,,,,,,,,,,,,,,,,,,,,
1682357882.168027,,,,,,,,,,,,,,,,,,,,,,,,,,,,,,0.000000,,,,,,,,,,,,,,,,,,,,,,,,,,,,,,,,,,,,,,,,,,,,,,,,,,,,,,,,,,,,,,,,,
1682357882.174543,-0.003491,0.000000,0.000000,0.010000,0.000000,0.000000,0.010000,0.000000,0.010000,1677685710.017290,0.068647,-9.708583,0.519752,0.010000,0.000000,0.000000,0.010000,0.000000,0.010000,0.000000,0.000000,0.000000,0.000000,-1.000000,0.000000,0.000000,0.000000,0.000000,0.000000,,,,,,,,,,,,,,,,,,,,,,,,,,,,,,,,,,,,,,,,,,,,,,,,,,,,,,,,,,,,,,,,,,
1682357882.177516,-0.003491,0.000000,0.000000,0.010000,0.000000,0.000000,0.010000,0.000000,0.010000,1677685710.022288,0.068647,-9.708583,0.519752,0.010000,0.000000,0.000000,0.010000,0.000000,0.010000,0.000000,0.000000,0.000000,0.000000,-1.000000,0.000000,0.000000,0.000000,0.000000,0.000000,,,,,,,,,,,,,,,,,,,,,,,,,,,,,,,,,,,,,,,,,,,,,,,,,,,,,,,,,,,,,,,,,,
1682357882.183955,-0.001745,0.003491,-0.001745,0.010000,0.000000,0.000000,0.010000,0.000000,0.010000,1677685710.027286,0.078453,-9.708583,0.529559,0.010000,0.000000,0.000000,0.010000,0.000000,0.010000,0.000000,0.000000,0.000000,0.000000,-1.000000,0.000000,0.000000,0.000000,0.000000,0.000000,,,,,,,,,,,,,,,,,,,,,,,,,,,,,,,,,,,,,,,,,,,,,,,,,,,,,,,,,,,,,,,,,,
1682357882.187742,-0.003491,0.000000,0.000000,0.010000,0.000000,0.000000,0.010000,0.000000,0.010000,1677685710.032290,0.078453,-9.708583,0.529559,0.010000,0.000000,0.000000,0.010000,0.000000,0.010000,0.000000,0.000000,0.000000,0.000000,-1.000000,0.000000,0.000000,0.000000,0.000000,0.000000,,,,,,,,,,,,,,,,,,,,,,,,,,,,,,,,,,,,,,,,,,,,,,,,,,,,,,,,,,,,,,,,,,
1682357882.189638,,,,,,,,,,,,,,,,,,,,,,,,,,,,,,0.000000,,,,,,,,,,,,,,,,,,,,,,,,,,,,,,,,,,,,,,,,,,,,,,,,,,,,,,,,,,,,,,,,,
1682357882.191223,-0.006981,0.000000,0.000000,0.010000,0.000000,0.000000,0.010000,0.000000,0.010000,1677685710.037293,0.078453,-9.718390,0.519752,0.010000,0.000000,0.000000,0.010000,0.000000,0.010000,0.000000,0.000000,0.000000,0.000000,-1.000000,0.000000,0.000000,0.000000,0.000000,0.000000,,,,,,,,,,,,,,,,,,,,,,,,,,,,,,,,,,,,,,,,,,,,,,,,,,,,,,,,,,,,,,,,,,
1682357882.196615,-0.001745,0.000000,0.000000,0.010000,0.000000,0.000000,0.010000,0.000000,0.010000,1677685710.042296,0.078453,-9.718390,0.519752,0.010000,0.000000,0.000000,0.010000,0.000000,0.010000,0.000000,0.000000,0.000000,0.000000,-1.000000,0.000000,0.000000,0.000000,0.000000,0.000000,,,,,,,,,,,,,,,,,,,,,,,,,,,,,,,,,,,,,,,,,,,,,,,,,,,,,,,,,,,,,,,,,,
1682357882.204035,-0.001745,0.000000,0.001745,0.010000,0.000000,0.000000,0.010000,0.000000,0.010000,1677685710.047300,0.078453,-9.708583,0.529559,0.010000,0.000000,0.000000,0.010000,0.000000,0.010000,0.000000,0.000000,0.000000,0.000000,-1.000000,0.000000,0.000000,0.000000,0.000000,0.000000,,,,,,,,,,,,,,,,,,,,,,,,,,,,,,,,,,,,,,,,,,,,,,,,,,,,,,,,,,,,,,,,,,
